{"type":"FeatureCollection","features":[{"type":"Feature","geometry":{"type":"Point","coordinates":[138.78087,36.69626]},"properties":{"name":"群馬県日向見発電所","fuel":"","output":""}},{"type":"Feature","geometry":{"type":"Point","coordinates":[138.62831,36.55265]},"properties":{"name":"東京電力リニューアブルパワー㈱ 大津発電所","fuel":"","output":""}},{"type":"Feature","geometry":{"type":"Point","coordinates":[137.40438,35.29167]},"properties":{"name":"明智町恵那市発電所","fuel":"solar","output":""}},{"type":"Feature","geometry":{"type":"Point","coordinates":[139.07923,34.96852]},"properties":{"name":"岡伊東市発電所","fuel":"solar","output":""}},{"type":"Feature","geometry":{"type":"Point","coordinates":[136.84355,36.77161]},"properties":{"name":"沢川宝達志水町発電所","fuel":"solar","output":""}},{"type":"Feature","geometry":{"type":"Point","coordinates":[136.94698,35.09328]},"properties":{"name":"名古屋市鳴海工場","fuel":"waste","output":""}},{"type":"Feature","geometry":{"type":"Point","coordinates":[136.96046,34.84045]},"properties":{"name":"碧南火力発電所","fuel":"coal","output":""}},{"type":"Feature","geometry":{"type":"Point","coordinates":[138.48434,36.15698]},"properties":{"name":"大字高野町佐久穂町発電所","fuel":"hydro","output":""}},{"type":"Feature","geometry":{"type":"Point","coordinates":[137.80568,35.09107]},"properties":{"name":"佐久間発電所","fuel":"hydro","output":""}},{"type":"Feature","geometry":{"type":"Point","coordinates":[136.76563,35.28399]},"properties":{"name":"二子一宮市発電所","fuel":"solar","output":""}},{"type":"Feature","geometry":{"type":"Point","coordinates":[136.76621,35.28366]},"properties":{"name":"二子一宮市発電所","fuel":"solar","output":""}},{"type":"Feature","geometry":{"type":"Point","coordinates":[137.57471,35.08429]},"properties":{"name":"荒尾設楽町発電所","fuel":"solar","output":""}},{"type":"Feature","geometry":{"type":"Point","coordinates":[137.42644,34.70909]},"properties":{"name":"東高田町豊橋市発電所","fuel":"solar","output":""}},{"type":"Feature","geometry":{"type":"Point","coordinates":[137.45419,34.69878]},"properties":{"name":"西山町豊橋市発電所","fuel":"solar","output":""}},{"type":"Feature","geometry":{"type":"Point","coordinates":[138.81504,36.56232]},"properties":{"name":"原町発電所","fuel":"hydro","output":""}},{"type":"Feature","geometry":{"type":"Point","coordinates":[136.8312,35.03225]},"properties":{"name":"西名古屋火力発電所","fuel":"gas","output":""}},{"type":"Feature","geometry":{"type":"Point","coordinates":[136.68875,35.00894]},"properties":{"name":"川越火力発電所","fuel":"gas","output":""}},{"type":"Feature","geometry":{"type":"Point","coordinates":[136.87821,35.06645]},"properties":{"name":"新名古屋火力発電所","fuel":"gas","output":""}},{"type":"Feature","geometry":{"type":"Point","coordinates":[136.84509,34.98602]},"properties":{"name":"知多火力発電所","fuel":"gas","output":""}},{"type":"Feature","geometry":{"type":"Point","coordinates":[136.86363,35.00581]},"properties":{"name":"知多第二火力発電所","fuel":"gas","output":""}},{"type":"Feature","geometry":{"type":"Point","coordinates":[139.19657,35.61604]},"properties":{"name":"神奈川県企業庁 相模発電所","fuel":"hydro","output":""}},{"type":"Feature","geometry":{"type":"Point","coordinates":[138.89778,36.55964]},"properties":{"name":"市城渋川市発電所","fuel":"","output":""}},{"type":"Feature","geometry":{"type":"Point","coordinates":[138.73308,36.57172]},"properties":{"name":"松谷発電所","fuel":"hydro","output":""}},{"type":"Feature","geometry":{"type":"Point","coordinates":[137.59172,36.8036]},"properties":{"name":"新柳河原発電所","fuel":"hydro","output":""}},{"type":"Feature","geometry":{"type":"Point","coordinates":[137.65883,36.69589]},"properties":{"name":"黒部川第三発電所","fuel":"hydro","output":""}},{"type":"Feature","geometry":{"type":"Point","coordinates":[137.63724,35.82227]},"properties":{"name":"三尾水力発電所","fuel":"hydro","output":""}},{"type":"Feature","geometry":{"type":"Point","coordinates":[137.61033,34.7616]},"properties":{"name":"舘山寺町浜松市発電所","fuel":"solar","output":""}},{"type":"Feature","geometry":{"type":"Point","coordinates":[139.17657,35.79944]},"properties":{"name":"東京都交通局 多摩川第三発電所","fuel":"hydro","output":""}},{"type":"Feature","geometry":{"type":"Point","coordinates":[137.10371,35.42862]},"properties":{"name":"柿田可児市発電所","fuel":"solar","output":""}},{"type":"Feature","geometry":{"type":"Point","coordinates":[138.58094,35.6681]},"properties":{"name":"東光寺町甲府市発電所","fuel":"solar","output":""}},{"type":"Feature","geometry":{"type":"Point","coordinates":[138.3521,36.33744]},"properties":{"name":"島川原発電所","fuel":"hydro","output":""}},{"type":"Feature","geometry":{"type":"Point","coordinates":[138.79379,36.54356]},"properties":{"name":"厚田発電所","fuel":"hydro","output":""}},{"type":"Feature","geometry":{"type":"Point","coordinates":[138.44451,35.37456]},"properties":{"name":"波木井身延町発電所","fuel":"hydro","output":""}},{"type":"Feature","geometry":{"type":"Point","coordinates":[138.81005,35.45813]},"properties":{"name":"忍野発電所","fuel":"hydro","output":""}},{"type":"Feature","geometry":{"type":"Point","coordinates":[138.86965,35.52953]},"properties":{"name":"鹿留発電所","fuel":"hydro","output":""}},{"type":"Feature","geometry":{"type":"Point","coordinates":[138.91291,35.55863]},"properties":{"name":"谷村発電所","fuel":"hydro","output":""}},{"type":"Feature","geometry":{"type":"Point","coordinates":[138.92193,35.57523]},"properties":{"name":"川茂発電所","fuel":"hydro","output":""}},{"type":"Feature","geometry":{"type":"Point","coordinates":[137.3215,35.21787]},"properties":{"name":"中部電力 笹戸発電所","fuel":"hydro","output":""}},{"type":"Feature","geometry":{"type":"Point","coordinates":[139.17552,36.45309]},"properties":{"name":"前橋市発電所","fuel":"solar","output":""}},{"type":"Feature","geometry":{"type":"Point","coordinates":[136.76743,35.28501]},"properties":{"name":"萩原町富田方一宮市発電所","fuel":"solar","output":""}},{"type":"Feature","geometry":{"type":"Point","coordinates":[139.14204,36.34894]},"properties":{"name":"駒形町前橋市発電所","fuel":"solar","output":""}},{"type":"Feature","geometry":{"type":"Point","coordinates":[139.00624,36.50377]},"properties":{"name":"渋川発電所","fuel":"hydro","output":""}},{"type":"Feature","geometry":{"type":"Point","coordinates":[138.39308,35.82214]},"properties":{"name":"北杜サイト太陽光発電所","fuel":"solar","output":""}},{"type":"Feature","geometry":{"type":"Point","coordinates":[137.71882,34.678]},"properties":{"name":"法枝町浜松市発電所","fuel":"solar","output":""}},{"type":"Feature","geometry":{"type":"Point","coordinates":[137.21564,36.75769]},"properties":{"name":"富山火力発電所","fuel":"oil","output":""}},{"type":"Feature","geometry":{"type":"Point","coordinates":[137.22309,36.55403]},"properties":{"name":"神通川第二水力発電所","fuel":"hydro","output":""}},{"type":"Feature","geometry":{"type":"Point","coordinates":[137.68988,34.68636]},"properties":{"name":"宝和工業株式会社","fuel":"solar","output":""}},{"type":"Feature","geometry":{"type":"Point","coordinates":[137.11908,36.29455]},"properties":{"name":"河合町小無雁飛驒市発電所","fuel":"","output":""}},{"type":"Feature","geometry":{"type":"Point","coordinates":[137.25758,35.95343]},"properties":{"name":"小坂水力発電所","fuel":"hydro","output":""}},{"type":"Feature","geometry":{"type":"Point","coordinates":[137.18414,35.64487]},"properties":{"name":"佐見川水力発電所","fuel":"hydro","output":""}},{"type":"Feature","geometry":{"type":"Point","coordinates":[136.88363,35.83305]},"properties":{"name":"大和町万場郡上市発電所","fuel":"","output":""}},{"type":"Feature","geometry":{"type":"Point","coordinates":[136.85504,35.89414]},"properties":{"name":"白鳥町郡上市発電所","fuel":"","output":""}},{"type":"Feature","geometry":{"type":"Point","coordinates":[136.93144,35.57259]},"properties":{"name":"立花美濃市発電所","fuel":"","output":""}},{"type":"Feature","geometry":{"type":"Point","coordinates":[136.91653,35.40338]},"properties":{"name":"鵜沼羽場町三丁目各務原市発電所","fuel":"","output":""}},{"type":"Feature","geometry":{"type":"Point","coordinates":[136.93821,35.39927]},"properties":{"name":"鵜沼東町四丁目各務原市発電所","fuel":"","output":""}},{"type":"Feature","geometry":{"type":"Point","coordinates":[138.02728,36.06811]},"properties":{"name":"諏訪湖周クリーンセンター","fuel":"waste","output":""}},{"type":"Feature","geometry":{"type":"Point","coordinates":[136.66856,35.46712]},"properties":{"name":"長屋本巣市発電所","fuel":"solar","output":""}},{"type":"Feature","geometry":{"type":"Point","coordinates":[136.64128,35.37286]},"properties":{"name":"今宿六丁目大垣市発電所","fuel":"","output":""}},{"type":"Feature","geometry":{"type":"Point","coordinates":[136.6786,35.38982]},"properties":{"name":"野田新田瑞穂市発電所","fuel":"","output":""}},{"type":"Feature","geometry":{"type":"Point","coordinates":[136.67707,35.38967]},"properties":{"name":"野田新田瑞穂市発電所","fuel":"","output":""}},{"type":"Feature","geometry":{"type":"Point","coordinates":[136.67663,35.38898]},"properties":{"name":"野田新田瑞穂市発電所","fuel":"","output":""}},{"type":"Feature","geometry":{"type":"Point","coordinates":[136.68054,35.39092]},"properties":{"name":"野田新田瑞穂市発電所","fuel":"solar","output":""}},{"type":"Feature","geometry":{"type":"Point","coordinates":[137.7955,36.18088]},"properties":{"name":"竜島発電所","fuel":"hydro","output":""}},{"type":"Feature","geometry":{"type":"Point","coordinates":[137.794,36.18124]},"properties":{"name":"竜島第二発電所","fuel":"hydro","output":""}},{"type":"Feature","geometry":{"type":"Point","coordinates":[137.56734,34.69293]},"properties":{"name":"新居町新居湖西市発電所","fuel":"solar","output":""}},{"type":"Feature","geometry":{"type":"Point","coordinates":[137.55696,36.85935]},"properties":{"name":"愛本発電所","fuel":"hydro","output":""}},{"type":"Feature","geometry":{"type":"Point","coordinates":[137.54696,36.87072]},"properties":{"name":"黒東第一発電所","fuel":"hydro","output":""}},{"type":"Feature","geometry":{"type":"Point","coordinates":[138.9946,36.36244]},"properties":{"name":"大八木町高崎市発電所","fuel":"solar","output":""}},{"type":"Feature","geometry":{"type":"Point","coordinates":[138.99379,36.36376]},"properties":{"name":"井出町高崎市発電所","fuel":"solar","output":""}},{"type":"Feature","geometry":{"type":"Point","coordinates":[137.70893,34.7459]},"properties":{"name":"和合町浜松市発電所","fuel":"solar","output":""}},{"type":"Feature","geometry":{"type":"Point","coordinates":[137.01905,34.97335]},"properties":{"name":"電気興業依佐美太陽光発電所","fuel":"solar","output":""}},{"type":"Feature","geometry":{"type":"Point","coordinates":[137.62488,34.69609]},"properties":{"name":"雄踏町宇布見浜松市発電所","fuel":"solar","output":""}},{"type":"Feature","geometry":{"type":"Point","coordinates":[137.62267,34.69847]},"properties":{"name":"雄踏町宇布見浜松市発電所","fuel":"solar","output":""}},{"type":"Feature","geometry":{"type":"Point","coordinates":[137.64542,34.68652]},"properties":{"name":"坪井町浜松市発電所","fuel":"solar","output":""}},{"type":"Feature","geometry":{"type":"Point","coordinates":[137.95734,34.81482]},"properties":{"name":"幡鎌掛川市発電所","fuel":"solar","output":""}},{"type":"Feature","geometry":{"type":"Point","coordinates":[137.99507,34.86938]},"properties":{"name":"上西之谷掛川市発電所","fuel":"solar","output":""}},{"type":"Feature","geometry":{"type":"Point","coordinates":[138.04023,34.79052]},"properties":{"name":"安養寺掛川市発電所","fuel":"solar","output":""}},{"type":"Feature","geometry":{"type":"Point","coordinates":[138.0399,34.68726]},"properties":{"name":"大坂掛川市発電所","fuel":"solar","output":""}},{"type":"Feature","geometry":{"type":"Point","coordinates":[138.00852,34.68151]},"properties":{"name":"大渕掛川市発電所","fuel":"solar","output":""}},{"type":"Feature","geometry":{"type":"Point","coordinates":[138.0569,34.66234]},"properties":{"name":"菊浜掛川市発電所","fuel":"solar","output":""}},{"type":"Feature","geometry":{"type":"Point","coordinates":[136.40561,34.65558]},"properties":{"name":"一志町石橋津市発電所","fuel":"","output":""}},{"type":"Feature","geometry":{"type":"Point","coordinates":[136.51146,34.60454]},"properties":{"name":"市場庄町松阪市発電所","fuel":"","output":""}},{"type":"Feature","geometry":{"type":"Point","coordinates":[136.51326,34.60293]},"properties":{"name":"市場庄町松阪市発電所","fuel":"","output":""}},{"type":"Feature","geometry":{"type":"Point","coordinates":[137.99912,34.67739]},"properties":{"name":"洋望台掛川市発電所","fuel":"solar","output":""}},{"type":"Feature","geometry":{"type":"Point","coordinates":[138.00508,34.6834]},"properties":{"name":"大渕掛川市発電所","fuel":"solar","output":""}},{"type":"Feature","geometry":{"type":"Point","coordinates":[136.51322,34.60208]},"properties":{"name":"中部_34.6021_136.5132","fuel":"","output":""}},{"type":"Feature","geometry":{"type":"Point","coordinates":[136.51271,34.67686]},"properties":{"name":"高茶屋二丁目津市発電所","fuel":"","output":""}},{"type":"Feature","geometry":{"type":"Point","coordinates":[136.51294,34.67585]},"properties":{"name":"高茶屋二丁目津市発電所","fuel":"","output":""}},{"type":"Feature","geometry":{"type":"Point","coordinates":[136.50682,34.62998]},"properties":{"name":"嬉野小村町松阪市発電所","fuel":"","output":""}},{"type":"Feature","geometry":{"type":"Point","coordinates":[136.50806,34.62194]},"properties":{"name":"三雲町南幼児園","fuel":"solar","output":""}},{"type":"Feature","geometry":{"type":"Point","coordinates":[136.50833,34.60993]},"properties":{"name":"三雲町南幼児園","fuel":"","output":""}},{"type":"Feature","geometry":{"type":"Point","coordinates":[136.4805,34.61881]},"properties":{"name":"嬉野権現前町松阪市発電所","fuel":"","output":""}},{"type":"Feature","geometry":{"type":"Point","coordinates":[136.44693,34.64719]},"properties":{"name":"一志町八太津市発電所","fuel":"","output":""}},{"type":"Feature","geometry":{"type":"Point","coordinates":[136.41697,34.64416]},"properties":{"name":"一志町井関津市発電所","fuel":"","output":""}},{"type":"Feature","geometry":{"type":"Point","coordinates":[136.41672,34.64394]},"properties":{"name":"一志町井関津市発電所","fuel":"","output":""}},{"type":"Feature","geometry":{"type":"Point","coordinates":[136.34234,34.64016]},"properties":{"name":"津市発電所","fuel":"","output":""}},{"type":"Feature","geometry":{"type":"Point","coordinates":[136.3098,34.60044]},"properties":{"name":"竹原水力発電所","fuel":"solar","output":""}},{"type":"Feature","geometry":{"type":"Point","coordinates":[138.07096,34.67873]},"properties":{"name":"西ヶ崎掛川市発電所","fuel":"solar","output":""}},{"type":"Feature","geometry":{"type":"Point","coordinates":[136.59905,34.84224]},"properties":{"name":"北江島町鈴鹿市発電所","fuel":"","output":""}},{"type":"Feature","geometry":{"type":"Point","coordinates":[136.53204,35.00099]},"properties":{"name":"朝日ガスエナジー株式会社","fuel":"","output":""}},{"type":"Feature","geometry":{"type":"Point","coordinates":[136.48497,35.01306]},"properties":{"name":"大羽根園青葉町菰野町発電所","fuel":"","output":""}},{"type":"Feature","geometry":{"type":"Point","coordinates":[136.48599,35.01278]},"properties":{"name":"大羽根園呉竹町菰野町発電所","fuel":"","output":""}},{"type":"Feature","geometry":{"type":"Point","coordinates":[136.531,35.00256]},"properties":{"name":"朝日ガスエナジー株式会社","fuel":"","output":""}},{"type":"Feature","geometry":{"type":"Point","coordinates":[136.55226,34.98707]},"properties":{"name":"智積町四日市市発電所","fuel":"","output":""}},{"type":"Feature","geometry":{"type":"Point","coordinates":[136.6012,34.9558]},"properties":{"name":"日永西一丁目四日市市発電所","fuel":"solar","output":""}},{"type":"Feature","geometry":{"type":"Point","coordinates":[136.76962,35.2862]},"properties":{"name":"苅安賀一丁目一宮市発電所","fuel":"solar","output":""}},{"type":"Feature","geometry":{"type":"Point","coordinates":[137.99513,34.67579]},"properties":{"name":"洋望台掛川市発電所","fuel":"solar","output":""}},{"type":"Feature","geometry":{"type":"Point","coordinates":[136.589,34.92679]},"properties":{"name":"小古曽三丁目四日市市発電所","fuel":"solar","output":""}},{"type":"Feature","geometry":{"type":"Point","coordinates":[138.01302,34.67652]},"properties":{"name":"掛川市発電所","fuel":"solar","output":""}},{"type":"Feature","geometry":{"type":"Point","coordinates":[136.66636,35.02569]},"properties":{"name":"川越町立川越南小学校","fuel":"solar","output":""}},{"type":"Feature","geometry":{"type":"Point","coordinates":[138.05824,34.6555]},"properties":{"name":"大東海洋公園風力発電所","fuel":"solar","output":""}},{"type":"Feature","geometry":{"type":"Point","coordinates":[138.05957,34.65563]},"properties":{"name":"大東海洋公園風力発電所","fuel":"solar","output":""}},{"type":"Feature","geometry":{"type":"Point","coordinates":[138.0612,34.65548]},"properties":{"name":"大東海洋公園風力発電所","fuel":"solar","output":""}},{"type":"Feature","geometry":{"type":"Point","coordinates":[136.90935,36.14038]},"properties":{"name":"御母衣水力発電所","fuel":"hydro","output":""}},{"type":"Feature","geometry":{"type":"Point","coordinates":[136.87501,36.35412]},"properties":{"name":"新成出水力発電所","fuel":"hydro","output":""}},{"type":"Feature","geometry":{"type":"Point","coordinates":[139.11389,35.23254]},"properties":{"name":"箱根町発電所","fuel":"hydro","output":""}},{"type":"Feature","geometry":{"type":"Point","coordinates":[138.24297,35.94719]},"properties":{"name":"中新田原村発電所","fuel":"solar","output":""}},{"type":"Feature","geometry":{"type":"Point","coordinates":[138.38222,35.7976]},"properties":{"name":"長坂町富岡北杜市発電所","fuel":"solar","output":""}},{"type":"Feature","geometry":{"type":"Point","coordinates":[138.46053,35.70119]},"properties":{"name":"山梨県北巨摩合同庁舎峡北地域振興局太陽電池発電所","fuel":"solar","output":""}},{"type":"Feature","geometry":{"type":"Point","coordinates":[138.50688,35.66878]},"properties":{"name":"竜王甲斐市発電所","fuel":"solar","output":""}},{"type":"Feature","geometry":{"type":"Point","coordinates":[138.62408,35.65734]},"properties":{"name":"川田町甲府市発電所","fuel":"solar","output":""}},{"type":"Feature","geometry":{"type":"Point","coordinates":[138.62267,35.6573]},"properties":{"name":"川田町甲府市発電所","fuel":"solar","output":""}},{"type":"Feature","geometry":{"type":"Point","coordinates":[138.67762,35.68627]},"properties":{"name":"万力山梨市発電所","fuel":"","output":""}},{"type":"Feature","geometry":{"type":"Point","coordinates":[138.69133,35.68795]},"properties":{"name":"上石森山梨市発電所","fuel":"","output":""}},{"type":"Feature","geometry":{"type":"Point","coordinates":[138.69689,35.69132]},"properties":{"name":"小原東山梨市発電所","fuel":"","output":""}},{"type":"Feature","geometry":{"type":"Point","coordinates":[138.72379,35.70595]},"properties":{"name":"塩山上於曽甲州市発電所","fuel":"","output":""}},{"type":"Feature","geometry":{"type":"Point","coordinates":[138.74086,35.70483]},"properties":{"name":"塩山赤尾甲州市発電所","fuel":"","output":""}},{"type":"Feature","geometry":{"type":"Point","coordinates":[138.05782,34.78384]},"properties":{"name":"本所掛川市発電所","fuel":"solar","output":""}},{"type":"Feature","geometry":{"type":"Point","coordinates":[136.01997,35.75198]},"properties":{"name":"敦賀原子力発電所","fuel":"nuclear","output":""}},{"type":"Feature","geometry":{"type":"Point","coordinates":[138.18485,36.85364]},"properties":{"name":"杉野沢発電所","fuel":"hydro","output":""}},{"type":"Feature","geometry":{"type":"Point","coordinates":[138.36625,35.40996]},"properties":{"name":"角瀬発電所","fuel":"hydro","output":""}},{"type":"Feature","geometry":{"type":"Point","coordinates":[138.00408,34.67557]},"properties":{"name":"掛川市発電所","fuel":"solar","output":""}},{"type":"Feature","geometry":{"type":"Point","coordinates":[136.58153,34.81886]},"properties":{"name":"寺家太陽光発電所","fuel":"solar","output":""}},{"type":"Feature","geometry":{"type":"Point","coordinates":[137.79051,35.30316]},"properties":{"name":"豊発電所","fuel":"hydro","output":""}},{"type":"Feature","geometry":{"type":"Point","coordinates":[137.94532,34.87863]},"properties":{"name":"西俣森町発電所","fuel":"solar","output":""}},{"type":"Feature","geometry":{"type":"Point","coordinates":[137.93909,34.83868]},"properties":{"name":"向天方発電所","fuel":"solar","output":""}},{"type":"Feature","geometry":{"type":"Point","coordinates":[137.91547,34.82663]},"properties":{"name":"草ヶ谷発電所","fuel":"solar","output":""}},{"type":"Feature","geometry":{"type":"Point","coordinates":[138.50884,34.99972]},"properties":{"name":"清水区静岡市発電所","fuel":"solar","output":""}},{"type":"Feature","geometry":{"type":"Point","coordinates":[137.8948,34.95984]},"properties":{"name":"天竜区浜松市発電所","fuel":"solar","output":""}},{"type":"Feature","geometry":{"type":"Point","coordinates":[138.05671,34.76254]},"properties":{"name":"浜崎商店 菊川市西方ソーラー発電所","fuel":"solar","output":""}},{"type":"Feature","geometry":{"type":"Point","coordinates":[138.20618,34.61768]},"properties":{"name":"元旦ビューティ工業株式会社","fuel":"solar","output":""}},{"type":"Feature","geometry":{"type":"Point","coordinates":[138.07943,34.78202]},"properties":{"name":"菊川市発電所","fuel":"solar","output":""}},{"type":"Feature","geometry":{"type":"Point","coordinates":[138.12749,34.78335]},"properties":{"name":"下倉沢菊川市発電所","fuel":"solar","output":""}},{"type":"Feature","geometry":{"type":"Point","coordinates":[138.109,34.77739]},"properties":{"name":"吉沢菊川市発電所","fuel":"solar","output":""}},{"type":"Feature","geometry":{"type":"Point","coordinates":[138.09387,34.67671]},"properties":{"name":"枝善菊川市発電所","fuel":"solar","output":""}},{"type":"Feature","geometry":{"type":"Point","coordinates":[138.09762,34.67607]},"properties":{"name":"東谷菊川市発電所","fuel":"solar","output":""}},{"type":"Feature","geometry":{"type":"Point","coordinates":[138.09785,34.67539]},"properties":{"name":"東谷菊川市発電所","fuel":"solar","output":""}},{"type":"Feature","geometry":{"type":"Point","coordinates":[139.04315,36.45104]},"properties":{"name":"田口発電所","fuel":"hydro","output":""}},{"type":"Feature","geometry":{"type":"Point","coordinates":[139.0429,36.45115]},"properties":{"name":"群馬県坂東発電事務所","fuel":"hydro","output":""}},{"type":"Feature","geometry":{"type":"Point","coordinates":[137.95867,34.66929]},"properties":{"name":"袋井市発電所","fuel":"solar","output":""}},{"type":"Feature","geometry":{"type":"Point","coordinates":[137.87596,34.80374]},"properties":{"name":"友永袋井市発電所","fuel":"solar","output":""}},{"type":"Feature","geometry":{"type":"Point","coordinates":[137.94587,34.67174]},"properties":{"name":"東同笠袋井市発電所","fuel":"solar","output":""}},{"type":"Feature","geometry":{"type":"Point","coordinates":[138.1127,34.77288]},"properties":{"name":"和田菊川市発電所","fuel":"solar","output":""}},{"type":"Feature","geometry":{"type":"Point","coordinates":[138.13202,34.63501]},"properties":{"name":"御前崎市発電所","fuel":"solar","output":""}},{"type":"Feature","geometry":{"type":"Point","coordinates":[138.20027,34.60879]},"properties":{"name":"御前崎町白羽小学校","fuel":"solar","output":""}},{"type":"Feature","geometry":{"type":"Point","coordinates":[138.08975,34.67411]},"properties":{"name":"枝善菊川市発電所","fuel":"solar","output":""}},{"type":"Feature","geometry":{"type":"Point","coordinates":[138.18353,34.62591]},"properties":{"name":"牧之原市発電所","fuel":"solar","output":""}},{"type":"Feature","geometry":{"type":"Point","coordinates":[138.22988,34.60294]},"properties":{"name":"マリンパーク御前崎風力発電所","fuel":"solar","output":""}},{"type":"Feature","geometry":{"type":"Point","coordinates":[138.23219,34.60212]},"properties":{"name":"マリンパーク御前崎風力発電所","fuel":"solar","output":""}},{"type":"Feature","geometry":{"type":"Point","coordinates":[138.17311,34.62253]},"properties":{"name":"洗井御前崎市発電所","fuel":"solar","output":""}},{"type":"Feature","geometry":{"type":"Point","coordinates":[138.10035,34.64787]},"properties":{"name":"塩原新田御前崎市発電所","fuel":"solar","output":""}},{"type":"Feature","geometry":{"type":"Point","coordinates":[138.10834,34.65995]},"properties":{"name":"門屋御前崎市発電所","fuel":"solar","output":""}},{"type":"Feature","geometry":{"type":"Point","coordinates":[137.0971,34.93165]},"properties":{"name":"株式会社エイ・ダブリュ・エンジニアリング","fuel":"solar","output":""}},{"type":"Feature","geometry":{"type":"Point","coordinates":[137.11989,34.905]},"properties":{"name":"福桶町岡崎市発電所","fuel":"","output":""}},{"type":"Feature","geometry":{"type":"Point","coordinates":[137.15251,34.86966]},"properties":{"name":"野場幸田町発電所","fuel":"solar","output":""}},{"type":"Feature","geometry":{"type":"Point","coordinates":[137.25111,34.82041]},"properties":{"name":"三谷北通一丁目蒲郡市発電所","fuel":"solar","output":""}},{"type":"Feature","geometry":{"type":"Point","coordinates":[137.25334,34.81931]},"properties":{"name":"三谷北通一丁目蒲郡市発電所","fuel":"solar","output":""}},{"type":"Feature","geometry":{"type":"Point","coordinates":[137.36045,34.78651]},"properties":{"name":"川崎町豊橋市発電所","fuel":"solar","output":""}},{"type":"Feature","geometry":{"type":"Point","coordinates":[137.35662,34.78686]},"properties":{"name":"清須町豊橋市発電所","fuel":"solar","output":""}},{"type":"Feature","geometry":{"type":"Point","coordinates":[138.12888,34.65388]},"properties":{"name":"御前崎市発電所","fuel":"solar","output":""}},{"type":"Feature","geometry":{"type":"Point","coordinates":[138.1707,34.62256]},"properties":{"name":"洗井御前崎市発電所","fuel":"solar","output":""}},{"type":"Feature","geometry":{"type":"Point","coordinates":[138.16631,34.62137]},"properties":{"name":"洗井御前崎市発電所","fuel":"solar","output":""}},{"type":"Feature","geometry":{"type":"Point","coordinates":[138.17155,34.62381]},"properties":{"name":"洗井御前崎市発電所","fuel":"solar","output":""}},{"type":"Feature","geometry":{"type":"Point","coordinates":[138.1905,34.62147]},"properties":{"name":"白羽御前崎市発電所","fuel":"solar","output":""}},{"type":"Feature","geometry":{"type":"Point","coordinates":[138.07584,34.75236]},"properties":{"name":"菊川町市立菊川学校給食センター","fuel":"solar","output":""}},{"type":"Feature","geometry":{"type":"Point","coordinates":[137.69869,34.73647]},"properties":{"name":"富塚町浜松市発電所","fuel":"solar","output":""}},{"type":"Feature","geometry":{"type":"Point","coordinates":[137.41311,34.73464]},"properties":{"name":"株式会社野口製作所","fuel":"","output":""}},{"type":"Feature","geometry":{"type":"Point","coordinates":[137.60051,34.69202]},"properties":{"name":"舞阪町弁天島浜松市発電所","fuel":"solar","output":""}},{"type":"Feature","geometry":{"type":"Point","coordinates":[137.5967,34.69322]},"properties":{"name":"舞阪町弁天島浜松市発電所","fuel":"solar","output":""}},{"type":"Feature","geometry":{"type":"Point","coordinates":[137.61601,34.68731]},"properties":{"name":"舞阪町舞阪浜松市発電所","fuel":"solar","output":""}},{"type":"Feature","geometry":{"type":"Point","coordinates":[137.61543,34.68723]},"properties":{"name":"舞阪町舞阪浜松市発電所","fuel":"solar","output":""}},{"type":"Feature","geometry":{"type":"Point","coordinates":[137.61005,34.68835]},"properties":{"name":"舞阪町舞阪浜松市発電所","fuel":"solar","output":""}},{"type":"Feature","geometry":{"type":"Point","coordinates":[137.65597,34.69117]},"properties":{"name":"篠原町浜松市発電所","fuel":"solar","output":""}},{"type":"Feature","geometry":{"type":"Point","coordinates":[137.65492,34.69043]},"properties":{"name":"篠原町浜松市発電所","fuel":"solar","output":""}},{"type":"Feature","geometry":{"type":"Point","coordinates":[137.70038,34.6938]},"properties":{"name":"若林町浜松市発電所","fuel":"solar","output":""}},{"type":"Feature","geometry":{"type":"Point","coordinates":[137.67985,34.69503]},"properties":{"name":"高塚町浜松市発電所","fuel":"solar","output":""}},{"type":"Feature","geometry":{"type":"Point","coordinates":[137.86821,34.70929]},"properties":{"name":"鳥之瀬磐田市発電所","fuel":"","output":""}},{"type":"Feature","geometry":{"type":"Point","coordinates":[136.59409,36.45499]},"properties":{"name":"手取川宮竹用水第2発電所","fuel":"hydro","output":""}},{"type":"Feature","geometry":{"type":"Point","coordinates":[136.56475,36.45589]},"properties":{"name":"宮竹用水第1発電所","fuel":"hydro","output":""}},{"type":"Feature","geometry":{"type":"Point","coordinates":[137.61067,34.74157]},"properties":{"name":"協和町浜松市発電所","fuel":"solar","output":""}},{"type":"Feature","geometry":{"type":"Point","coordinates":[137.60787,34.74256]},"properties":{"name":"協和町浜松市発電所","fuel":"solar","output":""}},{"type":"Feature","geometry":{"type":"Point","coordinates":[137.60734,34.74099]},"properties":{"name":"中部_34.7410_137.6073","fuel":"solar","output":""}},{"type":"Feature","geometry":{"type":"Point","coordinates":[137.6051,34.74436]},"properties":{"name":"庄和町浜松市発電所","fuel":"solar","output":""}},{"type":"Feature","geometry":{"type":"Point","coordinates":[137.60722,34.74391]},"properties":{"name":"協和町浜松市発電所","fuel":"solar","output":""}},{"type":"Feature","geometry":{"type":"Point","coordinates":[137.60927,34.73687]},"properties":{"name":"株式会社オーエムソーラー協会","fuel":"solar","output":""}},{"type":"Feature","geometry":{"type":"Point","coordinates":[137.60712,34.73774]},"properties":{"name":"庄和町浜松市発電所","fuel":"solar","output":""}},{"type":"Feature","geometry":{"type":"Point","coordinates":[137.61185,34.74469]},"properties":{"name":"協和町浜松市発電所","fuel":"solar","output":""}},{"type":"Feature","geometry":{"type":"Point","coordinates":[137.61097,34.73975]},"properties":{"name":"協和町浜松市発電所","fuel":"solar","output":""}},{"type":"Feature","geometry":{"type":"Point","coordinates":[138.58535,35.66615]},"properties":{"name":"東光寺三丁目甲府市発電所","fuel":"solar","output":""}},{"type":"Feature","geometry":{"type":"Point","coordinates":[138.16004,34.63008]},"properties":{"name":"雨垂御前崎市発電所","fuel":"solar","output":""}},{"type":"Feature","geometry":{"type":"Point","coordinates":[138.59265,35.58225]},"properties":{"name":"上向山町甲府市発電所","fuel":"solar","output":""}},{"type":"Feature","geometry":{"type":"Point","coordinates":[138.5929,35.58363]},"properties":{"name":"上向山町甲府市発電所","fuel":"solar","output":""}},{"type":"Feature","geometry":{"type":"Point","coordinates":[138.59226,35.58371]},"properties":{"name":"上向山町甲府市発電所","fuel":"solar","output":""}},{"type":"Feature","geometry":{"type":"Point","coordinates":[138.57124,36.54747]},"properties":{"name":"今井発電所","fuel":"hydro","output":""}},{"type":"Feature","geometry":{"type":"Point","coordinates":[138.2639,34.76719]},"properties":{"name":"川尻吉田町発電所","fuel":"solar","output":""}},{"type":"Feature","geometry":{"type":"Point","coordinates":[139.11006,35.80224]},"properties":{"name":"氷川発電所","fuel":"hydro","output":""}},{"type":"Feature","geometry":{"type":"Point","coordinates":[138.23524,36.40514]},"properties":{"name":"常磐城三丁目上田市発電所","fuel":"","output":""}},{"type":"Feature","geometry":{"type":"Point","coordinates":[138.92954,36.36485]},"properties":{"name":"本郷太陽光発電所","fuel":"solar","output":""}},{"type":"Feature","geometry":{"type":"Point","coordinates":[137.4124,36.83981]},"properties":{"name":"仏又魚津市発電所","fuel":"solar","output":""}},{"type":"Feature","geometry":{"type":"Point","coordinates":[137.37168,36.78361]},"properties":{"name":"四ツ屋滑川市発電所","fuel":"","output":""}},{"type":"Feature","geometry":{"type":"Point","coordinates":[137.31888,36.69465]},"properties":{"name":"浦田立山町発電所","fuel":"","output":""}},{"type":"Feature","geometry":{"type":"Point","coordinates":[137.9275,35.04437]},"properties":{"name":"天竜区浜松市発電所","fuel":"hydro","output":""}},{"type":"Feature","geometry":{"type":"Point","coordinates":[137.84762,34.78355]},"properties":{"name":"磐田市発電所","fuel":"solar","output":""}},{"type":"Feature","geometry":{"type":"Point","coordinates":[137.87146,34.76922]},"properties":{"name":"笠梅磐田市発電所","fuel":"solar","output":""}},{"type":"Feature","geometry":{"type":"Point","coordinates":[137.80895,34.70018]},"properties":{"name":"堀之内磐田市発電所","fuel":"solar","output":""}},{"type":"Feature","geometry":{"type":"Point","coordinates":[137.82074,34.748]},"properties":{"name":"東名磐田市発電所","fuel":"solar","output":""}},{"type":"Feature","geometry":{"type":"Point","coordinates":[136.93628,36.60517]},"properties":{"name":"川除新南砺市発電所","fuel":"","output":""}},{"type":"Feature","geometry":{"type":"Point","coordinates":[136.88489,36.56441]},"properties":{"name":"下吉江南砺市発電所","fuel":"","output":""}},{"type":"Feature","geometry":{"type":"Point","coordinates":[136.89244,36.57345]},"properties":{"name":"下吉江南砺市発電所","fuel":"","output":""}},{"type":"Feature","geometry":{"type":"Point","coordinates":[136.99578,36.84534]},"properties":{"name":"窪氷見市発電所","fuel":"","output":""}},{"type":"Feature","geometry":{"type":"Point","coordinates":[137.05572,36.79771]},"properties":{"name":"伏木本町高岡市発電所","fuel":"","output":""}},{"type":"Feature","geometry":{"type":"Point","coordinates":[137.87822,34.67481]},"properties":{"name":"磐田市福田支所太陽光発電設備","fuel":"solar","output":""}},{"type":"Feature","geometry":{"type":"Point","coordinates":[137.87835,34.68453]},"properties":{"name":"磐田市福田支所太陽光発電設備","fuel":"solar","output":""}},{"type":"Feature","geometry":{"type":"Point","coordinates":[137.05165,36.77589]},"properties":{"name":"吉久一丁目高岡市発電所","fuel":"","output":""}},{"type":"Feature","geometry":{"type":"Point","coordinates":[138.14266,35.1654]},"properties":{"name":"奥泉水力発電所","fuel":"hydro","output":""}},{"type":"Feature","geometry":{"type":"Point","coordinates":[137.13926,36.71665]},"properties":{"name":"願海寺富山市発電所","fuel":"","output":""}},{"type":"Feature","geometry":{"type":"Point","coordinates":[137.15466,36.71753]},"properties":{"name":"富山いすゞ自動車株式会社","fuel":"","output":""}},{"type":"Feature","geometry":{"type":"Point","coordinates":[137.31155,36.70288]},"properties":{"name":"佛生寺舟橋村発電所","fuel":"","output":""}},{"type":"Feature","geometry":{"type":"Point","coordinates":[138.19847,34.67669]},"properties":{"name":"株式会社　栗山商店","fuel":"solar","output":""}},{"type":"Feature","geometry":{"type":"Point","coordinates":[137.861,34.81456]},"properties":{"name":"社山磐田市発電所","fuel":"solar","output":""}},{"type":"Feature","geometry":{"type":"Point","coordinates":[136.27595,36.01767]},"properties":{"name":"小路町福井市発電所","fuel":"solar","output":""}},{"type":"Feature","geometry":{"type":"Point","coordinates":[137.5677,36.96011]},"properties":{"name":"沼保朝日町発電所","fuel":"solar","output":""}},{"type":"Feature","geometry":{"type":"Point","coordinates":[137.17468,36.59996]},"properties":{"name":"薄島発電所","fuel":"hydro","output":""}},{"type":"Feature","geometry":{"type":"Point","coordinates":[137.17,36.67688]},"properties":{"name":"婦中町島本郷富山市発電所","fuel":"solar","output":""}},{"type":"Feature","geometry":{"type":"Point","coordinates":[137.12104,36.69554]},"properties":{"name":"中老田射水市発電所","fuel":"solar","output":""}},{"type":"Feature","geometry":{"type":"Point","coordinates":[136.15594,34.74051]},"properties":{"name":"伊賀市立友生小学校","fuel":"solar","output":""}},{"type":"Feature","geometry":{"type":"Point","coordinates":[136.1542,34.73889]},"properties":{"name":"伊賀市立友生小学校","fuel":"solar","output":""}},{"type":"Feature","geometry":{"type":"Point","coordinates":[137.70793,34.77658]},"properties":{"name":"株式会社ケーデイーケー","fuel":"solar","output":""}},{"type":"Feature","geometry":{"type":"Point","coordinates":[137.32016,36.53154]},"properties":{"name":"富山市発電所","fuel":"hydro","output":""}},{"type":"Feature","geometry":{"type":"Point","coordinates":[137.23869,36.56731]},"properties":{"name":"SGET富山メガソーラー発電所","fuel":"solar","output":""}},{"type":"Feature","geometry":{"type":"Point","coordinates":[137.30206,36.60717]},"properties":{"name":"熊野川第二発電所","fuel":"","output":""}},{"type":"Feature","geometry":{"type":"Point","coordinates":[138.08254,35.00537]},"properties":{"name":"久野脇水力発電所","fuel":"hydro","output":""}},{"type":"Feature","geometry":{"type":"Point","coordinates":[137.20684,36.56072]},"properties":{"name":"関西電力","fuel":"","output":""}},{"type":"Feature","geometry":{"type":"Point","coordinates":[136.59652,36.46312]},"properties":{"name":"七ヶ用水発電所","fuel":"hydro","output":""}},{"type":"Feature","geometry":{"type":"Point","coordinates":[137.93572,35.19796]},"properties":{"name":"水窪町地頭方浜松市発電所","fuel":"solar","output":""}},{"type":"Feature","geometry":{"type":"Point","coordinates":[137.70713,34.78145]},"properties":{"name":"株式会社ケーデイーケー","fuel":"solar","output":""}},{"type":"Feature","geometry":{"type":"Point","coordinates":[136.9956,36.5752]},"properties":{"name":"庄川合口ダム","fuel":"hydro","output":""}},{"type":"Feature","geometry":{"type":"Point","coordinates":[137.42606,34.71997]},"properties":{"name":"高田町豊橋市発電所","fuel":"solar","output":""}},{"type":"Feature","geometry":{"type":"Point","coordinates":[137.29889,36.33798]},"properties":{"name":"北陸電力東町発電所","fuel":"hydro","output":""}},{"type":"Feature","geometry":{"type":"Point","coordinates":[137.71452,34.77018]},"properties":{"name":"太陽光パネル","fuel":"solar","output":""}},{"type":"Feature","geometry":{"type":"Point","coordinates":[137.20598,36.72515]},"properties":{"name":"神通川浄水場太陽光発電所","fuel":"solar","output":""}},{"type":"Feature","geometry":{"type":"Point","coordinates":[138.87113,34.70991]},"properties":{"name":"加増野下田市発電所","fuel":"solar","output":""}},{"type":"Feature","geometry":{"type":"Point","coordinates":[136.08828,34.78691]},"properties":{"name":"伊賀市発電所","fuel":"solar","output":""}},{"type":"Feature","geometry":{"type":"Point","coordinates":[138.20137,34.67988]},"properties":{"name":"株式会社　栗山商店","fuel":"solar","output":""}},{"type":"Feature","geometry":{"type":"Point","coordinates":[137.78875,34.82288]},"properties":{"name":"尾野浜松市発電所","fuel":"solar","output":""}},{"type":"Feature","geometry":{"type":"Point","coordinates":[138.17554,34.69004]},"properties":{"name":"須々木牧之原市発電所","fuel":"solar","output":""}},{"type":"Feature","geometry":{"type":"Point","coordinates":[138.80726,34.79762]},"properties":{"name":"仁科川第三発電所","fuel":"hydro","output":""}},{"type":"Feature","geometry":{"type":"Point","coordinates":[138.84621,36.36133]},"properties":{"name":"秋間みのりが丘安中市発電所","fuel":"","output":""}},{"type":"Feature","geometry":{"type":"Point","coordinates":[136.13322,34.78368]},"properties":{"name":"服部町伊賀市発電所","fuel":"solar","output":""}},{"type":"Feature","geometry":{"type":"Point","coordinates":[139.06856,35.21659]},"properties":{"name":"畑宿発電所","fuel":"hydro","output":""}},{"type":"Feature","geometry":{"type":"Point","coordinates":[137.55371,36.93094]},"properties":{"name":"大家庄朝日町発電所","fuel":"","output":""}},{"type":"Feature","geometry":{"type":"Point","coordinates":[137.14561,36.5625]},"properties":{"name":"八尾町下笹原富山市発電所","fuel":"","output":""}},{"type":"Feature","geometry":{"type":"Point","coordinates":[136.73747,35.4569]},"properties":{"name":"岐阜大学","fuel":"solar","output":""}},{"type":"Feature","geometry":{"type":"Point","coordinates":[137.64785,34.73731]},"properties":{"name":"浜松市立はまゆう図書館","fuel":"solar","output":""}},{"type":"Feature","geometry":{"type":"Point","coordinates":[136.72381,35.47662]},"properties":{"name":"深坂一丁目岐阜市発電所","fuel":"solar","output":""}},{"type":"Feature","geometry":{"type":"Point","coordinates":[137.67244,34.67323]},"properties":{"name":"浜松市西部清掃工場発電所","fuel":"solar","output":""}},{"type":"Feature","geometry":{"type":"Point","coordinates":[139.14649,35.29321]},"properties":{"name":"飯田岡小田原市発電所","fuel":"solar","output":""}},{"type":"Feature","geometry":{"type":"Point","coordinates":[136.70832,35.4769]},"properties":{"name":"御望岐阜市発電所","fuel":"solar","output":""}},{"type":"Feature","geometry":{"type":"Point","coordinates":[136.69925,35.48114]},"properties":{"name":"上西郷九丁目岐阜市発電所","fuel":"solar","output":""}},{"type":"Feature","geometry":{"type":"Point","coordinates":[137.86508,36.42475]},"properties":{"name":"松川村発電所","fuel":"solar","output":""}},{"type":"Feature","geometry":{"type":"Point","coordinates":[138.17042,34.72894]},"properties":{"name":"蛭ケ谷牧之原市発電所","fuel":"solar","output":""}},{"type":"Feature","geometry":{"type":"Point","coordinates":[138.17182,34.72341]},"properties":{"name":"蛭ケ谷牧之原市発電所","fuel":"solar","output":""}},{"type":"Feature","geometry":{"type":"Point","coordinates":[137.59157,34.69299]},"properties":{"name":"湖西市発電所","fuel":"solar","output":""}},{"type":"Feature","geometry":{"type":"Point","coordinates":[137.5933,34.69247]},"properties":{"name":"湖西市発電所","fuel":"solar","output":""}},{"type":"Feature","geometry":{"type":"Point","coordinates":[137.64801,34.74068]},"properties":{"name":"浜松市立はまゆう図書館","fuel":"solar","output":""}},{"type":"Feature","geometry":{"type":"Point","coordinates":[137.6486,34.74101]},"properties":{"name":"浜松市立はまゆう図書館","fuel":"solar","output":""}},{"type":"Feature","geometry":{"type":"Point","coordinates":[136.69844,35.476]},"properties":{"name":"上西郷一丁目岐阜市発電所","fuel":"solar","output":""}},{"type":"Feature","geometry":{"type":"Point","coordinates":[136.69354,35.48427]},"properties":{"name":"本巣市発電所","fuel":"solar","output":""}},{"type":"Feature","geometry":{"type":"Point","coordinates":[136.69231,35.48619]},"properties":{"name":"本巣市発電所","fuel":"solar","output":""}},{"type":"Feature","geometry":{"type":"Point","coordinates":[137.60056,34.72245]},"properties":{"name":"株式会社オーエムソーラー協会","fuel":"solar","output":""}},{"type":"Feature","geometry":{"type":"Point","coordinates":[137.58843,34.72588]},"properties":{"name":"中部_34.7259_137.5884","fuel":"solar","output":""}},{"type":"Feature","geometry":{"type":"Point","coordinates":[137.52953,34.82822]},"properties":{"name":"三ヶ日町平山浜松市発電所","fuel":"solar","output":""}},{"type":"Feature","geometry":{"type":"Point","coordinates":[137.55638,36.94052]},"properties":{"name":"桜町朝日町発電所","fuel":"","output":""}},{"type":"Feature","geometry":{"type":"Point","coordinates":[137.64109,34.73367]},"properties":{"name":"大人見町浜松市発電所","fuel":"solar","output":""}},{"type":"Feature","geometry":{"type":"Point","coordinates":[137.59836,34.72739]},"properties":{"name":"株式会社オーエムソーラー協会","fuel":"solar","output":""}},{"type":"Feature","geometry":{"type":"Point","coordinates":[137.5889,34.72848]},"properties":{"name":"村櫛町浜松市発電所","fuel":"solar","output":""}},{"type":"Feature","geometry":{"type":"Point","coordinates":[137.59009,34.73268]},"properties":{"name":"村櫛町浜松市発電所","fuel":"solar","output":""}},{"type":"Feature","geometry":{"type":"Point","coordinates":[137.66327,34.73678]},"properties":{"name":"浜松市立はまゆう図書館","fuel":"solar","output":""}},{"type":"Feature","geometry":{"type":"Point","coordinates":[137.62065,34.68068]},"properties":{"name":"舞阪町浜田浜松市発電所","fuel":"solar","output":""}},{"type":"Feature","geometry":{"type":"Point","coordinates":[137.63288,34.70931]},"properties":{"name":"雄踏町宇布見浜松市発電所","fuel":"solar","output":""}},{"type":"Feature","geometry":{"type":"Point","coordinates":[138.18459,34.70687]},"properties":{"name":"女神牧之原市発電所","fuel":"solar","output":""}},{"type":"Feature","geometry":{"type":"Point","coordinates":[138.25026,34.75767]},"properties":{"name":"吉田町立住吉小学校","fuel":"solar","output":""}},{"type":"Feature","geometry":{"type":"Point","coordinates":[138.22826,34.747]},"properties":{"name":"医療法人　社団　榛原赤堀整形外科医院","fuel":"solar","output":""}},{"type":"Feature","geometry":{"type":"Point","coordinates":[138.23604,34.743]},"properties":{"name":"医療法人　社団　榛原赤堀整形外科医院","fuel":"solar","output":""}},{"type":"Feature","geometry":{"type":"Point","coordinates":[137.64163,34.69984]},"properties":{"name":"雄踏町宇布見浜松市発電所","fuel":"solar","output":""}},{"type":"Feature","geometry":{"type":"Point","coordinates":[137.64259,34.71976]},"properties":{"name":"大久保町浜松市発電所","fuel":"solar","output":""}},{"type":"Feature","geometry":{"type":"Point","coordinates":[137.64301,34.72016]},"properties":{"name":"雄踏町山崎浜松市発電所","fuel":"solar","output":""}},{"type":"Feature","geometry":{"type":"Point","coordinates":[136.69197,35.48661]},"properties":{"name":"本巣市発電所","fuel":"solar","output":""}},{"type":"Feature","geometry":{"type":"Point","coordinates":[136.69199,35.48576]},"properties":{"name":"本巣市発電所","fuel":"solar","output":""}},{"type":"Feature","geometry":{"type":"Point","coordinates":[136.67176,35.48568]},"properties":{"name":"本巣市立本巣中学校","fuel":"solar","output":""}},{"type":"Feature","geometry":{"type":"Point","coordinates":[137.04489,34.7938]},"properties":{"name":"榊原工業株式会社","fuel":"solar","output":""}},{"type":"Feature","geometry":{"type":"Point","coordinates":[137.04457,34.79342]},"properties":{"name":"一色町松木島西尾市発電所","fuel":"solar","output":""}},{"type":"Feature","geometry":{"type":"Point","coordinates":[138.30875,34.79941]},"properties":{"name":"高新田焼津市発電所","fuel":"solar","output":""}},{"type":"Feature","geometry":{"type":"Point","coordinates":[138.285,34.79381]},"properties":{"name":"焼津市発電所","fuel":"solar","output":""}},{"type":"Feature","geometry":{"type":"Point","coordinates":[138.28501,34.79351]},"properties":{"name":"焼津市発電所","fuel":"solar","output":""}},{"type":"Feature","geometry":{"type":"Point","coordinates":[138.17596,34.80341]},"properties":{"name":"TOKAI富士山静岡空港太陽光発電所","fuel":"solar","output":""}},{"type":"Feature","geometry":{"type":"Point","coordinates":[136.69212,35.48725]},"properties":{"name":"本巣市発電所","fuel":"solar","output":""}},{"type":"Feature","geometry":{"type":"Point","coordinates":[137.53667,36.89614]},"properties":{"name":"西中入善町発電所","fuel":"","output":""}},{"type":"Feature","geometry":{"type":"Point","coordinates":[137.53135,36.90677]},"properties":{"name":"黒東第三発電所","fuel":"hydro","output":""}},{"type":"Feature","geometry":{"type":"Point","coordinates":[136.69071,35.48723]},"properties":{"name":"本巣市発電所","fuel":"solar","output":""}},{"type":"Feature","geometry":{"type":"Point","coordinates":[136.70082,35.50471]},"properties":{"name":"秋沢二丁目岐阜市発電所","fuel":"solar","output":""}},{"type":"Feature","geometry":{"type":"Point","coordinates":[136.68791,35.49764]},"properties":{"name":"本巣市発電所","fuel":"solar","output":""}},{"type":"Feature","geometry":{"type":"Point","coordinates":[136.68558,35.49263]},"properties":{"name":"文殊本巣市発電所","fuel":"solar","output":""}},{"type":"Feature","geometry":{"type":"Point","coordinates":[136.68503,35.48875]},"properties":{"name":"本巣市立本巣中学校","fuel":"solar","output":""}},{"type":"Feature","geometry":{"type":"Point","coordinates":[136.66316,35.50434]},"properties":{"name":"山口本巣市発電所","fuel":"solar","output":""}},{"type":"Feature","geometry":{"type":"Point","coordinates":[136.66296,35.50133]},"properties":{"name":"山口本巣市発電所","fuel":"solar","output":""}},{"type":"Feature","geometry":{"type":"Point","coordinates":[138.61803,36.80954]},"properties":{"name":"栄村発電所","fuel":"GSImaps/ort","output":""}},{"type":"Feature","geometry":{"type":"Point","coordinates":[138.61873,36.80872]},"properties":{"name":"切明発電所","fuel":"hydro","output":""}},{"type":"Feature","geometry":{"type":"Point","coordinates":[136.66079,35.4614]},"properties":{"name":"随原本巣市発電所","fuel":"solar","output":""}},{"type":"Feature","geometry":{"type":"Point","coordinates":[136.72409,35.52523]},"properties":{"name":"小倉山県市発電所","fuel":"solar","output":""}},{"type":"Feature","geometry":{"type":"Point","coordinates":[136.72693,35.52754]},"properties":{"name":"小倉山県市発電所","fuel":"solar","output":""}},{"type":"Feature","geometry":{"type":"Point","coordinates":[136.72543,35.53254]},"properties":{"name":"洞田山県市発電所","fuel":"solar","output":""}},{"type":"Feature","geometry":{"type":"Point","coordinates":[136.73448,35.522]},"properties":{"name":"大森山県市発電所","fuel":"solar","output":""}},{"type":"Feature","geometry":{"type":"Point","coordinates":[136.74676,35.51576]},"properties":{"name":"山県市発電所","fuel":"solar","output":""}},{"type":"Feature","geometry":{"type":"Point","coordinates":[136.73969,35.51566]},"properties":{"name":"梅原山県市発電所","fuel":"solar","output":""}},{"type":"Feature","geometry":{"type":"Point","coordinates":[137.76336,34.84695]},"properties":{"name":"灰木浜松市発電所","fuel":"solar","output":""}},{"type":"Feature","geometry":{"type":"Point","coordinates":[137.26851,34.7135]},"properties":{"name":"光崎二丁目田原市発電所","fuel":"solar","output":""}},{"type":"Feature","geometry":{"type":"Point","coordinates":[137.64329,34.68953]},"properties":{"name":"坪井町浜松市発電所","fuel":"solar","output":""}},{"type":"Feature","geometry":{"type":"Point","coordinates":[137.62273,34.69335]},"properties":{"name":"舞阪町舞阪浜松市発電所","fuel":"solar","output":""}},{"type":"Feature","geometry":{"type":"Point","coordinates":[137.68819,34.69571]},"properties":{"name":"入野町浜松市発電所","fuel":"solar","output":""}},{"type":"Feature","geometry":{"type":"Point","coordinates":[137.66295,34.69399]},"properties":{"name":"篠原町浜松市発電所","fuel":"solar","output":""}},{"type":"Feature","geometry":{"type":"Point","coordinates":[137.6625,34.69504]},"properties":{"name":"篠原町浜松市発電所","fuel":"solar","output":""}},{"type":"Feature","geometry":{"type":"Point","coordinates":[136.64823,35.45534]},"properties":{"name":"本巣市発電所","fuel":"solar","output":""}},{"type":"Feature","geometry":{"type":"Point","coordinates":[137.50063,36.86348]},"properties":{"name":"宇奈月町栃屋黒部市発電所","fuel":"","output":""}},{"type":"Feature","geometry":{"type":"Point","coordinates":[137.50065,36.86361]},"properties":{"name":"宇奈月町栃屋黒部市発電所","fuel":"","output":""}},{"type":"Feature","geometry":{"type":"Point","coordinates":[137.76152,34.84578]},"properties":{"name":"灰木浜松市発電所","fuel":"solar","output":""}},{"type":"Feature","geometry":{"type":"Point","coordinates":[138.51041,36.45751]},"properties":{"name":"嬬恋村発電所","fuel":"","output":""}},{"type":"Feature","geometry":{"type":"Point","coordinates":[138.29953,34.78027]},"properties":{"name":"焼津市発電所","fuel":"solar","output":""}},{"type":"Feature","geometry":{"type":"Point","coordinates":[138.30804,34.79944]},"properties":{"name":"高新田焼津市発電所","fuel":"solar","output":""}},{"type":"Feature","geometry":{"type":"Point","coordinates":[137.65525,34.80149]},"properties":{"name":"細江町気賀浜松市発電所","fuel":"solar","output":""}},{"type":"Feature","geometry":{"type":"Point","coordinates":[137.66841,34.70015]},"properties":{"name":"入野町浜松市発電所","fuel":"solar","output":""}},{"type":"Feature","geometry":{"type":"Point","coordinates":[139.00215,36.50526]},"properties":{"name":"阿久津渋川市発電所","fuel":"","output":""}},{"type":"Feature","geometry":{"type":"Point","coordinates":[138.85307,36.58511]},"properties":{"name":"伊勢町中之条町発電所","fuel":"","output":""}},{"type":"Feature","geometry":{"type":"Point","coordinates":[138.86023,36.58514]},"properties":{"name":"伊勢町中之条町発電所","fuel":"","output":""}},{"type":"Feature","geometry":{"type":"Point","coordinates":[138.84051,36.58403]},"properties":{"name":"中之条町発電所","fuel":"","output":""}},{"type":"Feature","geometry":{"type":"Point","coordinates":[138.77012,36.55834]},"properties":{"name":"矢倉東吾妻町発電所","fuel":"","output":""}},{"type":"Feature","geometry":{"type":"Point","coordinates":[137.31636,34.72346]},"properties":{"name":"豊橋発電所","fuel":"coal","output":""}},{"type":"Feature","geometry":{"type":"Point","coordinates":[137.1284,36.76448]},"properties":{"name":"富山新港火力発電所","fuel":"coal;oil","output":""}},{"type":"Feature","geometry":{"type":"Point","coordinates":[136.92394,34.82338]},"properties":{"name":"武豊火力発電所","fuel":"oil","output":""}},{"type":"Feature","geometry":{"type":"Point","coordinates":[136.01688,35.75467]},"properties":{"name":"ふげん","fuel":"nuclear","output":""}},{"type":"Feature","geometry":{"type":"Point","coordinates":[136.00546,35.7529]},"properties":{"name":"敦賀原子力発電所","fuel":"nuclear","output":""}},{"type":"Feature","geometry":{"type":"Point","coordinates":[136.08,35.6723]},"properties":{"name":"敦賀火力発電所","fuel":"coal","output":""}},{"type":"Feature","geometry":{"type":"Point","coordinates":[137.06672,34.6547]},"properties":{"name":"渥美火力発電所","fuel":"oil","output":""}},{"type":"Feature","geometry":{"type":"Point","coordinates":[138.60864,36.55942]},"properties":{"name":"大津長野原町発電所","fuel":"","output":""}},{"type":"Feature","geometry":{"type":"Point","coordinates":[137.7447,35.44398]},"properties":{"name":"第二期南信州おひさま発電所","fuel":"hydro","output":""}},{"type":"Feature","geometry":{"type":"Point","coordinates":[138.84049,36.58441]},"properties":{"name":"中之条町発電所","fuel":"","output":""}},{"type":"Feature","geometry":{"type":"Point","coordinates":[137.42743,36.91163]},"properties":{"name":"荒俣黒部市発電所","fuel":"","output":""}},{"type":"Feature","geometry":{"type":"Point","coordinates":[137.60106,36.9006]},"properties":{"name":"朝日小川第二発電所","fuel":"","output":""}},{"type":"Feature","geometry":{"type":"Point","coordinates":[137.78986,34.8162]},"properties":{"name":"新原浜松市発電所","fuel":"solar","output":""}},{"type":"Feature","geometry":{"type":"Point","coordinates":[137.66867,34.79902]},"properties":{"name":"細江町中川浜松市発電所","fuel":"solar","output":""}},{"type":"Feature","geometry":{"type":"Point","coordinates":[137.66761,34.79799]},"properties":{"name":"細江町中川浜松市発電所","fuel":"solar","output":""}},{"type":"Feature","geometry":{"type":"Point","coordinates":[137.66944,34.79602]},"properties":{"name":"細江町気賀浜松市発電所","fuel":"solar","output":""}},{"type":"Feature","geometry":{"type":"Point","coordinates":[137.66928,34.79408]},"properties":{"name":"細江町気賀浜松市発電所","fuel":"solar","output":""}},{"type":"Feature","geometry":{"type":"Point","coordinates":[137.65342,34.78804]},"properties":{"name":"細江町気賀浜松市発電所","fuel":"solar","output":""}},{"type":"Feature","geometry":{"type":"Point","coordinates":[137.63402,34.6821]},"properties":{"name":"馬郡町浜松市発電所","fuel":"solar","output":""}},{"type":"Feature","geometry":{"type":"Point","coordinates":[137.68316,34.6842]},"properties":{"name":"サミニ株式会社","fuel":"solar","output":""}},{"type":"Feature","geometry":{"type":"Point","coordinates":[137.68486,34.68462]},"properties":{"name":"宝和工業株式会社","fuel":"solar","output":""}},{"type":"Feature","geometry":{"type":"Point","coordinates":[137.67428,34.67722]},"properties":{"name":"サミニ株式会社","fuel":"solar","output":""}},{"type":"Feature","geometry":{"type":"Point","coordinates":[137.65148,34.69463]},"properties":{"name":"志都呂二丁目浜松市発電所","fuel":"solar","output":""}},{"type":"Feature","geometry":{"type":"Point","coordinates":[137.65065,34.69316]},"properties":{"name":"篠原町浜松市発電所","fuel":"solar","output":""}},{"type":"Feature","geometry":{"type":"Point","coordinates":[137.65159,34.69132]},"properties":{"name":"篠原町浜松市発電所","fuel":"solar","output":""}},{"type":"Feature","geometry":{"type":"Point","coordinates":[137.65471,34.69235]},"properties":{"name":"篠原町浜松市発電所","fuel":"solar","output":""}},{"type":"Feature","geometry":{"type":"Point","coordinates":[136.64654,34.97451]},"properties":{"name":"四日市火力発電所","fuel":"gas","output":""}},{"type":"Feature","geometry":{"type":"Point","coordinates":[137.65456,34.68803]},"properties":{"name":"篠原町浜松市発電所","fuel":"solar","output":""}},{"type":"Feature","geometry":{"type":"Point","coordinates":[137.6829,34.68279]},"properties":{"name":"サミニ株式会社","fuel":"solar","output":""}},{"type":"Feature","geometry":{"type":"Point","coordinates":[137.7008,34.67141]},"properties":{"name":"倉松町浜松市発電所","fuel":"solar","output":""}},{"type":"Feature","geometry":{"type":"Point","coordinates":[137.70143,34.67133]},"properties":{"name":"倉松町浜松市発電所","fuel":"solar","output":""}},{"type":"Feature","geometry":{"type":"Point","coordinates":[137.68049,34.68545]},"properties":{"name":"サミニ株式会社","fuel":"solar","output":""}},{"type":"Feature","geometry":{"type":"Point","coordinates":[137.67857,34.67999]},"properties":{"name":"サミニ株式会社","fuel":"solar","output":""}},{"type":"Feature","geometry":{"type":"Point","coordinates":[137.67887,34.67838]},"properties":{"name":"サミニ株式会社","fuel":"solar","output":""}},{"type":"Feature","geometry":{"type":"Point","coordinates":[137.6227,34.71321]},"properties":{"name":"雄踏町山崎浜松市発電所","fuel":"solar","output":""}},{"type":"Feature","geometry":{"type":"Point","coordinates":[137.62801,34.70917]},"properties":{"name":"雄踏町山崎浜松市発電所","fuel":"solar","output":""}},{"type":"Feature","geometry":{"type":"Point","coordinates":[137.69601,34.68433]},"properties":{"name":"株式会社秋山内装","fuel":"solar","output":""}},{"type":"Feature","geometry":{"type":"Point","coordinates":[137.71243,34.68499]},"properties":{"name":"不二工機製造株式会社","fuel":"solar","output":""}},{"type":"Feature","geometry":{"type":"Point","coordinates":[137.71087,34.68137]},"properties":{"name":"不二工機製造株式会社","fuel":"solar","output":""}},{"type":"Feature","geometry":{"type":"Point","coordinates":[137.71521,34.6777]},"properties":{"name":"米津町浜松市発電所","fuel":"solar","output":""}},{"type":"Feature","geometry":{"type":"Point","coordinates":[137.71661,34.67736]},"properties":{"name":"米津町浜松市発電所","fuel":"solar","output":""}},{"type":"Feature","geometry":{"type":"Point","coordinates":[137.66355,34.84036]},"properties":{"name":"引佐町白岩浜松市発電所","fuel":"solar","output":""}},{"type":"Feature","geometry":{"type":"Point","coordinates":[137.64968,34.77391]},"properties":{"name":"深萩町浜松市発電所","fuel":"solar","output":""}},{"type":"Feature","geometry":{"type":"Point","coordinates":[137.64811,34.76175]},"properties":{"name":"学校法人中野学園　オイスカ高等学校","fuel":"solar","output":""}},{"type":"Feature","geometry":{"type":"Point","coordinates":[137.64837,34.76121]},"properties":{"name":"学校法人中野学園　オイスカ高等学校","fuel":"solar","output":""}},{"type":"Feature","geometry":{"type":"Point","coordinates":[137.64903,34.76183]},"properties":{"name":"学校法人中野学園　オイスカ高等学校","fuel":"solar","output":""}},{"type":"Feature","geometry":{"type":"Point","coordinates":[136.76763,35.28171]},"properties":{"name":"二子一宮市発電所","fuel":"solar","output":""}},{"type":"Feature","geometry":{"type":"Point","coordinates":[138.23447,36.62506]},"properties":{"name":"大豆島長野市発電所","fuel":"solar","output":""}},{"type":"Feature","geometry":{"type":"Point","coordinates":[136.77917,35.28954]},"properties":{"name":"苅安賀一丁目一宮市発電所","fuel":"","output":""}},{"type":"Feature","geometry":{"type":"Point","coordinates":[137.6532,34.74363]},"properties":{"name":"浜松市立はまゆう図書館","fuel":"solar","output":""}},{"type":"Feature","geometry":{"type":"Point","coordinates":[138.51461,35.0086]},"properties":{"name":"清水区静岡市発電所","fuel":"solar","output":""}},{"type":"Feature","geometry":{"type":"Point","coordinates":[138.51104,35.00006]},"properties":{"name":"清水区静岡市発電所","fuel":"solar","output":""}},{"type":"Feature","geometry":{"type":"Point","coordinates":[138.11049,36.51169]},"properties":{"name":"八幡千曲市発電所","fuel":"","output":""}},{"type":"Feature","geometry":{"type":"Point","coordinates":[136.53617,34.80698]},"properties":{"name":"津メガソーラー杜の街","fuel":"solar","output":""}},{"type":"Feature","geometry":{"type":"Point","coordinates":[138.03096,34.67172]},"properties":{"name":"浜野新田掛川市発電所","fuel":"solar","output":""}},{"type":"Feature","geometry":{"type":"Point","coordinates":[136.54134,34.80458]},"properties":{"name":"津市発電所","fuel":"solar","output":""}},{"type":"Feature","geometry":{"type":"Point","coordinates":[136.54005,34.80716]},"properties":{"name":"津市発電所","fuel":"solar","output":""}},{"type":"Feature","geometry":{"type":"Point","coordinates":[137.36514,34.82882]},"properties":{"name":"豊川市学校給食センター","fuel":"solar","output":""}},{"type":"Feature","geometry":{"type":"Point","coordinates":[138.33257,34.94069]},"properties":{"name":"駿河区静岡市発電所","fuel":"solar","output":""}},{"type":"Feature","geometry":{"type":"Point","coordinates":[138.33241,34.94152]},"properties":{"name":"駿河区静岡市発電所","fuel":"solar","output":""}},{"type":"Feature","geometry":{"type":"Point","coordinates":[138.33217,34.94235]},"properties":{"name":"駿河区静岡市発電所","fuel":"solar","output":""}},{"type":"Feature","geometry":{"type":"Point","coordinates":[137.62054,34.71282]},"properties":{"name":"雄踏町山崎浜松市発電所","fuel":"solar","output":""}},{"type":"Feature","geometry":{"type":"Point","coordinates":[139.16224,36.29908]},"properties":{"name":"清掃リサイクルセンター21","fuel":"waste","output":""}},{"type":"Feature","geometry":{"type":"Point","coordinates":[137.63834,34.70974]},"properties":{"name":"雄踏町宇布見浜松市発電所","fuel":"solar","output":""}},{"type":"Feature","geometry":{"type":"Point","coordinates":[137.6378,34.70864]},"properties":{"name":"雄踏町宇布見浜松市発電所","fuel":"solar","output":""}},{"type":"Feature","geometry":{"type":"Point","coordinates":[137.63877,34.70919]},"properties":{"name":"雄踏町宇布見浜松市発電所","fuel":"solar","output":""}},{"type":"Feature","geometry":{"type":"Point","coordinates":[137.62434,34.70126]},"properties":{"name":"雄踏町宇布見浜松市発電所","fuel":"solar","output":""}},{"type":"Feature","geometry":{"type":"Point","coordinates":[137.85802,36.93816]},"properties":{"name":"姫川第六発電所","fuel":"hydro","output":""}},{"type":"Feature","geometry":{"type":"Point","coordinates":[136.53753,34.81689]},"properties":{"name":"郡山町鈴鹿市発電所","fuel":"","output":""}},{"type":"Feature","geometry":{"type":"Point","coordinates":[137.09285,34.90972]},"properties":{"name":"安城市立桜井小学校","fuel":"solar","output":""}},{"type":"Feature","geometry":{"type":"Point","coordinates":[136.75448,35.04056]},"properties":{"name":"新輪一丁目木曽岬町発電所","fuel":"solar","output":""}},{"type":"Feature","geometry":{"type":"Point","coordinates":[136.66354,36.68045]},"properties":{"name":"内灘一号発電所","fuel":"solar","output":""}},{"type":"Feature","geometry":{"type":"Point","coordinates":[137.77443,34.8301]},"properties":{"name":"宮口浜松市発電所","fuel":"solar","output":""}},{"type":"Feature","geometry":{"type":"Point","coordinates":[137.77418,34.82994]},"properties":{"name":"宮口浜松市発電所","fuel":"solar","output":""}},{"type":"Feature","geometry":{"type":"Point","coordinates":[137.77199,34.82988]},"properties":{"name":"宮口浜松市発電所","fuel":"solar","output":""}},{"type":"Feature","geometry":{"type":"Point","coordinates":[136.85899,35.52324]},"properties":{"name":"理研メディカル太陽光発電所","fuel":"solar","output":""}},{"type":"Feature","geometry":{"type":"Point","coordinates":[136.85811,35.52184]},"properties":{"name":"武芸川町高野関市発電所","fuel":"solar","output":""}},{"type":"Feature","geometry":{"type":"Point","coordinates":[136.83524,35.60581]},"properties":{"name":"中部電力（株）洞戸発電所","fuel":"hydro","output":""}},{"type":"Feature","geometry":{"type":"Point","coordinates":[139.19287,36.21022]},"properties":{"name":"早稲田の杜五丁目本庄市発電所","fuel":"solar","output":""}},{"type":"Feature","geometry":{"type":"Point","coordinates":[136.13215,36.20784]},"properties":{"name":"Fukui Mikuni Thermal Power Plant","fuel":"oil","output":""}},{"type":"Feature","geometry":{"type":"Point","coordinates":[139.15956,36.43836]},"properties":{"name":"前橋市発電所","fuel":"solar","output":""}},{"type":"Feature","geometry":{"type":"Point","coordinates":[139.16047,36.43684]},"properties":{"name":"前橋市発電所","fuel":"solar","output":""}},{"type":"Feature","geometry":{"type":"Point","coordinates":[137.59214,34.6938]},"properties":{"name":"湖西市発電所","fuel":"solar","output":""}},{"type":"Feature","geometry":{"type":"Point","coordinates":[137.56021,34.70913]},"properties":{"name":"新居町中之郷湖西市発電所","fuel":"solar","output":""}},{"type":"Feature","geometry":{"type":"Point","coordinates":[137.59516,34.69208]},"properties":{"name":"湖西市発電所","fuel":"solar","output":""}},{"type":"Feature","geometry":{"type":"Point","coordinates":[139.18345,36.4283]},"properties":{"name":"大前田町前橋市発電所","fuel":"solar","output":""}},{"type":"Feature","geometry":{"type":"Point","coordinates":[139.18663,36.42957]},"properties":{"name":"大前田町前橋市発電所","fuel":"solar","output":""}},{"type":"Feature","geometry":{"type":"Point","coordinates":[139.18667,36.46536]},"properties":{"name":"自然耕房株式会社太陽電池発電所","fuel":"solar","output":""}},{"type":"Feature","geometry":{"type":"Point","coordinates":[139.18532,36.46605]},"properties":{"name":"自然耕房株式会社太陽電池発電所","fuel":"solar","output":""}},{"type":"Feature","geometry":{"type":"Point","coordinates":[137.59873,34.69328]},"properties":{"name":"舞阪町弁天島浜松市発電所","fuel":"solar","output":""}},{"type":"Feature","geometry":{"type":"Point","coordinates":[138.15715,34.74328]},"properties":{"name":"大倉牧之原市発電所","fuel":"solar","output":""}},{"type":"Feature","geometry":{"type":"Point","coordinates":[137.48371,36.87051]},"properties":{"name":"舌山黒部市発電所","fuel":"","output":""}},{"type":"Feature","geometry":{"type":"Point","coordinates":[137.50232,36.86093]},"properties":{"name":"宇奈月町栃屋黒部市発電所","fuel":"","output":""}},{"type":"Feature","geometry":{"type":"Point","coordinates":[137.61487,34.70894]},"properties":{"name":"雄踏町山崎浜松市発電所","fuel":"solar","output":""}},{"type":"Feature","geometry":{"type":"Point","coordinates":[137.61534,34.71032]},"properties":{"name":"雄踏町山崎浜松市発電所","fuel":"solar","output":""}},{"type":"Feature","geometry":{"type":"Point","coordinates":[138.1695,34.69719]},"properties":{"name":"菅ケ谷牧之原市発電所","fuel":"solar","output":""}},{"type":"Feature","geometry":{"type":"Point","coordinates":[137.47521,34.72331]},"properties":{"name":"中原町豊橋市発電所","fuel":"solar","output":""}},{"type":"Feature","geometry":{"type":"Point","coordinates":[137.1584,36.70026]},"properties":{"name":"太陽光発電","fuel":"solar","output":""}},{"type":"Feature","geometry":{"type":"Point","coordinates":[137.15769,36.69986]},"properties":{"name":"太陽光発電","fuel":"solar","output":""}},{"type":"Feature","geometry":{"type":"Point","coordinates":[137.60483,34.69068]},"properties":{"name":"舞阪町弁天島浜松市発電所","fuel":"solar","output":""}},{"type":"Feature","geometry":{"type":"Point","coordinates":[137.6051,34.69057]},"properties":{"name":"舞阪町弁天島浜松市発電所","fuel":"solar","output":""}},{"type":"Feature","geometry":{"type":"Point","coordinates":[136.82815,34.91383]},"properties":{"name":"太陽光パネル","fuel":"solar","output":""}},{"type":"Feature","geometry":{"type":"Point","coordinates":[137.62763,34.67898]},"properties":{"name":"舞阪町舞阪浜松市発電所","fuel":"solar","output":""}},{"type":"Feature","geometry":{"type":"Point","coordinates":[136.21843,34.83073]},"properties":{"name":"楯岡伊賀市発電所","fuel":"solar","output":""}},{"type":"Feature","geometry":{"type":"Point","coordinates":[137.61902,34.68095]},"properties":{"name":"舞阪町長十新田浜松市発電所","fuel":"solar","output":""}},{"type":"Feature","geometry":{"type":"Point","coordinates":[137.64569,34.688]},"properties":{"name":"坪井町浜松市発電所","fuel":"solar","output":""}},{"type":"Feature","geometry":{"type":"Point","coordinates":[137.99608,34.87041]},"properties":{"name":"上西之谷掛川市発電所","fuel":"solar","output":""}},{"type":"Feature","geometry":{"type":"Point","coordinates":[137.99631,34.87024]},"properties":{"name":"上西之谷掛川市発電所","fuel":"solar","output":""}},{"type":"Feature","geometry":{"type":"Point","coordinates":[137.99537,34.67319]},"properties":{"name":"掛川市発電所","fuel":"solar","output":""}},{"type":"Feature","geometry":{"type":"Point","coordinates":[136.13842,34.75339]},"properties":{"name":"伊賀市立久米小学校","fuel":"","output":""}},{"type":"Feature","geometry":{"type":"Point","coordinates":[136.13925,34.7533]},"properties":{"name":"伊賀市立久米小学校","fuel":"","output":""}},{"type":"Feature","geometry":{"type":"Point","coordinates":[138.00045,34.68025]},"properties":{"name":"掛川市発電所","fuel":"solar","output":""}},{"type":"Feature","geometry":{"type":"Point","coordinates":[138.00082,34.68147]},"properties":{"name":"掛川市発電所","fuel":"solar","output":""}},{"type":"Feature","geometry":{"type":"Point","coordinates":[138.00073,34.68248]},"properties":{"name":"掛川市発電所","fuel":"solar","output":""}},{"type":"Feature","geometry":{"type":"Point","coordinates":[137.99971,34.6851]},"properties":{"name":"大渕掛川市発電所","fuel":"solar","output":""}},{"type":"Feature","geometry":{"type":"Point","coordinates":[137.9994,34.68462]},"properties":{"name":"掛川市発電所","fuel":"solar","output":""}},{"type":"Feature","geometry":{"type":"Point","coordinates":[137.99947,34.68399]},"properties":{"name":"掛川市発電所","fuel":"solar","output":""}},{"type":"Feature","geometry":{"type":"Point","coordinates":[138.00019,34.68382]},"properties":{"name":"掛川市発電所","fuel":"solar","output":""}},{"type":"Feature","geometry":{"type":"Point","coordinates":[137.99834,34.67944]},"properties":{"name":"掛川市発電所","fuel":"solar","output":""}},{"type":"Feature","geometry":{"type":"Point","coordinates":[137.99555,34.67934]},"properties":{"name":"株式会社榑林組","fuel":"solar","output":""}},{"type":"Feature","geometry":{"type":"Point","coordinates":[138.0374,34.78239]},"properties":{"name":"薗ケ谷掛川市発電所","fuel":"solar","output":""}},{"type":"Feature","geometry":{"type":"Point","coordinates":[137.61527,34.68201]},"properties":{"name":"舞阪町長十新田浜松市発電所","fuel":"solar","output":""}},{"type":"Feature","geometry":{"type":"Point","coordinates":[137.61466,34.68733]},"properties":{"name":"舞阪町舞阪浜松市発電所","fuel":"solar","output":""}},{"type":"Feature","geometry":{"type":"Point","coordinates":[137.81203,35.37614]},"properties":{"name":"泰阜水力発電所","fuel":"hydro","output":""}},{"type":"Feature","geometry":{"type":"Point","coordinates":[137.8451,35.27618]},"properties":{"name":"松島天龍村発電所","fuel":"","output":""}},{"type":"Feature","geometry":{"type":"Point","coordinates":[137.84684,35.27601]},"properties":{"name":"平岡発電所","fuel":"hydro","output":""}},{"type":"Feature","geometry":{"type":"Point","coordinates":[136.94144,34.89848]},"properties":{"name":"半田市立さくら小学校","fuel":"solar","output":""}},{"type":"Feature","geometry":{"type":"Point","coordinates":[138.05991,34.78079]},"properties":{"name":"本所掛川市発電所","fuel":"solar","output":""}},{"type":"Feature","geometry":{"type":"Point","coordinates":[137.52186,34.72072]},"properties":{"name":"静岡県湖西市","fuel":"","output":""}},{"type":"Feature","geometry":{"type":"Point","coordinates":[137.46579,34.72263]},"properties":{"name":"小型風力発電（そよ風君）","fuel":"solar","output":""}},{"type":"Feature","geometry":{"type":"Point","coordinates":[137.46737,34.7228]},"properties":{"name":"小型風力発電（そよ風君）","fuel":"solar","output":""}},{"type":"Feature","geometry":{"type":"Point","coordinates":[137.85759,36.4972]},"properties":{"name":"大町市発電所","fuel":"solar","output":""}},{"type":"Feature","geometry":{"type":"Point","coordinates":[136.14826,35.1125]},"properties":{"name":"ソーラー発電","fuel":"solar","output":""}},{"type":"Feature","geometry":{"type":"Point","coordinates":[136.15034,35.11384]},"properties":{"name":"武佐近江八幡市発電所","fuel":"","output":""}},{"type":"Feature","geometry":{"type":"Point","coordinates":[136.15025,35.11329]},"properties":{"name":"武佐近江八幡市発電所","fuel":"","output":""}},{"type":"Feature","geometry":{"type":"Point","coordinates":[136.14974,35.11388]},"properties":{"name":"武佐近江八幡市発電所","fuel":"","output":""}},{"type":"Feature","geometry":{"type":"Point","coordinates":[137.61061,34.69064]},"properties":{"name":"舞阪町舞阪浜松市発電所","fuel":"solar","output":""}},{"type":"Feature","geometry":{"type":"Point","coordinates":[137.61054,34.68987]},"properties":{"name":"舞阪町舞阪浜松市発電所","fuel":"solar","output":""}},{"type":"Feature","geometry":{"type":"Point","coordinates":[137.60919,34.68841]},"properties":{"name":"舞阪町舞阪浜松市発電所","fuel":"solar","output":""}},{"type":"Feature","geometry":{"type":"Point","coordinates":[137.60992,34.68865]},"properties":{"name":"舞阪町舞阪浜松市発電所","fuel":"solar","output":""}},{"type":"Feature","geometry":{"type":"Point","coordinates":[137.96945,34.76367]},"properties":{"name":"原川掛川市発電所","fuel":"solar","output":""}},{"type":"Feature","geometry":{"type":"Point","coordinates":[137.96491,34.76087]},"properties":{"name":"徳泉掛川市発電所","fuel":"solar","output":""}},{"type":"Feature","geometry":{"type":"Point","coordinates":[138.04608,34.67303]},"properties":{"name":"三俣掛川市発電所","fuel":"solar","output":""}},{"type":"Feature","geometry":{"type":"Point","coordinates":[137.6125,34.68923]},"properties":{"name":"舞阪町舞阪浜松市発電所","fuel":"solar","output":""}},{"type":"Feature","geometry":{"type":"Point","coordinates":[137.61128,34.68935]},"properties":{"name":"舞阪町舞阪浜松市発電所","fuel":"solar","output":""}},{"type":"Feature","geometry":{"type":"Point","coordinates":[137.61223,34.68879]},"properties":{"name":"舞阪町舞阪浜松市発電所","fuel":"solar","output":""}},{"type":"Feature","geometry":{"type":"Point","coordinates":[137.61192,34.68854]},"properties":{"name":"舞阪町舞阪浜松市発電所","fuel":"solar","output":""}},{"type":"Feature","geometry":{"type":"Point","coordinates":[137.61199,34.68884]},"properties":{"name":"舞阪町舞阪浜松市発電所","fuel":"solar","output":""}},{"type":"Feature","geometry":{"type":"Point","coordinates":[137.61151,34.68874]},"properties":{"name":"舞阪町舞阪浜松市発電所","fuel":"solar","output":""}},{"type":"Feature","geometry":{"type":"Point","coordinates":[137.61131,34.68898]},"properties":{"name":"舞阪町舞阪浜松市発電所","fuel":"solar","output":""}},{"type":"Feature","geometry":{"type":"Point","coordinates":[137.61165,34.68828]},"properties":{"name":"舞阪町舞阪浜松市発電所","fuel":"solar","output":""}},{"type":"Feature","geometry":{"type":"Point","coordinates":[137.61144,34.69128]},"properties":{"name":"舞阪町舞阪浜松市発電所","fuel":"solar","output":""}},{"type":"Feature","geometry":{"type":"Point","coordinates":[137.61086,34.69152]},"properties":{"name":"舞阪町舞阪浜松市発電所","fuel":"solar","output":""}},{"type":"Feature","geometry":{"type":"Point","coordinates":[137.61091,34.69094]},"properties":{"name":"舞阪町舞阪浜松市発電所","fuel":"solar","output":""}},{"type":"Feature","geometry":{"type":"Point","coordinates":[138.08941,34.68824]},"properties":{"name":"嶺田菊川市発電所","fuel":"solar","output":""}},{"type":"Feature","geometry":{"type":"Point","coordinates":[137.61186,34.692]},"properties":{"name":"舞阪町舞阪浜松市発電所","fuel":"solar","output":""}},{"type":"Feature","geometry":{"type":"Point","coordinates":[137.61155,34.69255]},"properties":{"name":"舞阪町舞阪浜松市発電所","fuel":"solar","output":""}},{"type":"Feature","geometry":{"type":"Point","coordinates":[138.0881,34.69578]},"properties":{"name":"嶺田菊川市発電所","fuel":"solar","output":""}},{"type":"Feature","geometry":{"type":"Point","coordinates":[137.0018,35.00796]},"properties":{"name":"新富町四丁目刈谷市発電所","fuel":"","output":""}},{"type":"Feature","geometry":{"type":"Point","coordinates":[137.61055,34.69191]},"properties":{"name":"舞阪町舞阪浜松市発電所","fuel":"solar","output":""}},{"type":"Feature","geometry":{"type":"Point","coordinates":[137.61256,34.68985]},"properties":{"name":"舞阪町舞阪浜松市発電所","fuel":"solar","output":""}},{"type":"Feature","geometry":{"type":"Point","coordinates":[137.61209,34.68995]},"properties":{"name":"舞阪町舞阪浜松市発電所","fuel":"solar","output":""}},{"type":"Feature","geometry":{"type":"Point","coordinates":[138.07567,34.68754]},"properties":{"name":"西嶺田菊川市発電所","fuel":"solar","output":""}},{"type":"Feature","geometry":{"type":"Point","coordinates":[137.61286,34.69021]},"properties":{"name":"舞阪町舞阪浜松市発電所","fuel":"solar","output":""}},{"type":"Feature","geometry":{"type":"Point","coordinates":[138.04623,34.67244]},"properties":{"name":"三俣掛川市発電所","fuel":"solar","output":""}},{"type":"Feature","geometry":{"type":"Point","coordinates":[136.42955,36.40852]},"properties":{"name":"鶴ケ島町小松市発電所","fuel":"","output":""}},{"type":"Feature","geometry":{"type":"Point","coordinates":[136.13944,35.10777]},"properties":{"name":"武佐近江八幡市発電所","fuel":"solar","output":""}},{"type":"Feature","geometry":{"type":"Point","coordinates":[137.62224,34.68869]},"properties":{"name":"舞阪町舞阪浜松市発電所","fuel":"solar","output":""}},{"type":"Feature","geometry":{"type":"Point","coordinates":[137.62493,34.68905]},"properties":{"name":"馬郡町浜松市発電所","fuel":"solar","output":""}},{"type":"Feature","geometry":{"type":"Point","coordinates":[137.61467,34.68896]},"properties":{"name":"舞阪町舞阪浜松市発電所","fuel":"solar","output":""}},{"type":"Feature","geometry":{"type":"Point","coordinates":[137.61442,34.68759]},"properties":{"name":"舞阪町舞阪浜松市発電所","fuel":"solar","output":""}},{"type":"Feature","geometry":{"type":"Point","coordinates":[137.61409,34.68903]},"properties":{"name":"舞阪町舞阪浜松市発電所","fuel":"solar","output":""}},{"type":"Feature","geometry":{"type":"Point","coordinates":[137.61204,34.69167]},"properties":{"name":"舞阪町舞阪浜松市発電所","fuel":"solar","output":""}},{"type":"Feature","geometry":{"type":"Point","coordinates":[137.61559,34.6892]},"properties":{"name":"舞阪町舞阪浜松市発電所","fuel":"solar","output":""}},{"type":"Feature","geometry":{"type":"Point","coordinates":[137.61295,34.68791]},"properties":{"name":"舞阪町舞阪浜松市発電所","fuel":"solar","output":""}},{"type":"Feature","geometry":{"type":"Point","coordinates":[137.6127,34.68793]},"properties":{"name":"舞阪町舞阪浜松市発電所","fuel":"solar","output":""}},{"type":"Feature","geometry":{"type":"Point","coordinates":[137.61307,34.69103]},"properties":{"name":"舞阪町舞阪浜松市発電所","fuel":"solar","output":""}},{"type":"Feature","geometry":{"type":"Point","coordinates":[137.61191,34.69127]},"properties":{"name":"舞阪町舞阪浜松市発電所","fuel":"solar","output":""}},{"type":"Feature","geometry":{"type":"Point","coordinates":[137.61178,34.69075]},"properties":{"name":"舞阪町舞阪浜松市発電所","fuel":"solar","output":""}},{"type":"Feature","geometry":{"type":"Point","coordinates":[137.61239,34.69053]},"properties":{"name":"舞阪町舞阪浜松市発電所","fuel":"solar","output":""}},{"type":"Feature","geometry":{"type":"Point","coordinates":[137.61816,34.69016]},"properties":{"name":"舞阪町舞阪浜松市発電所","fuel":"solar","output":""}},{"type":"Feature","geometry":{"type":"Point","coordinates":[137.6134,34.69027]},"properties":{"name":"舞阪町舞阪浜松市発電所","fuel":"solar","output":""}},{"type":"Feature","geometry":{"type":"Point","coordinates":[137.61539,34.69045]},"properties":{"name":"舞阪町舞阪浜松市発電所","fuel":"solar","output":""}},{"type":"Feature","geometry":{"type":"Point","coordinates":[137.61519,34.69138]},"properties":{"name":"舞阪町舞阪浜松市発電所","fuel":"solar","output":""}},{"type":"Feature","geometry":{"type":"Point","coordinates":[137.61673,34.69061]},"properties":{"name":"舞阪町舞阪浜松市発電所","fuel":"solar","output":""}},{"type":"Feature","geometry":{"type":"Point","coordinates":[137.62163,34.6877]},"properties":{"name":"舞阪町舞阪浜松市発電所","fuel":"solar","output":""}},{"type":"Feature","geometry":{"type":"Point","coordinates":[137.60925,34.68857]},"properties":{"name":"舞阪町舞阪浜松市発電所","fuel":"solar","output":""}},{"type":"Feature","geometry":{"type":"Point","coordinates":[137.61158,34.69007]},"properties":{"name":"舞阪町舞阪浜松市発電所","fuel":"solar","output":""}},{"type":"Feature","geometry":{"type":"Point","coordinates":[137.61079,34.68933]},"properties":{"name":"舞阪町舞阪浜松市発電所","fuel":"solar","output":""}},{"type":"Feature","geometry":{"type":"Point","coordinates":[137.61594,34.68767]},"properties":{"name":"舞阪町舞阪浜松市発電所","fuel":"solar","output":""}},{"type":"Feature","geometry":{"type":"Point","coordinates":[137.61425,34.68771]},"properties":{"name":"舞阪町舞阪浜松市発電所","fuel":"solar","output":""}},{"type":"Feature","geometry":{"type":"Point","coordinates":[137.61741,34.68718]},"properties":{"name":"舞阪町舞阪浜松市発電所","fuel":"solar","output":""}},{"type":"Feature","geometry":{"type":"Point","coordinates":[137.61507,34.68727]},"properties":{"name":"舞阪町舞阪浜松市発電所","fuel":"solar","output":""}},{"type":"Feature","geometry":{"type":"Point","coordinates":[138.20674,34.61807]},"properties":{"name":"元旦ビューティ工業株式会社","fuel":"solar","output":""}},{"type":"Feature","geometry":{"type":"Point","coordinates":[138.2074,34.61627]},"properties":{"name":"元旦ビューティ工業株式会社","fuel":"solar","output":""}},{"type":"Feature","geometry":{"type":"Point","coordinates":[137.62062,34.69126]},"properties":{"name":"舞阪町舞阪浜松市発電所","fuel":"solar","output":""}},{"type":"Feature","geometry":{"type":"Point","coordinates":[137.62159,34.69085]},"properties":{"name":"舞阪町舞阪浜松市発電所","fuel":"solar","output":""}},{"type":"Feature","geometry":{"type":"Point","coordinates":[136.49755,36.48854]},"properties":{"name":"児童館　蝶屋にこにこハウス","fuel":"","output":""}},{"type":"Feature","geometry":{"type":"Point","coordinates":[138.01313,34.67609]},"properties":{"name":"掛川市発電所","fuel":"solar","output":""}},{"type":"Feature","geometry":{"type":"Point","coordinates":[136.41286,36.34753]},"properties":{"name":"月美丘小松市発電所","fuel":"","output":""}},{"type":"Feature","geometry":{"type":"Point","coordinates":[136.38697,36.33184]},"properties":{"name":"動橋町加賀市発電所","fuel":"","output":""}},{"type":"Feature","geometry":{"type":"Point","coordinates":[137.63267,34.68158]},"properties":{"name":"馬郡町浜松市発電所","fuel":"solar","output":""}},{"type":"Feature","geometry":{"type":"Point","coordinates":[137.63868,34.70954]},"properties":{"name":"雄踏町宇布見浜松市発電所","fuel":"solar","output":""}},{"type":"Feature","geometry":{"type":"Point","coordinates":[137.64924,34.68219]},"properties":{"name":"坪井町浜松市発電所","fuel":"solar","output":""}},{"type":"Feature","geometry":{"type":"Point","coordinates":[137.64905,34.68131]},"properties":{"name":"坪井町浜松市発電所","fuel":"solar","output":""}},{"type":"Feature","geometry":{"type":"Point","coordinates":[137.64309,34.71443]},"properties":{"name":"ハマニ化成株式会社","fuel":"solar","output":""}},{"type":"Feature","geometry":{"type":"Point","coordinates":[137.63565,34.72987]},"properties":{"name":"古人見町浜松市発電所","fuel":"solar","output":""}},{"type":"Feature","geometry":{"type":"Point","coordinates":[137.63687,34.72725]},"properties":{"name":"古人見町浜松市発電所","fuel":"solar","output":""}},{"type":"Feature","geometry":{"type":"Point","coordinates":[136.54539,34.80757]},"properties":{"name":"河芸町千里ヶ丘津市発電所","fuel":"solar","output":""}},{"type":"Feature","geometry":{"type":"Point","coordinates":[137.63857,34.73107]},"properties":{"name":"古人見町浜松市発電所","fuel":"solar","output":""}},{"type":"Feature","geometry":{"type":"Point","coordinates":[136.2815,36.25793]},"properties":{"name":"牛ノ谷あわら市発電所","fuel":"","output":""}},{"type":"Feature","geometry":{"type":"Point","coordinates":[136.42279,36.35252]},"properties":{"name":"蓑輪町小松市発電所","fuel":"","output":""}},{"type":"Feature","geometry":{"type":"Point","coordinates":[136.66393,34.97996]},"properties":{"name":"コスモ石油 四日市霞発電所","fuel":"oil","output":""}},{"type":"Feature","geometry":{"type":"Point","coordinates":[136.47743,36.47978]},"properties":{"name":"湊町白山市発電所","fuel":"","output":""}},{"type":"Feature","geometry":{"type":"Point","coordinates":[137.65719,34.72987]},"properties":{"name":"浜松市立はまゆう図書館","fuel":"solar","output":""}},{"type":"Feature","geometry":{"type":"Point","coordinates":[137.66192,34.72873]},"properties":{"name":"大久保町浜松市発電所","fuel":"solar","output":""}},{"type":"Feature","geometry":{"type":"Point","coordinates":[137.66166,34.72707]},"properties":{"name":"大久保町浜松市発電所","fuel":"solar","output":""}},{"type":"Feature","geometry":{"type":"Point","coordinates":[136.26344,35.29031]},"properties":{"name":"彦根彦根市発電所","fuel":"solar","output":""}},{"type":"Feature","geometry":{"type":"Point","coordinates":[137.10825,34.79197]},"properties":{"name":"西尾市発電所","fuel":"solar","output":""}},{"type":"Feature","geometry":{"type":"Point","coordinates":[136.09389,34.72302]},"properties":{"name":"伊賀市発電所","fuel":"solar","output":""}},{"type":"Feature","geometry":{"type":"Point","coordinates":[137.69046,34.69752]},"properties":{"name":"入野町浜松市発電所","fuel":"solar","output":""}},{"type":"Feature","geometry":{"type":"Point","coordinates":[137.68927,34.69754]},"properties":{"name":"入野町浜松市発電所","fuel":"solar","output":""}},{"type":"Feature","geometry":{"type":"Point","coordinates":[137.68861,34.6977]},"properties":{"name":"入野町浜松市発電所","fuel":"solar","output":""}},{"type":"Feature","geometry":{"type":"Point","coordinates":[137.71959,36.13283]},"properties":{"name":"安曇水力発電所","fuel":"hydro","output":""}},{"type":"Feature","geometry":{"type":"Point","coordinates":[136.24259,35.26678]},"properties":{"name":"彦根彦根市発電所","fuel":"solar","output":""}},{"type":"Feature","geometry":{"type":"Point","coordinates":[136.24185,35.26665]},"properties":{"name":"彦根彦根市発電所","fuel":"solar","output":""}},{"type":"Feature","geometry":{"type":"Point","coordinates":[136.14324,34.667]},"properties":{"name":"朝日ケ丘町伊賀市発電所","fuel":"solar","output":""}},{"type":"Feature","geometry":{"type":"Point","coordinates":[138.11093,34.89999]},"properties":{"name":"川口発電所","fuel":"hydro","output":""}},{"type":"Feature","geometry":{"type":"Point","coordinates":[139.1426,35.59296]},"properties":{"name":"道志第一発電所","fuel":"hydro","output":""}},{"type":"Feature","geometry":{"type":"Point","coordinates":[138.19069,34.62277]},"properties":{"name":"新庄牧之原市発電所","fuel":"solar","output":""}},{"type":"Feature","geometry":{"type":"Point","coordinates":[138.18983,34.62022]},"properties":{"name":"白羽御前崎市発電所","fuel":"solar","output":""}},{"type":"Feature","geometry":{"type":"Point","coordinates":[138.19915,34.60517]},"properties":{"name":"広沢御前崎市発電所","fuel":"solar","output":""}},{"type":"Feature","geometry":{"type":"Point","coordinates":[138.0569,34.66095]},"properties":{"name":"菊浜掛川市発電所","fuel":"solar","output":""}},{"type":"Feature","geometry":{"type":"Point","coordinates":[138.0555,34.66073]},"properties":{"name":"中部_34.6607_138.0555","fuel":"solar","output":""}},{"type":"Feature","geometry":{"type":"Point","coordinates":[138.05618,34.66063]},"properties":{"name":"国安掛川市発電所","fuel":"solar","output":""}},{"type":"Feature","geometry":{"type":"Point","coordinates":[138.05436,34.66086]},"properties":{"name":"浜川新田掛川市発電所","fuel":"solar","output":""}},{"type":"Feature","geometry":{"type":"Point","coordinates":[138.05874,34.65535]},"properties":{"name":"大東海洋公園風力発電所","fuel":"solar","output":""}},{"type":"Feature","geometry":{"type":"Point","coordinates":[136.12388,34.71935]},"properties":{"name":"山出伊賀市発電所","fuel":"solar","output":""}},{"type":"Feature","geometry":{"type":"Point","coordinates":[137.67146,34.70821]},"properties":{"name":"大平台四丁目浜松市発電所","fuel":"solar","output":""}},{"type":"Feature","geometry":{"type":"Point","coordinates":[137.87904,35.29912]},"properties":{"name":"飯島発電所","fuel":"hydro","output":""}},{"type":"Feature","geometry":{"type":"Point","coordinates":[137.63988,34.68373]},"properties":{"name":"馬郡町浜松市発電所","fuel":"solar","output":""}},{"type":"Feature","geometry":{"type":"Point","coordinates":[137.67402,34.69641]},"properties":{"name":"入野町浜松市発電所","fuel":"solar","output":""}},{"type":"Feature","geometry":{"type":"Point","coordinates":[137.67402,34.69436]},"properties":{"name":"高塚町浜松市発電所","fuel":"solar","output":""}},{"type":"Feature","geometry":{"type":"Point","coordinates":[137.68152,34.69462]},"properties":{"name":"高塚町浜松市発電所","fuel":"solar","output":""}},{"type":"Feature","geometry":{"type":"Point","coordinates":[137.68089,34.69469]},"properties":{"name":"高塚町浜松市発電所","fuel":"solar","output":""}},{"type":"Feature","geometry":{"type":"Point","coordinates":[137.68084,34.69489]},"properties":{"name":"高塚町浜松市発電所","fuel":"solar","output":""}},{"type":"Feature","geometry":{"type":"Point","coordinates":[137.68183,34.69538]},"properties":{"name":"高塚町浜松市発電所","fuel":"solar","output":""}},{"type":"Feature","geometry":{"type":"Point","coordinates":[137.69663,34.69484]},"properties":{"name":"増楽町浜松市発電所","fuel":"solar","output":""}},{"type":"Feature","geometry":{"type":"Point","coordinates":[137.69933,34.69576]},"properties":{"name":"入野町浜松市発電所","fuel":"solar","output":""}},{"type":"Feature","geometry":{"type":"Point","coordinates":[137.69986,34.69372]},"properties":{"name":"若林町浜松市発電所","fuel":"solar","output":""}},{"type":"Feature","geometry":{"type":"Point","coordinates":[137.70088,34.69612]},"properties":{"name":"若林町浜松市発電所","fuel":"solar","output":""}},{"type":"Feature","geometry":{"type":"Point","coordinates":[137.70108,34.69532]},"properties":{"name":"若林町浜松市発電所","fuel":"solar","output":""}},{"type":"Feature","geometry":{"type":"Point","coordinates":[137.66707,34.69506]},"properties":{"name":"篠原町浜松市発電所","fuel":"solar","output":""}},{"type":"Feature","geometry":{"type":"Point","coordinates":[137.66948,34.69376]},"properties":{"name":"篠原町浜松市発電所","fuel":"solar","output":""}},{"type":"Feature","geometry":{"type":"Point","coordinates":[137.67009,34.6938]},"properties":{"name":"篠原町浜松市発電所","fuel":"solar","output":""}},{"type":"Feature","geometry":{"type":"Point","coordinates":[137.66889,34.69487]},"properties":{"name":"篠原町浜松市発電所","fuel":"solar","output":""}},{"type":"Feature","geometry":{"type":"Point","coordinates":[137.66892,34.69523]},"properties":{"name":"篠原町浜松市発電所","fuel":"solar","output":""}},{"type":"Feature","geometry":{"type":"Point","coordinates":[137.66791,34.6944]},"properties":{"name":"篠原町浜松市発電所","fuel":"solar","output":""}},{"type":"Feature","geometry":{"type":"Point","coordinates":[137.6685,34.69439]},"properties":{"name":"篠原町浜松市発電所","fuel":"solar","output":""}},{"type":"Feature","geometry":{"type":"Point","coordinates":[137.66833,34.69528]},"properties":{"name":"篠原町浜松市発電所","fuel":"solar","output":""}},{"type":"Feature","geometry":{"type":"Point","coordinates":[137.66828,34.69494]},"properties":{"name":"篠原町浜松市発電所","fuel":"solar","output":""}},{"type":"Feature","geometry":{"type":"Point","coordinates":[137.66823,34.69462]},"properties":{"name":"篠原町浜松市発電所","fuel":"solar","output":""}},{"type":"Feature","geometry":{"type":"Point","coordinates":[137.65982,34.69407]},"properties":{"name":"篠原町浜松市発電所","fuel":"solar","output":""}},{"type":"Feature","geometry":{"type":"Point","coordinates":[137.66101,34.6929]},"properties":{"name":"篠原町浜松市発電所","fuel":"solar","output":""}},{"type":"Feature","geometry":{"type":"Point","coordinates":[137.65865,34.69522]},"properties":{"name":"篠原町浜松市発電所","fuel":"solar","output":""}},{"type":"Feature","geometry":{"type":"Point","coordinates":[137.65001,34.68866]},"properties":{"name":"坪井町浜松市発電所","fuel":"solar","output":""}},{"type":"Feature","geometry":{"type":"Point","coordinates":[137.6896,36.64487]},"properties":{"name":"黒部川第四発電所","fuel":"hydro","output":""}},{"type":"Feature","geometry":{"type":"Point","coordinates":[137.66399,34.72144]},"properties":{"name":"大久保町浜松市発電所","fuel":"solar","output":""}},{"type":"Feature","geometry":{"type":"Point","coordinates":[136.09846,34.7876]},"properties":{"name":"伊賀市発電所","fuel":"solar","output":""}},{"type":"Feature","geometry":{"type":"Point","coordinates":[136.12019,34.78727]},"properties":{"name":"東高倉伊賀市発電所","fuel":"solar","output":""}},{"type":"Feature","geometry":{"type":"Point","coordinates":[136.09888,34.78108]},"properties":{"name":"岩倉伊賀市発電所","fuel":"solar","output":""}},{"type":"Feature","geometry":{"type":"Point","coordinates":[136.10941,34.7844]},"properties":{"name":"東高倉伊賀市発電所","fuel":"solar","output":""}},{"type":"Feature","geometry":{"type":"Point","coordinates":[136.11483,34.78659]},"properties":{"name":"東高倉伊賀市発電所","fuel":"solar","output":""}},{"type":"Feature","geometry":{"type":"Point","coordinates":[136.11664,34.78665]},"properties":{"name":"東高倉伊賀市発電所","fuel":"solar","output":""}},{"type":"Feature","geometry":{"type":"Point","coordinates":[136.1164,34.78782]},"properties":{"name":"東高倉伊賀市発電所","fuel":"solar","output":""}},{"type":"Feature","geometry":{"type":"Point","coordinates":[136.10724,34.78449]},"properties":{"name":"東高倉伊賀市発電所","fuel":"solar","output":""}},{"type":"Feature","geometry":{"type":"Point","coordinates":[136.21864,34.78549]},"properties":{"name":"希望ヶ丘西一丁目伊賀市発電所","fuel":"solar","output":""}},{"type":"Feature","geometry":{"type":"Point","coordinates":[136.22022,34.79941]},"properties":{"name":"奥地建産株式会社","fuel":"solar","output":""}},{"type":"Feature","geometry":{"type":"Point","coordinates":[136.22202,34.79803]},"properties":{"name":"奥地建産株式会社","fuel":"solar","output":""}},{"type":"Feature","geometry":{"type":"Point","coordinates":[136.22295,34.7993]},"properties":{"name":"奥地建産株式会社","fuel":"solar","output":""}},{"type":"Feature","geometry":{"type":"Point","coordinates":[136.18234,34.79861]},"properties":{"name":"西之澤伊賀市発電所","fuel":"solar","output":""}},{"type":"Feature","geometry":{"type":"Point","coordinates":[136.18374,34.79987]},"properties":{"name":"西之澤伊賀市発電所","fuel":"solar","output":""}},{"type":"Feature","geometry":{"type":"Point","coordinates":[137.77545,34.66616]},"properties":{"name":"THKリズム株式会社　本社・御給工場　太陽光発電所","fuel":"solar","output":""}},{"type":"Feature","geometry":{"type":"Point","coordinates":[138.23019,36.3914]},"properties":{"name":"上田市　城下小学校","fuel":"solar","output":""}},{"type":"Feature","geometry":{"type":"Point","coordinates":[138.08419,35.76613]},"properties":{"name":"三峰川第三発電所","fuel":"hydro","output":""}},{"type":"Feature","geometry":{"type":"Point","coordinates":[137.67297,34.69292]},"properties":{"name":"高塚町浜松市発電所","fuel":"solar","output":""}},{"type":"Feature","geometry":{"type":"Point","coordinates":[136.28659,34.94024]},"properties":{"name":"土山町甲賀市発電所","fuel":"solar","output":""}},{"type":"Feature","geometry":{"type":"Point","coordinates":[138.67352,35.22446]},"properties":{"name":"富士市発電所","fuel":"solar","output":""}},{"type":"Feature","geometry":{"type":"Point","coordinates":[137.66449,34.72224]},"properties":{"name":"大久保町浜松市発電所","fuel":"solar","output":""}},{"type":"Feature","geometry":{"type":"Point","coordinates":[138.13779,34.71198]},"properties":{"name":"菊川市発電所","fuel":"solar","output":""}},{"type":"Feature","geometry":{"type":"Point","coordinates":[138.91799,35.05833]},"properties":{"name":"北江間伊豆の国市発電所","fuel":"solar","output":""}},{"type":"Feature","geometry":{"type":"Point","coordinates":[137.42618,36.78266]},"properties":{"name":"室田魚津市発電所","fuel":"solar","output":""}},{"type":"Feature","geometry":{"type":"Point","coordinates":[138.99857,35.06121]},"properties":{"name":"伊豆の国市発電所","fuel":"solar","output":""}},{"type":"Feature","geometry":{"type":"Point","coordinates":[138.11191,34.64013]},"properties":{"name":"風力発電所","fuel":"solar","output":""}},{"type":"Feature","geometry":{"type":"Point","coordinates":[138.13954,34.64004]},"properties":{"name":"東町御前崎市発電所","fuel":"solar","output":""}},{"type":"Feature","geometry":{"type":"Point","coordinates":[138.21451,34.601]},"properties":{"name":"御前崎御前崎市発電所","fuel":"solar","output":""}},{"type":"Feature","geometry":{"type":"Point","coordinates":[138.17436,34.61713]},"properties":{"name":"御前崎市発電所","fuel":"solar","output":""}},{"type":"Feature","geometry":{"type":"Point","coordinates":[138.17468,34.61684]},"properties":{"name":"御前崎市発電所","fuel":"solar","output":""}},{"type":"Feature","geometry":{"type":"Point","coordinates":[138.19094,34.60804]},"properties":{"name":"御前崎町白羽小学校","fuel":"solar","output":""}},{"type":"Feature","geometry":{"type":"Point","coordinates":[138.19234,34.60648]},"properties":{"name":"御前崎町白羽小学校","fuel":"solar","output":""}},{"type":"Feature","geometry":{"type":"Point","coordinates":[138.19023,34.60639]},"properties":{"name":"御前崎町白羽小学校","fuel":"solar","output":""}},{"type":"Feature","geometry":{"type":"Point","coordinates":[138.18997,34.6072]},"properties":{"name":"御前崎町白羽小学校","fuel":"solar","output":""}},{"type":"Feature","geometry":{"type":"Point","coordinates":[138.16777,34.62393]},"properties":{"name":"洗井御前崎市発電所","fuel":"solar","output":""}},{"type":"Feature","geometry":{"type":"Point","coordinates":[138.13035,34.65026]},"properties":{"name":"池新田御前崎市発電所","fuel":"solar","output":""}},{"type":"Feature","geometry":{"type":"Point","coordinates":[137.74782,36.15467]},"properties":{"name":"水殿水力発電所","fuel":"hydro","output":""}},{"type":"Feature","geometry":{"type":"Point","coordinates":[137.77147,36.16866]},"properties":{"name":"稲核発電所","fuel":"hydro","output":""}},{"type":"Feature","geometry":{"type":"Point","coordinates":[137.50932,36.76593]},"properties":{"name":"魚津市発電所","fuel":"hydro","output":""}},{"type":"Feature","geometry":{"type":"Point","coordinates":[138.22359,36.38991]},"properties":{"name":"上田原上田市発電所","fuel":"solar","output":""}},{"type":"Feature","geometry":{"type":"Point","coordinates":[137.86393,34.70537]},"properties":{"name":"二之宮磐田市発電所","fuel":"solar","output":""}},{"type":"Feature","geometry":{"type":"Point","coordinates":[138.59637,35.67959]},"properties":{"name":"善光寺町甲府市発電所","fuel":"solar","output":""}},{"type":"Feature","geometry":{"type":"Point","coordinates":[138.59616,35.67521]},"properties":{"name":"善光寺町甲府市発電所","fuel":"solar","output":""}},{"type":"Feature","geometry":{"type":"Point","coordinates":[138.59493,35.67428]},"properties":{"name":"善光寺町甲府市発電所","fuel":"solar","output":""}},{"type":"Feature","geometry":{"type":"Point","coordinates":[138.58376,35.66648]},"properties":{"name":"東光寺一丁目甲府市発電所","fuel":"solar","output":""}},{"type":"Feature","geometry":{"type":"Point","coordinates":[137.62642,34.71211]},"properties":{"name":"雄踏町山崎浜松市発電所","fuel":"solar","output":""}},{"type":"Feature","geometry":{"type":"Point","coordinates":[137.43024,36.80829]},"properties":{"name":"石垣新魚津市発電所","fuel":"solar","output":""}},{"type":"Feature","geometry":{"type":"Point","coordinates":[138.20023,34.67987]},"properties":{"name":"株式会社　栗山商店","fuel":"solar","output":""}},{"type":"Feature","geometry":{"type":"Point","coordinates":[138.26143,34.75879]},"properties":{"name":"吉田町立住吉小学校","fuel":"solar","output":""}},{"type":"Feature","geometry":{"type":"Point","coordinates":[138.26428,34.76062]},"properties":{"name":"吉田町立住吉小学校","fuel":"solar","output":""}},{"type":"Feature","geometry":{"type":"Point","coordinates":[138.25989,34.76022]},"properties":{"name":"吉田町立住吉小学校","fuel":"solar","output":""}},{"type":"Feature","geometry":{"type":"Point","coordinates":[139.00692,36.41709]},"properties":{"name":"清野町前橋市発電所","fuel":"solar","output":""}},{"type":"Feature","geometry":{"type":"Point","coordinates":[137.92529,34.78674]},"properties":{"name":"袋井市発電所","fuel":"solar","output":""}},{"type":"Feature","geometry":{"type":"Point","coordinates":[138.57718,35.65357]},"properties":{"name":"株式会社ふじでん太陽電池発電所","fuel":"solar","output":""}},{"type":"Feature","geometry":{"type":"Point","coordinates":[137.67543,34.73415]},"properties":{"name":"株式会社マステック","fuel":"solar","output":""}},{"type":"Feature","geometry":{"type":"Point","coordinates":[138.21353,34.60502]},"properties":{"name":"元旦ビューティ工業株式会社","fuel":"solar","output":""}},{"type":"Feature","geometry":{"type":"Point","coordinates":[138.21328,34.60545]},"properties":{"name":"元旦ビューティ工業株式会社","fuel":"solar","output":""}},{"type":"Feature","geometry":{"type":"Point","coordinates":[138.18436,34.60805]},"properties":{"name":"御前崎町白羽小学校","fuel":"solar","output":""}},{"type":"Feature","geometry":{"type":"Point","coordinates":[138.13086,34.63687]},"properties":{"name":"本町御前崎市発電所","fuel":"solar","output":""}},{"type":"Feature","geometry":{"type":"Point","coordinates":[138.12721,34.63618]},"properties":{"name":"御前崎市発電所","fuel":"solar","output":""}},{"type":"Feature","geometry":{"type":"Point","coordinates":[138.21654,34.60285]},"properties":{"name":"御前崎御前崎市発電所","fuel":"solar","output":""}},{"type":"Feature","geometry":{"type":"Point","coordinates":[138.22454,34.60048]},"properties":{"name":"マリンパーク御前崎風力発電所","fuel":"solar","output":""}},{"type":"Feature","geometry":{"type":"Point","coordinates":[138.2245,34.60152]},"properties":{"name":"マリンパーク御前崎風力発電所","fuel":"solar","output":""}},{"type":"Feature","geometry":{"type":"Point","coordinates":[138.22492,34.60173]},"properties":{"name":"マリンパーク御前崎風力発電所","fuel":"solar","output":""}},{"type":"Feature","geometry":{"type":"Point","coordinates":[138.20598,34.61922]},"properties":{"name":"元旦ビューティ工業株式会社","fuel":"solar","output":""}},{"type":"Feature","geometry":{"type":"Point","coordinates":[138.10121,34.66377]},"properties":{"name":"門屋菊川市発電所","fuel":"solar","output":""}},{"type":"Feature","geometry":{"type":"Point","coordinates":[138.1035,34.66598]},"properties":{"name":"今間菊川市発電所","fuel":"solar","output":""}},{"type":"Feature","geometry":{"type":"Point","coordinates":[138.11665,34.66884]},"properties":{"name":"新野御前崎市発電所","fuel":"solar","output":""}},{"type":"Feature","geometry":{"type":"Point","coordinates":[138.13336,34.64443]},"properties":{"name":"東町御前崎市発電所","fuel":"solar","output":""}},{"type":"Feature","geometry":{"type":"Point","coordinates":[138.13643,34.63863]},"properties":{"name":"東町御前崎市発電所","fuel":"solar","output":""}},{"type":"Feature","geometry":{"type":"Point","coordinates":[138.14144,34.63915]},"properties":{"name":"佐倉御前崎市発電所","fuel":"solar","output":""}},{"type":"Feature","geometry":{"type":"Point","coordinates":[138.143,34.63986]},"properties":{"name":"佐倉御前崎市発電所","fuel":"solar","output":""}},{"type":"Feature","geometry":{"type":"Point","coordinates":[138.14225,34.63884]},"properties":{"name":"佐倉御前崎市発電所","fuel":"solar","output":""}},{"type":"Feature","geometry":{"type":"Point","coordinates":[138.13999,34.63964]},"properties":{"name":"東町御前崎市発電所","fuel":"solar","output":""}},{"type":"Feature","geometry":{"type":"Point","coordinates":[138.13996,34.64012]},"properties":{"name":"東町御前崎市発電所","fuel":"solar","output":""}},{"type":"Feature","geometry":{"type":"Point","coordinates":[138.10528,34.6504]},"properties":{"name":"塩原新田御前崎市発電所","fuel":"solar","output":""}},{"type":"Feature","geometry":{"type":"Point","coordinates":[138.11129,34.65564]},"properties":{"name":"門屋御前崎市発電所","fuel":"solar","output":""}},{"type":"Feature","geometry":{"type":"Point","coordinates":[138.13841,34.63969]},"properties":{"name":"東町御前崎市発電所","fuel":"solar","output":""}},{"type":"Feature","geometry":{"type":"Point","coordinates":[138.10257,34.64712]},"properties":{"name":"塩原新田御前崎市発電所","fuel":"solar","output":""}},{"type":"Feature","geometry":{"type":"Point","coordinates":[138.1198,34.64336]},"properties":{"name":"大山御前崎市発電所","fuel":"solar","output":""}},{"type":"Feature","geometry":{"type":"Point","coordinates":[138.11541,34.64254]},"properties":{"name":"七ツ山御前崎市発電所","fuel":"solar","output":""}},{"type":"Feature","geometry":{"type":"Point","coordinates":[138.11534,34.64274]},"properties":{"name":"七ツ山御前崎市発電所","fuel":"solar","output":""}},{"type":"Feature","geometry":{"type":"Point","coordinates":[138.11619,34.64268]},"properties":{"name":"大山御前崎市発電所","fuel":"solar","output":""}},{"type":"Feature","geometry":{"type":"Point","coordinates":[138.11644,34.64234]},"properties":{"name":"大山御前崎市発電所","fuel":"solar","output":""}},{"type":"Feature","geometry":{"type":"Point","coordinates":[138.11587,34.64204]},"properties":{"name":"大山御前崎市発電所","fuel":"solar","output":""}},{"type":"Feature","geometry":{"type":"Point","coordinates":[138.21087,34.60769]},"properties":{"name":"元旦ビューティ工業株式会社","fuel":"solar","output":""}},{"type":"Feature","geometry":{"type":"Point","coordinates":[138.14533,34.63951]},"properties":{"name":"佐倉御前崎市発電所","fuel":"solar","output":""}},