{"type":"FeatureCollection","features":[{"type":"Feature","geometry":{"type":"Point","coordinates":[144.32232,43.10269]},"properties":{"name":"温根内鶴居村発電所","fuel":"solar","output":""}},{"type":"Feature","geometry":{"type":"Point","coordinates":[140.51215,43.03622]},"properties":{"name":"泊発電所","fuel":"nuclear","output":""}},{"type":"Feature","geometry":{"type":"Point","coordinates":[143.51526,44.03799]},"properties":{"name":"福路三丁目遠軽町発電所","fuel":"solar","output":""}},{"type":"Feature","geometry":{"type":"Point","coordinates":[141.25673,42.9652]},"properties":{"name":"砥山発電所","fuel":"hydro","output":""}},{"type":"Feature","geometry":{"type":"Point","coordinates":[141.75004,45.39711]},"properties":{"name":"稚内メガソーラー発電所","fuel":"solar","output":""}},{"type":"Feature","geometry":{"type":"Point","coordinates":[143.36745,44.33586]},"properties":{"name":"紋別バイオマス発電所","fuel":"biomass","output":""}},{"type":"Feature","geometry":{"type":"Point","coordinates":[140.91186,41.5119]},"properties":{"name":"Ōma Nuclear Power Plant","fuel":"nuclear","output":""}},{"type":"Feature","geometry":{"type":"Point","coordinates":[142.63404,42.45596]},"properties":{"name":"高見発電所","fuel":"hydro","output":""}},{"type":"Feature","geometry":{"type":"Point","coordinates":[141.92966,42.5714]},"properties":{"name":"むかわ町発電所","fuel":"solar","output":""}},{"type":"Feature","geometry":{"type":"Point","coordinates":[144.17316,42.99168]},"properties":{"name":"白糠太陽光発電所","fuel":"solar","output":""}},{"type":"Feature","geometry":{"type":"Point","coordinates":[144.18456,42.99352]},"properties":{"name":"白糠太陽光発電所","fuel":"solar","output":""}},{"type":"Feature","geometry":{"type":"Point","coordinates":[144.29853,43.02276]},"properties":{"name":"SGET釧路鶴野メガソーラー発電所","fuel":"solar","output":""}},{"type":"Feature","geometry":{"type":"Point","coordinates":[143.93814,42.89854]},"properties":{"name":"音別発電所","fuel":"gas","output":""}},{"type":"Feature","geometry":{"type":"Point","coordinates":[143.54363,43.1199]},"properties":{"name":"本別発電所","fuel":"hydro","output":""}},{"type":"Feature","geometry":{"type":"Point","coordinates":[143.3943,43.34362]},"properties":{"name":"芽登第一発電所","fuel":"hydro","output":""}},{"type":"Feature","geometry":{"type":"Point","coordinates":[141.67441,42.65544]},"properties":{"name":"三井不動産 苫小牧太陽光発電所","fuel":"solar","output":""}},{"type":"Feature","geometry":{"type":"Point","coordinates":[141.69509,42.63578]},"properties":{"name":"ソーラーパワー苫小牧 勇払太陽光発電所","fuel":"solar","output":""}},{"type":"Feature","geometry":{"type":"Point","coordinates":[141.33533,42.56285]},"properties":{"name":"オリックス白老町メガソーラー発電所","fuel":"solar","output":""}},{"type":"Feature","geometry":{"type":"Point","coordinates":[143.40903,44.0055]},"properties":{"name":"遠軽町発電所","fuel":"Bing","output":""}},{"type":"Feature","geometry":{"type":"Point","coordinates":[141.4059,43.10858]},"properties":{"name":"土屋ソーラーファクトリー札幌","fuel":"solar","output":""}},{"type":"Feature","geometry":{"type":"Point","coordinates":[143.37375,44.3263]},"properties":{"name":"太陽光","fuel":"solar","output":""}},{"type":"Feature","geometry":{"type":"Point","coordinates":[142.17499,43.53395]},"properties":{"name":"北七条西四丁目芦別市発電所","fuel":"","output":""}},{"type":"Feature","geometry":{"type":"Point","coordinates":[145.51255,43.74789]},"properties":{"name":"Ветродизельная электростанция в с. Головнино","fuel":"wind;diesel","output":""}},{"type":"Feature","geometry":{"type":"Point","coordinates":[144.04446,43.69357]},"properties":{"name":"下津別発電所","fuel":"hydro","output":""}},{"type":"Feature","geometry":{"type":"Point","coordinates":[144.07118,43.66526]},"properties":{"name":"津別発電所","fuel":"hydro","output":""}},{"type":"Feature","geometry":{"type":"Point","coordinates":[141.80447,42.61019]},"properties":{"name":"苫東厚真火力発電所","fuel":"coal","output":""}},{"type":"Feature","geometry":{"type":"Point","coordinates":[141.89013,43.46481]},"properties":{"name":"砂川火力発電所","fuel":"coal","output":""}},{"type":"Feature","geometry":{"type":"Point","coordinates":[140.42592,41.58276]},"properties":{"name":"知内発電所","fuel":"oil","output":""}},{"type":"Feature","geometry":{"type":"Point","coordinates":[142.37253,42.76053]},"properties":{"name":"岩知志発電所","fuel":"hydro","output":""}},{"type":"Feature","geometry":{"type":"Point","coordinates":[141.84576,43.42204]},"properties":{"name":"奈井江火力発電所","fuel":"coal","output":""}},{"type":"Feature","geometry":{"type":"Point","coordinates":[142.33683,44.2787]},"properties":{"name":"雨竜発電所","fuel":"hydro","output":""}},{"type":"Feature","geometry":{"type":"Point","coordinates":[142.54837,43.66598]},"properties":{"name":"志比内発電所","fuel":"hydro","output":""}},{"type":"Feature","geometry":{"type":"Point","coordinates":[142.58037,43.6521]},"properties":{"name":"忠別川発電所","fuel":"hydro","output":""}},{"type":"Feature","geometry":{"type":"Point","coordinates":[142.62546,43.62671]},"properties":{"name":"新忠別発電所","fuel":"hydro","output":""}},{"type":"Feature","geometry":{"type":"Point","coordinates":[142.66436,43.63157]},"properties":{"name":"江卸発電所","fuel":"hydro","output":""}},{"type":"Feature","geometry":{"type":"Point","coordinates":[142.22019,43.48939]},"properties":{"name":"野花南水力発電所","fuel":"","output":""}},{"type":"Feature","geometry":{"type":"Point","coordinates":[142.27105,43.4756]},"properties":{"name":"滝里水力発電所","fuel":"hydro","output":""}},{"type":"Feature","geometry":{"type":"Point","coordinates":[142.93793,43.23666]},"properties":{"name":"十勝発電所","fuel":"hydro","output":""}},{"type":"Feature","geometry":{"type":"Point","coordinates":[142.92881,43.09246]},"properties":{"name":"熊牛発電所","fuel":"hydro","output":""}},{"type":"Feature","geometry":{"type":"Point","coordinates":[142.94234,43.23324]},"properties":{"name":"上岩松発電所","fuel":"hydro","output":""}},{"type":"Feature","geometry":{"type":"Point","coordinates":[142.92452,43.18217]},"properties":{"name":"岩松発電所","fuel":"hydro","output":""}},{"type":"Feature","geometry":{"type":"Point","coordinates":[142.96305,43.24279]},"properties":{"name":"然別第二発電所","fuel":"hydro","output":""}},{"type":"Feature","geometry":{"type":"Point","coordinates":[143.04302,43.26354]},"properties":{"name":"然別第一発電所","fuel":"hydro","output":""}},{"type":"Feature","geometry":{"type":"Point","coordinates":[142.92519,43.36166]},"properties":{"name":"富村変電所","fuel":"hydro","output":""}},{"type":"Feature","geometry":{"type":"Point","coordinates":[142.54629,42.41832]},"properties":{"name":"双川発電所","fuel":"hydro","output":""}},{"type":"Feature","geometry":{"type":"Point","coordinates":[142.51008,42.5119]},"properties":{"name":"岩清水発電所","fuel":"hydro","output":""}},{"type":"Feature","geometry":{"type":"Point","coordinates":[142.56609,42.41299]},"properties":{"name":"静内発電所","fuel":"hydro","output":""}},{"type":"Feature","geometry":{"type":"Point","coordinates":[142.57755,42.47609]},"properties":{"name":"春別発電所","fuel":"hydro","output":""}},{"type":"Feature","geometry":{"type":"Point","coordinates":[142.53576,42.56618]},"properties":{"name":"下新冠発電所","fuel":"hydro","output":""}},{"type":"Feature","geometry":{"type":"Point","coordinates":[142.5549,42.60552]},"properties":{"name":"新冠発電所","fuel":"hydro","output":""}},{"type":"Feature","geometry":{"type":"Point","coordinates":[142.59437,42.67848]},"properties":{"name":"奥新冠発電所","fuel":"hydro","output":""}},{"type":"Feature","geometry":{"type":"Point","coordinates":[142.7712,42.47348]},"properties":{"name":"東の沢発電所","fuel":"hydro","output":""}},{"type":"Feature","geometry":{"type":"Point","coordinates":[143.03484,43.67848]},"properties":{"name":"上川町発電所","fuel":"","output":""}},{"type":"Feature","geometry":{"type":"Point","coordinates":[142.93219,43.75081]},"properties":{"name":"層雲峡発電所","fuel":"hydro","output":""}},{"type":"Feature","geometry":{"type":"Point","coordinates":[142.87214,43.80956]},"properties":{"name":"真勲別発電所","fuel":"hydro","output":""}},{"type":"Feature","geometry":{"type":"Point","coordinates":[142.79226,43.84177]},"properties":{"name":"上川発電所","fuel":"hydro","output":""}},{"type":"Feature","geometry":{"type":"Point","coordinates":[142.709,43.84024]},"properties":{"name":"上川町発電所","fuel":"hydro","output":""}},{"type":"Feature","geometry":{"type":"Point","coordinates":[142.70914,43.83966]},"properties":{"name":"安足間発電所","fuel":"hydro","output":""}},{"type":"Feature","geometry":{"type":"Point","coordinates":[142.65901,43.88411]},"properties":{"name":"愛別町発電所","fuel":"hydro","output":""}},{"type":"Feature","geometry":{"type":"Point","coordinates":[142.65876,43.88394]},"properties":{"name":"愛別発電所","fuel":"hydro","output":""}},{"type":"Feature","geometry":{"type":"Point","coordinates":[142.44088,43.13134]},"properties":{"name":"南富良野町発電所","fuel":"hydro","output":""}},{"type":"Feature","geometry":{"type":"Point","coordinates":[141.17053,42.96915]},"properties":{"name":"定山渓温泉東2札幌市発電所","fuel":"","output":""}},{"type":"Feature","geometry":{"type":"Point","coordinates":[141.19515,42.96776]},"properties":{"name":"南区札幌市発電所","fuel":"","output":""}},{"type":"Feature","geometry":{"type":"Point","coordinates":[141.34451,43.0147]},"properties":{"name":"藻岩発電所","fuel":"hydro","output":""}},{"type":"Feature","geometry":{"type":"Point","coordinates":[142.4674,42.89317]},"properties":{"name":"日高町発電所","fuel":"hydro","output":""}},{"type":"Feature","geometry":{"type":"Point","coordinates":[140.12635,42.0907]},"properties":{"name":"相沼内発電所","fuel":"hydro","output":""}},{"type":"Feature","geometry":{"type":"Point","coordinates":[140.89401,41.99221]},"properties":{"name":"磯谷川第二(水力)変電所","fuel":"hydro","output":""}},{"type":"Feature","geometry":{"type":"Point","coordinates":[140.88164,41.97754]},"properties":{"name":"磯谷川第一発電所","fuel":"hydro","output":""}},{"type":"Feature","geometry":{"type":"Point","coordinates":[140.19562,42.47072]},"properties":{"name":"ピリカ発電所","fuel":"hydro","output":""}},{"type":"Feature","geometry":{"type":"Point","coordinates":[145.04827,43.68089]},"properties":{"name":"標津町発電所","fuel":"","output":""}},{"type":"Feature","geometry":{"type":"Point","coordinates":[141.96298,42.6277]},"properties":{"name":"むかわ町発電所","fuel":"solar","output":""}},{"type":"Feature","geometry":{"type":"Point","coordinates":[141.96004,42.62941]},"properties":{"name":"むかわ町発電所","fuel":"solar","output":""}},{"type":"Feature","geometry":{"type":"Point","coordinates":[141.96326,42.6343]},"properties":{"name":"厚真町発電所","fuel":"solar","output":""}},{"type":"Feature","geometry":{"type":"Point","coordinates":[141.72908,42.65452]},"properties":{"name":"苫小牧市発電所","fuel":"solar","output":""}},{"type":"Feature","geometry":{"type":"Point","coordinates":[141.80132,42.61937]},"properties":{"name":"サニックスエナジー","fuel":"biomass","output":""}},{"type":"Feature","geometry":{"type":"Point","coordinates":[141.71624,42.6619]},"properties":{"name":"エア・ウォーター北海道 太陽光発電所","fuel":"solar","output":""}},{"type":"Feature","geometry":{"type":"Point","coordinates":[141.71948,42.66644]},"properties":{"name":"テラスエナジー苫小牧沼ノ端ソーラーパーク","fuel":"solar","output":""}},{"type":"Feature","geometry":{"type":"Point","coordinates":[144.39086,43.03061]},"properties":{"name":"愛国釧路市発電所","fuel":"","output":""}},{"type":"Feature","geometry":{"type":"Point","coordinates":[144.39149,43.0276]},"properties":{"name":"愛国釧路市発電所","fuel":"","output":""}},{"type":"Feature","geometry":{"type":"Point","coordinates":[142.61014,42.94619]},"properties":{"name":"奥沙流発電所","fuel":"hydro","output":""}},{"type":"Feature","geometry":{"type":"Point","coordinates":[141.94141,42.63482]},"properties":{"name":"むかわ町発電所","fuel":"solar","output":""}},{"type":"Feature","geometry":{"type":"Point","coordinates":[141.94212,42.63181]},"properties":{"name":"むかわ町発電所","fuel":"solar","output":""}},{"type":"Feature","geometry":{"type":"Point","coordinates":[141.94689,42.63437]},"properties":{"name":"むかわ町発電所","fuel":"solar","output":""}},{"type":"Feature","geometry":{"type":"Point","coordinates":[140.96938,42.93857]},"properties":{"name":"京極発電所","fuel":"hydro","output":""}},{"type":"Feature","geometry":{"type":"Point","coordinates":[143.03922,42.08343]},"properties":{"name":"幌満川第2発電所","fuel":"hydro","output":""}},{"type":"Feature","geometry":{"type":"Point","coordinates":[141.65972,42.63832]},"properties":{"name":"苫小牧発電所","fuel":"gas;oil","output":""}},{"type":"Feature","geometry":{"type":"Point","coordinates":[143.39881,43.7154]},"properties":{"name":"北見市発電所","fuel":"solar","output":""}},{"type":"Feature","geometry":{"type":"Point","coordinates":[141.41739,44.44485]},"properties":{"name":"焼尻発電所","fuel":"oil","output":""}},{"type":"Feature","geometry":{"type":"Point","coordinates":[140.85159,42.87816]},"properties":{"name":"北海道電力　寒別発電所","fuel":"hydro","output":""}},{"type":"Feature","geometry":{"type":"Point","coordinates":[140.58651,42.80799]},"properties":{"name":"北海道電力　昆布発電所","fuel":"hydro","output":""}},{"type":"Feature","geometry":{"type":"Point","coordinates":[141.91642,42.91197]},"properties":{"name":"北海道企業局 川端発電所","fuel":"hydro","output":""}},{"type":"Feature","geometry":{"type":"Point","coordinates":[145.01695,43.52182]},"properties":{"name":"字協和中標津町発電所","fuel":"solar","output":""}},{"type":"Feature","geometry":{"type":"Point","coordinates":[141.60678,43.06286]},"properties":{"name":"エネみらい南幌","fuel":"solar","output":""}},{"type":"Feature","geometry":{"type":"Point","coordinates":[140.77978,42.53105]},"properties":{"name":"とうやメガソーラー発電所","fuel":"solar","output":""}},{"type":"Feature","geometry":{"type":"Point","coordinates":[140.77871,42.5339]},"properties":{"name":"洞爺湖メガソーラー発電所","fuel":"solar","output":""}},{"type":"Feature","geometry":{"type":"Point","coordinates":[141.5352,42.61684]},"properties":{"name":"川沿町一丁目苫小牧市発電所","fuel":"solar","output":""}},{"type":"Feature","geometry":{"type":"Point","coordinates":[141.98296,43.24731]},"properties":{"name":"電源開発 桂沢発電所","fuel":"hydro","output":""}},{"type":"Feature","geometry":{"type":"Point","coordinates":[141.97021,42.91152]},"properties":{"name":"北海道企業局　滝の上発電所","fuel":"hydro","output":""}},{"type":"Feature","geometry":{"type":"Point","coordinates":[142.00742,42.96239]},"properties":{"name":"北海道企業局夕張川発電管理事務所","fuel":"hydro","output":""}},{"type":"Feature","geometry":{"type":"Point","coordinates":[142.10682,42.50976]},"properties":{"name":"日高町発電所","fuel":"solar","output":""}},{"type":"Feature","geometry":{"type":"Point","coordinates":[141.7213,42.66753]},"properties":{"name":"三峰川電力 苫小牧第一太陽光発電所","fuel":"solar","output":""}},{"type":"Feature","geometry":{"type":"Point","coordinates":[141.68499,42.637]},"properties":{"name":"SGET苫小牧メガソーラー発電所","fuel":"solar","output":""}},{"type":"Feature","geometry":{"type":"Point","coordinates":[141.62263,42.77899]},"properties":{"name":"千歳市発電所","fuel":"solar","output":""}},{"type":"Feature","geometry":{"type":"Point","coordinates":[141.27531,43.19358]},"properties":{"name":"石狩湾新港発電所","fuel":"gas","output":""}},{"type":"Feature","geometry":{"type":"Point","coordinates":[141.81114,42.70071]},"properties":{"name":"安平町発電所","fuel":"solar","output":""}},{"type":"Feature","geometry":{"type":"Point","coordinates":[141.80643,42.70058]},"properties":{"name":"安平町発電所","fuel":"solar","output":""}},{"type":"Feature","geometry":{"type":"Point","coordinates":[141.80326,42.701]},"properties":{"name":"安平町発電所","fuel":"solar","output":""}},{"type":"Feature","geometry":{"type":"Point","coordinates":[141.80294,42.70649]},"properties":{"name":"安平町発電所","fuel":"solar","output":""}},{"type":"Feature","geometry":{"type":"Point","coordinates":[141.80573,42.70582]},"properties":{"name":"安平町発電所","fuel":"solar","output":""}},{"type":"Feature","geometry":{"type":"Point","coordinates":[141.80266,42.71026]},"properties":{"name":"安平町発電所","fuel":"solar","output":""}},{"type":"Feature","geometry":{"type":"Point","coordinates":[141.24632,43.15465]},"properties":{"name":"ティオーエイチ 太陽光発電所","fuel":"solar","output":""}},{"type":"Feature","geometry":{"type":"Point","coordinates":[141.5209,42.93787]},"properties":{"name":"北広島輪厚太陽光発電所","fuel":"solar","output":""}},{"type":"Feature","geometry":{"type":"Point","coordinates":[141.59717,42.85864]},"properties":{"name":"ITKソーラー北海道 恵庭発電所","fuel":"solar","output":""}},{"type":"Feature","geometry":{"type":"Point","coordinates":[141.54193,43.27211]},"properties":{"name":"当別アグリソーラー発電所","fuel":"solar","output":""}},{"type":"Feature","geometry":{"type":"Point","coordinates":[140.81575,42.49533]},"properties":{"name":"伊達若生太陽光発電所","fuel":"solar","output":""}},{"type":"Feature","geometry":{"type":"Point","coordinates":[140.82988,42.4803]},"properties":{"name":"伊達ソーラー発電所","fuel":"solar","output":""}},{"type":"Feature","geometry":{"type":"Point","coordinates":[140.83397,42.47818]},"properties":{"name":"伊達ソーラーパーク","fuel":"solar","output":""}},{"type":"Feature","geometry":{"type":"Point","coordinates":[140.92735,42.3695]},"properties":{"name":"室蘭太陽光発電所(1)","fuel":"solar","output":""}},{"type":"Feature","geometry":{"type":"Point","coordinates":[140.92472,42.37139]},"properties":{"name":"室蘭太陽光発電所(2)","fuel":"solar","output":""}},{"type":"Feature","geometry":{"type":"Point","coordinates":[141.33733,42.54575]},"properties":{"name":"日本ハウスホールディングス 白老第一発電所","fuel":"solar","output":""}},{"type":"Feature","geometry":{"type":"Point","coordinates":[141.33973,42.54482]},"properties":{"name":"テラスエナジー 白老ソーラーパーク","fuel":"solar","output":""}},{"type":"Feature","geometry":{"type":"Point","coordinates":[141.64284,42.68532]},"properties":{"name":"テラスエナジー 苫小牧明野北ソーラーパーク","fuel":"solar","output":""}},{"type":"Feature","geometry":{"type":"Point","coordinates":[141.6406,42.68397]},"properties":{"name":"三峰川電力 苫小牧発電所","fuel":"solar","output":""}},{"type":"Feature","geometry":{"type":"Point","coordinates":[141.68006,42.63926]},"properties":{"name":"日東エフシー苫小牧工場 太陽光発電所","fuel":"solar","output":""}},{"type":"Feature","geometry":{"type":"Point","coordinates":[140.99293,42.35034]},"properties":{"name":"NSC Muroran Works Power Plant","fuel":"coal","output":""}},{"type":"Feature","geometry":{"type":"Point","coordinates":[139.83942,42.44368]},"properties":{"name":"Setana Offshore","fuel":"wind","output":""}},{"type":"Feature","geometry":{"type":"Point","coordinates":[141.58925,42.63623]},"properties":{"name":"王子製紙(株)苫小牧工場","fuel":"coal","output":""}},{"type":"Feature","geometry":{"type":"Point","coordinates":[140.82731,42.48265]},"properties":{"name":"伊達発電所","fuel":"oil","output":""}},{"type":"Feature","geometry":{"type":"Point","coordinates":[145.59144,43.28428]},"properties":{"name":"花咲港根室市発電所","fuel":"solar","output":""}},{"type":"Feature","geometry":{"type":"Point","coordinates":[142.77305,43.84381]},"properties":{"name":"川端町上川町発電所","fuel":"solar","output":""}},{"type":"Feature","geometry":{"type":"Point","coordinates":[140.84356,42.50022]},"properties":{"name":"上長和町伊達市発電所","fuel":"solar","output":""}},{"type":"Feature","geometry":{"type":"Point","coordinates":[140.84294,42.50065]},"properties":{"name":"上長和町伊達市発電所","fuel":"solar","output":""}},{"type":"Feature","geometry":{"type":"Point","coordinates":[140.8229,42.4855]},"properties":{"name":"伊達火力発電所","fuel":"solar","output":""}},{"type":"Feature","geometry":{"type":"Point","coordinates":[143.75778,43.47766]},"properties":{"name":"字陸別原野基線陸別町発電所","fuel":"solar","output":""}},{"type":"Feature","geometry":{"type":"Point","coordinates":[143.7516,43.46668]},"properties":{"name":"字陸別東三条三丁目陸別町発電所","fuel":"solar","output":""}},{"type":"Feature","geometry":{"type":"Point","coordinates":[144.15124,42.98521]},"properties":{"name":"庶路宮下三丁目白糠町発電所","fuel":"solar","output":""}},{"type":"Feature","geometry":{"type":"Point","coordinates":[143.22934,42.5951]},"properties":{"name":"更別村発電所","fuel":"solar","output":""}},{"type":"Feature","geometry":{"type":"Point","coordinates":[143.23251,42.59067]},"properties":{"name":"更別村発電所","fuel":"solar","output":""}},{"type":"Feature","geometry":{"type":"Point","coordinates":[143.19882,42.65335]},"properties":{"name":"字更別更別村発電所","fuel":"solar","output":""}},{"type":"Feature","geometry":{"type":"Point","coordinates":[143.26136,42.62793]},"properties":{"name":"更別村発電所","fuel":"solar","output":""}},{"type":"Feature","geometry":{"type":"Point","coordinates":[143.80367,43.8198]},"properties":{"name":"北見市発電所","fuel":"solar","output":""}},{"type":"Feature","geometry":{"type":"Point","coordinates":[141.00376,42.31711]},"properties":{"name":"御前水町三丁目室蘭市発電所","fuel":"solar","output":""}},{"type":"Feature","geometry":{"type":"Point","coordinates":[140.59858,41.85141]},"properties":{"name":"添山北斗市発電所","fuel":"solar","output":""}},{"type":"Feature","geometry":{"type":"Point","coordinates":[140.41758,41.56814]},"properties":{"name":"知内町発電所","fuel":"solar","output":""}},{"type":"Feature","geometry":{"type":"Point","coordinates":[140.34214,41.58935]},"properties":{"name":"知内町発電所","fuel":"solar","output":""}},{"type":"Feature","geometry":{"type":"Point","coordinates":[143.14894,43.43649]},"properties":{"name":"幌加発電所","fuel":"hydro","output":""}},{"type":"Feature","geometry":{"type":"Point","coordinates":[143.25556,43.3608]},"properties":{"name":"糠平発電所","fuel":"hydro","output":""}},{"type":"Feature","geometry":{"type":"Point","coordinates":[143.94193,42.8983]},"properties":{"name":"音別GT発電所","fuel":"solar","output":""}},{"type":"Feature","geometry":{"type":"Point","coordinates":[143.93745,42.89679]},"properties":{"name":"音別GT発電所","fuel":"solar","output":""}},{"type":"Feature","geometry":{"type":"Point","coordinates":[143.83139,43.80619]},"properties":{"name":"エスケー卸町第2太陽光発電所","fuel":"solar","output":""}},{"type":"Feature","geometry":{"type":"Point","coordinates":[143.36348,43.70415]},"properties":{"name":"留辺蘂町厚和北見市発電所","fuel":"solar","output":""}},{"type":"Feature","geometry":{"type":"Point","coordinates":[143.36892,43.7053]},"properties":{"name":"留辺蘂町厚和北見市発電所","fuel":"solar","output":""}},{"type":"Feature","geometry":{"type":"Point","coordinates":[143.32393,43.68726]},"properties":{"name":"留辺蘂町富士見北見市発電所","fuel":"solar","output":""}},{"type":"Feature","geometry":{"type":"Point","coordinates":[143.3964,43.7161]},"properties":{"name":"留辺蘂町厚和北見市発電所","fuel":"solar","output":""}},{"type":"Feature","geometry":{"type":"Point","coordinates":[143.57583,43.77546]},"properties":{"name":"留辺蘂町昭栄北見市発電所","fuel":"solar","output":""}},{"type":"Feature","geometry":{"type":"Point","coordinates":[143.6533,43.78922]},"properties":{"name":"留辺蘂町泉北見市発電所","fuel":"solar","output":""}},{"type":"Feature","geometry":{"type":"Point","coordinates":[143.62393,43.78445]},"properties":{"name":"留辺蘂町旭北北見市発電所","fuel":"solar","output":""}},{"type":"Feature","geometry":{"type":"Point","coordinates":[143.59536,43.78475]},"properties":{"name":"留辺蘂町旭西北見市発電所","fuel":"solar","output":""}},{"type":"Feature","geometry":{"type":"Point","coordinates":[143.60055,43.78748]},"properties":{"name":"留辺蘂町旭三区北見市発電所","fuel":"solar","output":""}},{"type":"Feature","geometry":{"type":"Point","coordinates":[144.65051,43.89784]},"properties":{"name":"新光町斜里町発電所","fuel":"solar","output":""}},{"type":"Feature","geometry":{"type":"Point","coordinates":[144.66076,43.8734]},"properties":{"name":"中斜里斜里町発電所","fuel":"solar","output":""}},{"type":"Feature","geometry":{"type":"Point","coordinates":[144.66146,43.8731]},"properties":{"name":"中斜里斜里町発電所","fuel":"solar","output":""}},{"type":"Feature","geometry":{"type":"Point","coordinates":[144.67279,43.87172]},"properties":{"name":"斜里町発電所","fuel":"solar","output":""}},{"type":"Feature","geometry":{"type":"Point","coordinates":[144.73107,43.9158]},"properties":{"name":"斜里町発電所","fuel":"solar","output":""}},{"type":"Feature","geometry":{"type":"Point","coordinates":[144.66484,43.89516]},"properties":{"name":"豊倉斜里町発電所","fuel":"solar","output":""}},{"type":"Feature","geometry":{"type":"Point","coordinates":[144.65278,43.91257]},"properties":{"name":"西町斜里町発電所","fuel":"solar","output":""}},{"type":"Feature","geometry":{"type":"Point","coordinates":[144.64756,43.91373]},"properties":{"name":"西町斜里町発電所","fuel":"solar","output":""}},{"type":"Feature","geometry":{"type":"Point","coordinates":[144.64921,43.91292]},"properties":{"name":"西町斜里町発電所","fuel":"solar","output":""}},{"type":"Feature","geometry":{"type":"Point","coordinates":[144.6451,43.90144]},"properties":{"name":"新光町斜里町発電所","fuel":"solar","output":""}},{"type":"Feature","geometry":{"type":"Point","coordinates":[144.65034,43.90174]},"properties":{"name":"新光町斜里町発電所","fuel":"solar","output":""}},{"type":"Feature","geometry":{"type":"Point","coordinates":[144.66943,43.90527]},"properties":{"name":"宗教法人秀岳寺","fuel":"solar","output":""}},{"type":"Feature","geometry":{"type":"Point","coordinates":[144.67726,43.9054]},"properties":{"name":"宗教法人秀岳寺","fuel":"solar","output":""}},{"type":"Feature","geometry":{"type":"Point","coordinates":[144.68143,43.90339]},"properties":{"name":"宗教法人秀岳寺","fuel":"solar","output":""}},{"type":"Feature","geometry":{"type":"Point","coordinates":[144.67661,43.90091]},"properties":{"name":"宗教法人秀岳寺","fuel":"solar","output":""}},{"type":"Feature","geometry":{"type":"Point","coordinates":[144.67363,43.89701]},"properties":{"name":"豊倉斜里町発電所","fuel":"solar","output":""}},{"type":"Feature","geometry":{"type":"Point","coordinates":[144.66922,43.90013]},"properties":{"name":"光陽町斜里町発電所","fuel":"solar","output":""}},{"type":"Feature","geometry":{"type":"Point","coordinates":[142.70901,42.19349]},"properties":{"name":"浦河町発電所","fuel":"solar","output":""}},{"type":"Feature","geometry":{"type":"Point","coordinates":[142.71142,42.19276]},"properties":{"name":"浦河町発電所","fuel":"solar","output":""}},{"type":"Feature","geometry":{"type":"Point","coordinates":[142.39807,42.36017]},"properties":{"name":"静内目名新ひだか町発電所","fuel":"solar","output":""}},{"type":"Feature","geometry":{"type":"Point","coordinates":[141.14346,45.19987]},"properties":{"name":"新湊利尻町発電所","fuel":"","output":""}},{"type":"Feature","geometry":{"type":"Point","coordinates":[143.90693,42.87331]},"properties":{"name":"音別町尺別原野東二線釧路市発電所","fuel":"solar","output":""}},{"type":"Feature","geometry":{"type":"Point","coordinates":[143.75192,43.46157]},"properties":{"name":"字陸別東二条一丁目陸別町発電所","fuel":"solar","output":""}},{"type":"Feature","geometry":{"type":"Point","coordinates":[144.40516,42.96078]},"properties":{"name":"Kushiro Power Plant","fuel":"coal","output":""}},{"type":"Feature","geometry":{"type":"Point","coordinates":[145.01425,43.57131]},"properties":{"name":"東四十二条北一丁目中標津町発電所","fuel":"solar","output":""}},{"type":"Feature","geometry":{"type":"Point","coordinates":[141.61845,42.76816]},"properties":{"name":"苫小牧市発電所","fuel":"solar","output":""}},{"type":"Feature","geometry":{"type":"Point","coordinates":[141.62157,42.76579]},"properties":{"name":"苫小牧市発電所","fuel":"solar","output":""}},{"type":"Feature","geometry":{"type":"Point","coordinates":[141.64628,42.76573]},"properties":{"name":"苫小牧市発電所","fuel":"solar","output":""}},{"type":"Feature","geometry":{"type":"Point","coordinates":[140.59337,42.0988]},"properties":{"name":"常盤町森町発電所","fuel":"solar","output":""}},{"type":"Feature","geometry":{"type":"Point","coordinates":[141.5338,43.26838]},"properties":{"name":"当別町発電所","fuel":"solar","output":""}},{"type":"Feature","geometry":{"type":"Point","coordinates":[141.87177,43.40789]},"properties":{"name":"字チャシュナイ奈井江町発電所","fuel":"solar","output":""}},{"type":"Feature","geometry":{"type":"Point","coordinates":[145.74073,43.38583]},"properties":{"name":"根室市発電所","fuel":"solar","output":""}},{"type":"Feature","geometry":{"type":"Point","coordinates":[145.76951,43.38693]},"properties":{"name":"珸瑤瑁三丁目根室市発電所","fuel":"solar","output":""}},{"type":"Feature","geometry":{"type":"Point","coordinates":[143.38226,44.31968]},"properties":{"name":"紋別市発電所","fuel":"solar","output":""}},{"type":"Feature","geometry":{"type":"Point","coordinates":[141.28276,42.5119]},"properties":{"name":"Nippon Paper Shiraoi Mill Power Station","fuel":"https://www.nipponpapergroup.com/about/branch/factory/npi/shiraoi/;https://www.gem.wiki/Shiraoi_Mill_Co-fired_Biomass_power_station","output":""}},{"type":"Feature","geometry":{"type":"Point","coordinates":[140.85747,43.20046]},"properties":{"name":"蘭島一丁目小樽市発電所","fuel":"solar","output":""}},{"type":"Feature","geometry":{"type":"Point","coordinates":[140.86118,43.19803]},"properties":{"name":"忍路小樽市発電所","fuel":"solar","output":""}},{"type":"Feature","geometry":{"type":"Point","coordinates":[140.92589,43.20938]},"properties":{"name":"塩谷小樽市発電所","fuel":"solar","output":""}},{"type":"Feature","geometry":{"type":"Point","coordinates":[144.52473,43.05997]},"properties":{"name":"字遠野釧路町発電所","fuel":"solar","output":""}},{"type":"Feature","geometry":{"type":"Point","coordinates":[144.54018,43.06648]},"properties":{"name":"釧路町発電所","fuel":"solar","output":""}},{"type":"Feature","geometry":{"type":"Point","coordinates":[144.53908,43.06406]},"properties":{"name":"釧路町発電所","fuel":"solar","output":""}},{"type":"Feature","geometry":{"type":"Point","coordinates":[143.86724,43.7816]},"properties":{"name":"F北見太陽光発電所","fuel":"solar","output":""}},{"type":"Feature","geometry":{"type":"Point","coordinates":[142.46504,43.45029]},"properties":{"name":"南町一丁目上富良野町発電所","fuel":"solar","output":""}},{"type":"Feature","geometry":{"type":"Point","coordinates":[142.46566,43.45183]},"properties":{"name":"大町四丁目上富良野町発電所","fuel":"solar","output":""}},{"type":"Feature","geometry":{"type":"Point","coordinates":[143.3205,42.31903]},"properties":{"name":"字野塚十五線広尾町発電所","fuel":"solar","output":""}},{"type":"Feature","geometry":{"type":"Point","coordinates":[145.651,43.36956]},"properties":{"name":"牧の内根室市発電所","fuel":"solar","output":""}},{"type":"Feature","geometry":{"type":"Point","coordinates":[145.65145,43.36268]},"properties":{"name":"牧の内根室市発電所","fuel":"solar","output":""}},{"type":"Feature","geometry":{"type":"Point","coordinates":[145.59799,43.35281]},"properties":{"name":"弥生町一丁目根室市発電所","fuel":"solar","output":""}},{"type":"Feature","geometry":{"type":"Point","coordinates":[145.59552,43.35091]},"properties":{"name":"北浜町一丁目根室市発電所","fuel":"solar","output":""}},{"type":"Feature","geometry":{"type":"Point","coordinates":[145.60348,43.3281]},"properties":{"name":"明治町三丁目根室市発電所","fuel":"solar","output":""}},{"type":"Feature","geometry":{"type":"Point","coordinates":[145.56802,43.31452]},"properties":{"name":"西浜町四丁目根室市発電所","fuel":"solar","output":""}},{"type":"Feature","geometry":{"type":"Point","coordinates":[145.56929,43.31314]},"properties":{"name":"西浜町四丁目根室市発電所","fuel":"solar","output":""}},{"type":"Feature","geometry":{"type":"Point","coordinates":[145.53915,43.27131]},"properties":{"name":"西和田根室市発電所","fuel":"solar","output":""}},{"type":"Feature","geometry":{"type":"Point","coordinates":[145.59182,43.31262]},"properties":{"name":"宝林町四丁目根室市発電所","fuel":"solar","output":""}},{"type":"Feature","geometry":{"type":"Point","coordinates":[145.59023,43.31157]},"properties":{"name":"宝林町四丁目根室市発電所","fuel":"solar","output":""}},{"type":"Feature","geometry":{"type":"Point","coordinates":[145.58858,43.30437]},"properties":{"name":"宝林町一丁目根室市発電所","fuel":"solar","output":""}},{"type":"Feature","geometry":{"type":"Point","coordinates":[145.59388,43.29973]},"properties":{"name":"宝林町五丁目根室市発電所","fuel":"solar","output":""}},{"type":"Feature","geometry":{"type":"Point","coordinates":[145.56692,43.29703]},"properties":{"name":"西浜町九丁目根室市発電所","fuel":"solar","output":""}},{"type":"Feature","geometry":{"type":"Point","coordinates":[145.58306,43.29246]},"properties":{"name":"花咲港根室市発電所","fuel":"solar","output":""}},{"type":"Feature","geometry":{"type":"Point","coordinates":[145.57205,43.28692]},"properties":{"name":"根室市発電所","fuel":"solar","output":""}},{"type":"Feature","geometry":{"type":"Point","coordinates":[145.56476,43.28491]},"properties":{"name":"花咲風力発電所","fuel":"solar","output":""}},{"type":"Feature","geometry":{"type":"Point","coordinates":[141.61699,43.29428]},"properties":{"name":"月形町発電所","fuel":"","output":""}},{"type":"Feature","geometry":{"type":"Point","coordinates":[144.35069,43.00795]},"properties":{"name":"Nippon Paper Industries Kushiro Mill IPP Power Station","fuel":"coal","output":""}},{"type":"Feature","geometry":{"type":"Point","coordinates":[144.9665,43.56536]},"properties":{"name":"東七条北十一丁目中標津町発電所","fuel":"solar","output":""}},{"type":"Feature","geometry":{"type":"Point","coordinates":[144.9463,43.53169]},"properties":{"name":"緑町北三丁目中標津町発電所","fuel":"solar","output":""}},{"type":"Feature","geometry":{"type":"Point","coordinates":[144.94491,43.52855]},"properties":{"name":"緑町北三丁目中標津町発電所","fuel":"solar","output":""}},{"type":"Feature","geometry":{"type":"Point","coordinates":[144.94262,43.52728]},"properties":{"name":"緑町南三丁目中標津町発電所","fuel":"solar","output":""}},{"type":"Feature","geometry":{"type":"Point","coordinates":[144.98926,43.56952]},"properties":{"name":"東二十九条北七丁目中標津町発電所","fuel":"solar","output":""}},{"type":"Feature","geometry":{"type":"Point","coordinates":[144.99312,43.56522]},"properties":{"name":"東二十九条北五丁目中標津町発電所","fuel":"solar","output":""}},{"type":"Feature","geometry":{"type":"Point","coordinates":[144.99089,43.56565]},"properties":{"name":"東二十五条北六丁目中標津町発電所","fuel":"solar","output":""}},{"type":"Feature","geometry":{"type":"Point","coordinates":[144.98958,43.56734]},"properties":{"name":"東二十五条北六丁目中標津町発電所","fuel":"solar","output":""}},{"type":"Feature","geometry":{"type":"Point","coordinates":[144.98879,43.56875]},"properties":{"name":"東二十八条北七丁目中標津町発電所","fuel":"solar","output":""}},{"type":"Feature","geometry":{"type":"Point","coordinates":[144.97505,43.57129]},"properties":{"name":"北町二丁目中標津町発電所","fuel":"solar","output":""}},{"type":"Feature","geometry":{"type":"Point","coordinates":[144.95322,43.56764]},"properties":{"name":"中標津町発電所","fuel":"solar","output":""}},{"type":"Feature","geometry":{"type":"Point","coordinates":[144.58129,43.29505]},"properties":{"name":"開運九丁目標茶町発電所","fuel":"solar","output":""}},{"type":"Feature","geometry":{"type":"Point","coordinates":[144.60043,43.29012]},"properties":{"name":"桜十二丁目標茶町発電所","fuel":"solar","output":""}},{"type":"Feature","geometry":{"type":"Point","coordinates":[144.61472,43.30593]},"properties":{"name":"平和五丁目標茶町発電所","fuel":"solar","output":""}},{"type":"Feature","geometry":{"type":"Point","coordinates":[144.61603,43.30169]},"properties":{"name":"平和八丁目標茶町発電所","fuel":"solar","output":""}},{"type":"Feature","geometry":{"type":"Point","coordinates":[144.61646,43.30362]},"properties":{"name":"平和五丁目標茶町発電所","fuel":"solar","output":""}},{"type":"Feature","geometry":{"type":"Point","coordinates":[144.53054,43.40209]},"properties":{"name":"弟子屈町発電所","fuel":"solar","output":""}},{"type":"Feature","geometry":{"type":"Point","coordinates":[144.53527,43.40095]},"properties":{"name":"熊牛原野弟子屈町発電所","fuel":"solar","output":""}},{"type":"Feature","geometry":{"type":"Point","coordinates":[144.53074,43.39317]},"properties":{"name":"弟子屈町発電所","fuel":"solar","output":""}},{"type":"Feature","geometry":{"type":"Point","coordinates":[144.56375,43.37543]},"properties":{"name":"標茶町発電所","fuel":"solar","output":""}},{"type":"Feature","geometry":{"type":"Point","coordinates":[144.56104,43.37501]},"properties":{"name":"標茶町発電所","fuel":"solar","output":""}},{"type":"Feature","geometry":{"type":"Point","coordinates":[141.84191,42.62847]},"properties":{"name":"厚真町発電所","fuel":"solar","output":""}},{"type":"Feature","geometry":{"type":"Point","coordinates":[144.35736,43.00599]},"properties":{"name":"Nippon Paper Industries Kushiro Mill Power Station","fuel":"coal","output":""}},{"type":"Feature","geometry":{"type":"Point","coordinates":[141.64402,43.32811]},"properties":{"name":"麻生月形町発電所","fuel":"","output":""}},{"type":"Feature","geometry":{"type":"Point","coordinates":[141.64461,43.32819]},"properties":{"name":"麻生月形町発電所","fuel":"","output":""}},{"type":"Feature","geometry":{"type":"Point","coordinates":[143.50944,44.03885]},"properties":{"name":"福路三丁目遠軽町発電所","fuel":"solar","output":""}},{"type":"Feature","geometry":{"type":"Point","coordinates":[143.51585,44.03623]},"properties":{"name":"南町遠軽町発電所","fuel":"solar","output":""}},{"type":"Feature","geometry":{"type":"Point","coordinates":[143.50138,44.04453]},"properties":{"name":"清川遠軽町発電所","fuel":"solar","output":""}},{"type":"Feature","geometry":{"type":"Point","coordinates":[143.50434,44.04342]},"properties":{"name":"西町三丁目遠軽町発電所","fuel":"solar","output":""}},{"type":"Feature","geometry":{"type":"Point","coordinates":[143.51487,44.01879]},"properties":{"name":"遠軽町発電所","fuel":"solar","output":""}},{"type":"Feature","geometry":{"type":"Point","coordinates":[140.60541,41.91051]},"properties":{"name":"村山北斗市発電所","fuel":"solar","output":""}},{"type":"Feature","geometry":{"type":"Point","coordinates":[140.60245,41.85337]},"properties":{"name":"添山北斗市発電所","fuel":"solar","output":""}},{"type":"Feature","geometry":{"type":"Point","coordinates":[140.60215,41.84858]},"properties":{"name":"添山北斗市発電所","fuel":"solar","output":""}},{"type":"Feature","geometry":{"type":"Point","coordinates":[140.60333,41.84687]},"properties":{"name":"北斗市発電所","fuel":"solar","output":""}},{"type":"Feature","geometry":{"type":"Point","coordinates":[140.61134,41.85532]},"properties":{"name":"北斗市発電所","fuel":"solar","output":""}},{"type":"Feature","geometry":{"type":"Point","coordinates":[140.61426,41.85372]},"properties":{"name":"野崎北斗市発電所","fuel":"solar","output":""}},{"type":"Feature","geometry":{"type":"Point","coordinates":[140.60934,41.82194]},"properties":{"name":"水無北斗市発電所","fuel":"solar","output":""}},{"type":"Feature","geometry":{"type":"Point","coordinates":[140.60779,41.82304]},"properties":{"name":"水無北斗市発電所","fuel":"solar","output":""}},{"type":"Feature","geometry":{"type":"Point","coordinates":[140.61138,41.82074]},"properties":{"name":"三好北斗市発電所","fuel":"solar","output":""}},{"type":"Feature","geometry":{"type":"Point","coordinates":[140.61181,41.82115]},"properties":{"name":"三好北斗市発電所","fuel":"solar","output":""}},{"type":"Feature","geometry":{"type":"Point","coordinates":[140.62626,41.88068]},"properties":{"name":"向野一丁目北斗市発電所","fuel":"solar","output":""}},{"type":"Feature","geometry":{"type":"Point","coordinates":[140.60454,41.88647]},"properties":{"name":"北斗市発電所","fuel":"solar","output":""}},{"type":"Feature","geometry":{"type":"Point","coordinates":[140.63768,41.91565]},"properties":{"name":"峠下北斗市発電所","fuel":"solar","output":""}},{"type":"Feature","geometry":{"type":"Point","coordinates":[140.66274,41.92641]},"properties":{"name":"藤城七飯町発電所","fuel":"solar","output":""}},{"type":"Feature","geometry":{"type":"Point","coordinates":[140.66337,41.92543]},"properties":{"name":"藤城七飯町発電所","fuel":"solar","output":""}},{"type":"Feature","geometry":{"type":"Point","coordinates":[140.68589,41.9294]},"properties":{"name":"七飯町発電所","fuel":"solar","output":""}},{"type":"Feature","geometry":{"type":"Point","coordinates":[140.68574,41.93046]},"properties":{"name":"七飯町発電所","fuel":"solar","output":""}},{"type":"Feature","geometry":{"type":"Point","coordinates":[140.68423,41.93014]},"properties":{"name":"七飯町発電所","fuel":"solar","output":""}},{"type":"Feature","geometry":{"type":"Point","coordinates":[140.79878,41.8279]},"properties":{"name":"函館市発電所","fuel":"solar","output":""}},{"type":"Feature","geometry":{"type":"Point","coordinates":[141.62004,42.76759]},"properties":{"name":"苫小牧市発電所","fuel":"solar","output":""}},{"type":"Feature","geometry":{"type":"Point","coordinates":[141.80755,42.70539]},"properties":{"name":"安平町発電所","fuel":"solar","output":""}},{"type":"Feature","geometry":{"type":"Point","coordinates":[141.5869,42.86133]},"properties":{"name":"恵南恵庭市発電所","fuel":"solar","output":""}},{"type":"Feature","geometry":{"type":"Point","coordinates":[143.26584,42.63652]},"properties":{"name":"字弘和幕別町発電所","fuel":"solar","output":""}},{"type":"Feature","geometry":{"type":"Point","coordinates":[143.14941,42.7968]},"properties":{"name":"富士町帯広市発電所","fuel":"solar","output":""}},{"type":"Feature","geometry":{"type":"Point","coordinates":[140.8831,43.20041]},"properties":{"name":"忍路小樽市発電所","fuel":"solar","output":""}},{"type":"Feature","geometry":{"type":"Point","coordinates":[141.72073,43.35842]},"properties":{"name":"字厚軽臼内月形町発電所","fuel":"solar","output":""}},{"type":"Feature","geometry":{"type":"Point","coordinates":[141.22498,43.05527]},"properties":{"name":"西区札幌市発電所","fuel":"solar","output":""}},{"type":"Feature","geometry":{"type":"Point","coordinates":[144.13079,43.11239]},"properties":{"name":"阿寒町中央一丁目釧路市発電所","fuel":"solar","output":""}},{"type":"Feature","geometry":{"type":"Point","coordinates":[144.12889,43.1126]},"properties":{"name":"阿寒町中央一丁目釧路市発電所","fuel":"solar","output":""}},{"type":"Feature","geometry":{"type":"Point","coordinates":[144.1252,43.11067]},"properties":{"name":"阿寒町中央一丁目釧路市発電所","fuel":"solar","output":""}},{"type":"Feature","geometry":{"type":"Point","coordinates":[140.90419,41.51966]},"properties":{"name":"大間原子力発電所","fuel":"solar","output":""}},{"type":"Feature","geometry":{"type":"Point","coordinates":[140.9151,41.5186]},"properties":{"name":"大間原子力発電所","fuel":"solar","output":""}},{"type":"Feature","geometry":{"type":"Point","coordinates":[140.92015,41.51508]},"properties":{"name":"大間町発電所","fuel":"solar","output":""}},{"type":"Feature","geometry":{"type":"Point","coordinates":[140.9191,41.51448]},"properties":{"name":"大間町発電所","fuel":"solar","output":""}},{"type":"Feature","geometry":{"type":"Point","coordinates":[140.91195,41.50541]},"properties":{"name":"大間町発電所","fuel":"solar","output":""}},{"type":"Feature","geometry":{"type":"Point","coordinates":[140.91433,41.50625]},"properties":{"name":"大間町発電所","fuel":"solar","output":""}},{"type":"Feature","geometry":{"type":"Point","coordinates":[140.91952,41.50921]},"properties":{"name":"大間町発電所","fuel":"solar","output":""}},{"type":"Feature","geometry":{"type":"Point","coordinates":[140.90704,41.5181]},"properties":{"name":"大間原子力発電所","fuel":"solar","output":""}},{"type":"Feature","geometry":{"type":"Point","coordinates":[140.90805,41.5196]},"properties":{"name":"大間原子力発電所","fuel":"solar","output":""}},{"type":"Feature","geometry":{"type":"Point","coordinates":[144.28705,43.98961]},"properties":{"name":"鱒浦網走市発電所","fuel":"solar","output":""}},{"type":"Feature","geometry":{"type":"Point","coordinates":[144.27282,43.99119]},"properties":{"name":"鱒浦五丁目網走市発電所","fuel":"solar","output":""}},{"type":"Feature","geometry":{"type":"Point","coordinates":[144.27667,43.99158]},"properties":{"name":"鱒浦五丁目網走市発電所","fuel":"solar","output":""}},{"type":"Feature","geometry":{"type":"Point","coordinates":[140.91407,41.51955]},"properties":{"name":"大間原子力発電所","fuel":"solar","output":""}},{"type":"Feature","geometry":{"type":"Point","coordinates":[141.59752,43.10523]},"properties":{"name":"江別太江別市発電所","fuel":"solar","output":""}},{"type":"Feature","geometry":{"type":"Point","coordinates":[144.28755,43.84672]},"properties":{"name":"社会法人東藻琴福祉会","fuel":"solar","output":""}},{"type":"Feature","geometry":{"type":"Point","coordinates":[144.306,43.84951]},"properties":{"name":"東藻琴明生大空町発電所","fuel":"solar","output":""}},{"type":"Feature","geometry":{"type":"Point","coordinates":[144.30689,43.84933]},"properties":{"name":"東藻琴明生大空町発電所","fuel":"solar","output":""}},{"type":"Feature","geometry":{"type":"Point","coordinates":[141.53251,42.61557]},"properties":{"name":"川沿町三丁目苫小牧市発電所","fuel":"solar","output":""}},{"type":"Feature","geometry":{"type":"Point","coordinates":[144.16265,43.91625]},"properties":{"name":"女満別湖畔四丁目大空町発電所","fuel":"solar","output":""}},{"type":"Feature","geometry":{"type":"Point","coordinates":[144.18039,43.90597]},"properties":{"name":"女満別東陽一丁目大空町発電所","fuel":"solar","output":""}},{"type":"Feature","geometry":{"type":"Point","coordinates":[144.18057,43.90576]},"properties":{"name":"女満別東陽一丁目大空町発電所","fuel":"solar","output":""}},{"type":"Feature","geometry":{"type":"Point","coordinates":[144.18056,43.9058]},"properties":{"name":"女満別東陽一丁目大空町発電所","fuel":"solar","output":""}},{"type":"Feature","geometry":{"type":"Point","coordinates":[144.18067,43.90585]},"properties":{"name":"女満別東陽一丁目大空町発電所","fuel":"solar","output":""}},{"type":"Feature","geometry":{"type":"Point","coordinates":[144.18051,43.90584]},"properties":{"name":"女満別東陽一丁目大空町発電所","fuel":"solar","output":""}},{"type":"Feature","geometry":{"type":"Point","coordinates":[144.18066,43.90589]},"properties":{"name":"女満別東陽一丁目大空町発電所","fuel":"solar","output":""}},{"type":"Feature","geometry":{"type":"Point","coordinates":[144.18044,43.90588]},"properties":{"name":"女満別東陽一丁目大空町発電所","fuel":"solar","output":""}},{"type":"Feature","geometry":{"type":"Point","coordinates":[144.18061,43.90592]},"properties":{"name":"女満別東陽一丁目大空町発電所","fuel":"solar","output":""}},{"type":"Feature","geometry":{"type":"Point","coordinates":[144.18039,43.90591]},"properties":{"name":"女満別東陽一丁目大空町発電所","fuel":"solar","output":""}},{"type":"Feature","geometry":{"type":"Point","coordinates":[144.18055,43.90596]},"properties":{"name":"女満別東陽一丁目大空町発電所","fuel":"solar","output":""}},{"type":"Feature","geometry":{"type":"Point","coordinates":[144.18033,43.90595]},"properties":{"name":"女満別東陽一丁目大空町発電所","fuel":"solar","output":""}},{"type":"Feature","geometry":{"type":"Point","coordinates":[144.18049,43.906]},"properties":{"name":"女満別東陽一丁目大空町発電所","fuel":"solar","output":""}},{"type":"Feature","geometry":{"type":"Point","coordinates":[144.18027,43.90598]},"properties":{"name":"女満別東陽一丁目大空町発電所","fuel":"solar","output":""}},{"type":"Feature","geometry":{"type":"Point","coordinates":[144.18043,43.90603]},"properties":{"name":"女満別東陽一丁目大空町発電所","fuel":"solar","output":""}},{"type":"Feature","geometry":{"type":"Point","coordinates":[144.18021,43.90602]},"properties":{"name":"女満別東陽一丁目大空町発電所","fuel":"solar","output":""}},{"type":"Feature","geometry":{"type":"Point","coordinates":[144.18036,43.90607]},"properties":{"name":"女満別東陽一丁目大空町発電所","fuel":"solar","output":""}},{"type":"Feature","geometry":{"type":"Point","coordinates":[144.18015,43.90605]},"properties":{"name":"女満別東陽一丁目大空町発電所","fuel":"solar","output":""}},{"type":"Feature","geometry":{"type":"Point","coordinates":[144.18032,43.9061]},"properties":{"name":"女満別東陽一丁目大空町発電所","fuel":"solar","output":""}},{"type":"Feature","geometry":{"type":"Point","coordinates":[144.18009,43.90609]},"properties":{"name":"女満別東陽一丁目大空町発電所","fuel":"solar","output":""}},{"type":"Feature","geometry":{"type":"Point","coordinates":[144.1802,43.90614]},"properties":{"name":"女満別東陽一丁目大空町発電所","fuel":"solar","output":""}},{"type":"Feature","geometry":{"type":"Point","coordinates":[144.18024,43.90619]},"properties":{"name":"女満別東陽一丁目大空町発電所","fuel":"solar","output":""}},{"type":"Feature","geometry":{"type":"Point","coordinates":[144.17757,43.908]},"properties":{"name":"女満別公園通大空町発電所","fuel":"solar","output":""}},{"type":"Feature","geometry":{"type":"Point","coordinates":[144.18062,43.91087]},"properties":{"name":"女満別東陽一丁目大空町発電所","fuel":"solar","output":""}},{"type":"Feature","geometry":{"type":"Point","coordinates":[144.17865,43.91096]},"properties":{"name":"女満別東陽一丁目大空町発電所","fuel":"solar","output":""}},{"type":"Feature","geometry":{"type":"Point","coordinates":[140.62461,41.99897]},"properties":{"name":"西大沼森町発電所","fuel":"solar","output":""}},{"type":"Feature","geometry":{"type":"Point","coordinates":[144.44763,43.4756]},"properties":{"name":"桜丘二丁目弟子屈町発電所","fuel":"solar","output":""}},{"type":"Feature","geometry":{"type":"Point","coordinates":[144.44649,43.47516]},"properties":{"name":"桜丘二丁目弟子屈町発電所","fuel":"solar","output":""}},{"type":"Feature","geometry":{"type":"Point","coordinates":[144.46031,43.47729]},"properties":{"name":"桜丘一丁目弟子屈町発電所","fuel":"solar","output":""}},{"type":"Feature","geometry":{"type":"Point","coordinates":[144.46101,43.47621]},"properties":{"name":"泉二丁目弟子屈町発電所","fuel":"solar","output":""}},{"type":"Feature","geometry":{"type":"Point","coordinates":[141.50518,42.92906]},"properties":{"name":"島松北広島市発電所","fuel":"solar","output":""}},{"type":"Feature","geometry":{"type":"Point","coordinates":[142.56984,42.32202]},"properties":{"name":"新ひだかソーラーパーク","fuel":"solar","output":""}},{"type":"Feature","geometry":{"type":"Point","coordinates":[141.5954,42.85442]},"properties":{"name":"千歳市発電所","fuel":"solar","output":""}},{"type":"Feature","geometry":{"type":"Point","coordinates":[141.58813,42.86055]},"properties":{"name":"恵南恵庭市発電所","fuel":"solar","output":""}},{"type":"Feature","geometry":{"type":"Point","coordinates":[143.05432,42.11075]},"properties":{"name":"幌満川第3発電所","fuel":"hydro","output":""}},{"type":"Feature","geometry":{"type":"Point","coordinates":[145.25013,43.23942]},"properties":{"name":"明郷根室市発電所","fuel":"solar","output":""}},{"type":"Feature","geometry":{"type":"Point","coordinates":[145.25147,43.23898]},"properties":{"name":"明郷根室市発電所","fuel":"solar","output":""}},{"type":"Feature","geometry":{"type":"Point","coordinates":[145.2516,43.23842]},"properties":{"name":"明郷根室市発電所","fuel":"solar","output":""}},{"type":"Feature","geometry":{"type":"Point","coordinates":[145.25096,43.23773]},"properties":{"name":"明郷根室市発電所","fuel":"solar","output":""}},{"type":"Feature","geometry":{"type":"Point","coordinates":[145.24999,43.23798]},"properties":{"name":"明郷根室市発電所","fuel":"solar","output":""}},{"type":"Feature","geometry":{"type":"Point","coordinates":[144.77374,43.42287]},"properties":{"name":"西春別駅前曙町別海町発電所","fuel":"solar","output":""}},{"type":"Feature","geometry":{"type":"Point","coordinates":[144.77271,43.42133]},"properties":{"name":"西春別駅前曙町別海町発電所","fuel":"solar","output":""}},{"type":"Feature","geometry":{"type":"Point","coordinates":[144.77068,43.42057]},"properties":{"name":"西春別駅前曙町別海町発電所","fuel":"solar","output":""}},{"type":"Feature","geometry":{"type":"Point","coordinates":[144.76926,43.41974]},"properties":{"name":"西春別駅前曙町別海町発電所","fuel":"solar","output":""}},{"type":"Feature","geometry":{"type":"Point","coordinates":[144.76898,43.41941]},"properties":{"name":"西春別駅前曙町別海町発電所","fuel":"solar","output":""}},{"type":"Feature","geometry":{"type":"Point","coordinates":[144.7604,43.41297]},"properties":{"name":"西春別清川町別海町発電所","fuel":"solar","output":""}},{"type":"Feature","geometry":{"type":"Point","coordinates":[144.75921,43.41203]},"properties":{"name":"西春別清川町別海町発電所","fuel":"solar","output":""}},{"type":"Feature","geometry":{"type":"Point","coordinates":[144.76961,43.40906]},"properties":{"name":"西春別駅前錦町別海町発電所","fuel":"solar","output":""}},{"type":"Feature","geometry":{"type":"Point","coordinates":[144.76582,43.41053]},"properties":{"name":"西春別駅前錦町別海町発電所","fuel":"solar","output":""}},{"type":"Feature","geometry":{"type":"Point","coordinates":[144.72997,43.42264]},"properties":{"name":"西春別清川町別海町発電所","fuel":"solar","output":""}},{"type":"Feature","geometry":{"type":"Point","coordinates":[144.72258,43.42193]},"properties":{"name":"別海町発電所","fuel":"solar","output":""}},{"type":"Feature","geometry":{"type":"Point","coordinates":[144.74009,43.41576]},"properties":{"name":"西春別清川町別海町発電所","fuel":"solar","output":""}},{"type":"Feature","geometry":{"type":"Point","coordinates":[145.05769,43.47942]},"properties":{"name":"中春別東町別海町発電所","fuel":"solar","output":""}},{"type":"Feature","geometry":{"type":"Point","coordinates":[145.12151,43.38296]},"properties":{"name":"別海緑町別海町発電所","fuel":"solar","output":""}},{"type":"Feature","geometry":{"type":"Point","coordinates":[141.88637,42.69723]},"properties":{"name":"豊沢厚真町発電所","fuel":"solar","output":""}},{"type":"Feature","geometry":{"type":"Point","coordinates":[142.64261,42.21719]},"properties":{"name":"新ひだか町発電所","fuel":"solar","output":""}},{"type":"Feature","geometry":{"type":"Point","coordinates":[145.19386,43.19631]},"properties":{"name":"姉別浜中町発電所","fuel":"solar","output":""}},{"type":"Feature","geometry":{"type":"Point","coordinates":[145.19607,43.19528]},"properties":{"name":"姉別浜中町発電所","fuel":"solar","output":""}},{"type":"Feature","geometry":{"type":"Point","coordinates":[145.19796,43.19457]},"properties":{"name":"姉別三丁目浜中町発電所","fuel":"solar","output":""}},{"type":"Feature","geometry":{"type":"Point","coordinates":[145.19427,43.19453]},"properties":{"name":"姉別浜中町発電所","fuel":"solar","output":""}},{"type":"Feature","geometry":{"type":"Point","coordinates":[144.44178,43.04589]},"properties":{"name":"釧路町発電所","fuel":"solar","output":""}},{"type":"Feature","geometry":{"type":"Point","coordinates":[144.43617,43.03696]},"properties":{"name":"河畔一丁目釧路町発電所","fuel":"solar","output":""}},{"type":"Feature","geometry":{"type":"Point","coordinates":[143.96102,42.92246]},"properties":{"name":"釧路市発電所","fuel":"solar","output":""}},{"type":"Feature","geometry":{"type":"Point","coordinates":[143.95155,42.91541]},"properties":{"name":"音別町馬主来原野釧路市発電所","fuel":"solar","output":""}},{"type":"Feature","geometry":{"type":"Point","coordinates":[143.95777,42.91508]},"properties":{"name":"音別町馬主来原野釧路市発電所","fuel":"solar","output":""}},{"type":"Feature","geometry":{"type":"Point","coordinates":[143.96059,42.91252]},"properties":{"name":"釧路市発電所","fuel":"solar","output":""}},{"type":"Feature","geometry":{"type":"Point","coordinates":[143.96481,42.91372]},"properties":{"name":"釧路市発電所","fuel":"solar","output":""}},{"type":"Feature","geometry":{"type":"Point","coordinates":[143.96054,42.90852]},"properties":{"name":"釧路市発電所","fuel":"solar","output":""}},{"type":"Feature","geometry":{"type":"Point","coordinates":[143.96818,42.90788]},"properties":{"name":"釧路市発電所","fuel":"solar","output":""}},{"type":"Feature","geometry":{"type":"Point","coordinates":[145.1085,43.69403]},"properties":{"name":"伊茶仁標津町発電所","fuel":"solar","output":""}},{"type":"Feature","geometry":{"type":"Point","coordinates":[144.31835,43.239]},"properties":{"name":"鶴居北二丁目鶴居村発電所","fuel":"solar","output":""}},{"type":"Feature","geometry":{"type":"Point","coordinates":[141.51052,42.93855]},"properties":{"name":"輪厚中央三丁目北広島市発電所","fuel":"solar","output":""}},{"type":"Feature","geometry":{"type":"Point","coordinates":[141.51565,42.93513]},"properties":{"name":"輪厚中央四丁目北広島市発電所","fuel":"solar","output":""}},{"type":"Feature","geometry":{"type":"Point","coordinates":[140.64237,42.02994]},"properties":{"name":"森町発電所","fuel":"solar","output":""}},{"type":"Feature","geometry":{"type":"Point","coordinates":[140.64453,42.03206]},"properties":{"name":"森町発電所","fuel":"solar","output":""}},{"type":"Feature","geometry":{"type":"Point","coordinates":[143.57539,44.14627]},"properties":{"name":"上湧別屯田市街地湧別町発電所","fuel":"solar","output":""}},{"type":"Feature","geometry":{"type":"Point","coordinates":[143.57437,44.14905]},"properties":{"name":"上湧別屯田市街地湧別町発電所","fuel":"solar","output":""}},{"type":"Feature","geometry":{"type":"Point","coordinates":[143.5274,44.07673]},"properties":{"name":"岩見通北十一丁目遠軽町発電所","fuel":"solar","output":""}},{"type":"Feature","geometry":{"type":"Point","coordinates":[143.52433,44.07467]},"properties":{"name":"岩見通北九丁目遠軽町発電所","fuel":"solar","output":""}},{"type":"Feature","geometry":{"type":"Point","coordinates":[143.52254,44.07676]},"properties":{"name":"学田一丁目遠軽町発電所","fuel":"solar","output":""}},{"type":"Feature","geometry":{"type":"Point","coordinates":[143.52373,44.08331]},"properties":{"name":"学田遠軽町発電所","fuel":"solar","output":""}},{"type":"Feature","geometry":{"type":"Point","coordinates":[143.53168,44.08815]},"properties":{"name":"学田四丁目遠軽町発電所","fuel":"solar","output":""}},{"type":"Feature","geometry":{"type":"Point","coordinates":[142.88654,43.11272]},"properties":{"name":"字屈足西二線新得町発電所","fuel":"solar","output":""}},{"type":"Feature","geometry":{"type":"Point","coordinates":[142.90104,43.10483]},"properties":{"name":"屈足緑町四丁目新得町発電所","fuel":"solar","output":""}},{"type":"Feature","geometry":{"type":"Point","coordinates":[142.9002,43.10664]},"properties":{"name":"屈足緑町四丁目新得町発電所","fuel":"solar","output":""}},{"type":"Feature","geometry":{"type":"Point","coordinates":[142.90596,43.16604]},"properties":{"name":"字新内東八線新得町発電所","fuel":"solar","output":""}},{"type":"Feature","geometry":{"type":"Point","coordinates":[142.90569,43.16532]},"properties":{"name":"字新内東八線新得町発電所","fuel":"solar","output":""}},{"type":"Feature","geometry":{"type":"Point","coordinates":[144.408,42.99367]},"properties":{"name":"緑ケ岡二丁目釧路市発電所","fuel":"solar","output":""}},{"type":"Feature","geometry":{"type":"Point","coordinates":[143.91029,43.83025]},"properties":{"name":"曙町北見市発電所","fuel":"solar","output":""}},{"type":"Feature","geometry":{"type":"Point","coordinates":[143.9133,43.83066]},"properties":{"name":"小泉北見市発電所","fuel":"solar","output":""}},{"type":"Feature","geometry":{"type":"Point","coordinates":[143.30598,44.36382]},"properties":{"name":"渚滑町八丁目紋別市発電所","fuel":"solar","output":""}},{"type":"Feature","geometry":{"type":"Point","coordinates":[143.33234,44.37009]},"properties":{"name":"渚滑町一丁目紋別市発電所","fuel":"solar","output":""}},{"type":"Feature","geometry":{"type":"Point","coordinates":[143.32101,44.37026]},"properties":{"name":"渚滑町元新五丁目紋別市発電所","fuel":"solar","output":""}},{"type":"Feature","geometry":{"type":"Point","coordinates":[143.2958,44.37656]},"properties":{"name":"渚滑町九丁目紋別市発電所","fuel":"solar","output":""}},{"type":"Feature","geometry":{"type":"Point","coordinates":[143.29801,44.37464]},"properties":{"name":"渚滑町九丁目紋別市発電所","fuel":"solar","output":""}},{"type":"Feature","geometry":{"type":"Point","coordinates":[143.30077,44.36948]},"properties":{"name":"渚滑町七丁目紋別市発電所","fuel":"solar","output":""}},{"type":"Feature","geometry":{"type":"Point","coordinates":[144.29926,43.97669]},"properties":{"name":"網走市発電所","fuel":"solar","output":""}},{"type":"Feature","geometry":{"type":"Point","coordinates":[144.31208,43.9573]},"properties":{"name":"藻琴網走市発電所","fuel":"solar","output":""}},{"type":"Feature","geometry":{"type":"Point","coordinates":[144.31549,43.96066]},"properties":{"name":"藻琴網走市発電所","fuel":"solar","output":""}},{"type":"Feature","geometry":{"type":"Point","coordinates":[143.93791,43.84156]},"properties":{"name":"端野町三区北見市発電所","fuel":"solar","output":""}},{"type":"Feature","geometry":{"type":"Point","coordinates":[143.92952,43.83682]},"properties":{"name":"ひかり野五丁目北見市発電所","fuel":"solar","output":""}},{"type":"Feature","geometry":{"type":"Point","coordinates":[143.93472,43.84148]},"properties":{"name":"北見市発電所","fuel":"solar","output":""}},{"type":"Feature","geometry":{"type":"Point","coordinates":[143.93697,43.84616]},"properties":{"name":"端野町三区北見市発電所","fuel":"solar","output":""}},{"type":"Feature","geometry":{"type":"Point","coordinates":[143.93677,43.84819]},"properties":{"name":"端野町三区北見市発電所","fuel":"solar","output":""}},{"type":"Feature","geometry":{"type":"Point","coordinates":[141.56859,43.24509]},"properties":{"name":"字金沢当別町発電所","fuel":"solar","output":""}},{"type":"Feature","geometry":{"type":"Point","coordinates":[141.5369,42.86068]},"properties":{"name":"漁川発電所","fuel":"hydro","output":""}},{"type":"Feature","geometry":{"type":"Point","coordinates":[141.5007,42.85072]},"properties":{"name":"恵庭発電所","fuel":"hydro","output":""}},{"type":"Feature","geometry":{"type":"Point","coordinates":[141.24423,43.15243]},"properties":{"name":"手稲区札幌市発電所","fuel":"solar","output":""}},{"type":"Feature","geometry":{"type":"Point","coordinates":[142.62979,44.33066]},"properties":{"name":"下川町発電所","fuel":"hydro","output":""}},{"type":"Feature","geometry":{"type":"Point","coordinates":[142.0189,43.0014]},"properties":{"name":"夕張市発電所","fuel":"hydro","output":""}},{"type":"Feature","geometry":{"type":"Point","coordinates":[142.09817,43.02193]},"properties":{"name":"シューパロ発電所","fuel":"hydro","output":""}},{"type":"Feature","geometry":{"type":"Point","coordinates":[140.5644,42.09035]},"properties":{"name":"森町発電所","fuel":"solar","output":""}},{"type":"Feature","geometry":{"type":"Point","coordinates":[144.53268,43.78811]},"properties":{"name":"清里町発電所","fuel":"solar","output":""}},{"type":"Feature","geometry":{"type":"Point","coordinates":[144.53117,43.7849]},"properties":{"name":"川向清里町発電所","fuel":"solar","output":""}},{"type":"Feature","geometry":{"type":"Point","coordinates":[144.52943,43.78544]},"properties":{"name":"札弦町清里町発電所","fuel":"solar","output":""}},{"type":"Feature","geometry":{"type":"Point","coordinates":[140.64069,42.80773]},"properties":{"name":"ニセコ町発電所","fuel":"hydro","output":""}},{"type":"Feature","geometry":{"type":"Point","coordinates":[140.72137,42.8248]},"properties":{"name":"比羅夫発電所","fuel":"hydro","output":""}},{"type":"Feature","geometry":{"type":"Point","coordinates":[141.69711,42.64505]},"properties":{"name":"勇払バイオマス発電","fuel":"biomass","output":""}},{"type":"Feature","geometry":{"type":"Point","coordinates":[143.17389,42.96138]},"properties":{"name":"字下音更北六線西音更町発電所","fuel":"solar","output":""}},{"type":"Feature","geometry":{"type":"Point","coordinates":[143.19165,42.96384]},"properties":{"name":"北鈴蘭北二丁目音更町発電所","fuel":"solar","output":""}},{"type":"Feature","geometry":{"type":"Point","coordinates":[140.94122,41.50969]},"properties":{"name":"大間風力発電所","fuel":"wind","output":""}},{"type":"Feature","geometry":{"type":"Point","coordinates":[141.42385,41.38178]},"properties":{"name":"ユーラス岩屋ウインドファーム","fuel":"wind","output":""}},{"type":"Feature","geometry":{"type":"Point","coordinates":[141.42949,41.37567]},"properties":{"name":"ユーラス尻労ウインドファーム","fuel":"wind","output":""}},{"type":"Feature","geometry":{"type":"Point","coordinates":[141.42304,41.3673]},"properties":{"name":"ユーラスヒッツ北野沢クリフ風力発電所","fuel":"wind","output":""}},{"type":"Feature","geometry":{"type":"Point","coordinates":[140.26843,42.30104]},"properties":{"name":"ソフトバンク 八雲ソーラーパーク","fuel":"solar","output":""}},{"type":"Feature","geometry":{"type":"Point","coordinates":[141.70069,43.17]},"properties":{"name":"岩見沢太陽光発電所","fuel":"solar","output":""}},{"type":"Feature","geometry":{"type":"Point","coordinates":[141.01196,42.32507]},"properties":{"name":"ジェイバリュー信託 太陽光発電所","fuel":"solar","output":""}},{"type":"Feature","geometry":{"type":"Point","coordinates":[141.14499,42.4578]},"properties":{"name":"ニューデジタルケーブル 太陽光発電所","fuel":"solar","output":""}},{"type":"Feature","geometry":{"type":"Point","coordinates":[141.15883,42.47388]},"properties":{"name":"シィメスグループ第2ソーラー発電所","fuel":"solar","output":""}},{"type":"Feature","geometry":{"type":"Point","coordinates":[141.72455,42.66176]},"properties":{"name":"とまこまい勇払メガソーラー発電所","fuel":"solar","output":""}},{"type":"Feature","geometry":{"type":"Point","coordinates":[141.80295,42.76543]},"properties":{"name":"早来北町安平町発電所","fuel":"solar","output":""}},{"type":"Feature","geometry":{"type":"Point","coordinates":[144.48156,43.86828]},"properties":{"name":"小清水町発電所","fuel":"solar","output":""}},{"type":"Feature","geometry":{"type":"Point","coordinates":[144.35396,43.00695]},"properties":{"name":"Nippon Paper Industries Power Generation","fuel":"https://www.nipponpapergroup.com/news/year/2018/news180907004219.html;https://www.gem.wiki/Kushiro_Mill_Npi_power_station","output":""}},{"type":"Feature","geometry":{"type":"Point","coordinates":[143.28916,42.62749]},"properties":{"name":"更別村発電所","fuel":"solar","output":""}},{"type":"Feature","geometry":{"type":"Point","coordinates":[143.48873,42.79767]},"properties":{"name":"茂岩豊頃町発電所","fuel":"solar","output":""}},{"type":"Feature","geometry":{"type":"Point","coordinates":[141.80802,42.7048]},"properties":{"name":"テラスエナジー苫東安平ソーラーパーク2","fuel":"solar","output":""}}]}