{"type":"FeatureCollection","features":[{"type":"Feature","geometry":{"type":"Point","coordinates":[135.8255,34.73956]},"properties":{"name":"木津駅前一丁目木津川市発電所","fuel":"solar","output":""}},{"type":"Feature","geometry":{"type":"Point","coordinates":[136.76563,35.28399]},"properties":{"name":"二子一宮市発電所","fuel":"solar","output":""}},{"type":"Feature","geometry":{"type":"Point","coordinates":[136.76621,35.28366]},"properties":{"name":"二子一宮市発電所","fuel":"solar","output":""}},{"type":"Feature","geometry":{"type":"Point","coordinates":[135.75312,35.08905]},"properties":{"name":"京都市東北部クリーンセンター","fuel":"waste","output":""}},{"type":"Feature","geometry":{"type":"Point","coordinates":[135.82259,34.11309]},"properties":{"name":"奥吉野発電所","fuel":"hydro","output":""}},{"type":"Feature","geometry":{"type":"Point","coordinates":[135.5293,34.69157]},"properties":{"name":"城見変電所","fuel":"Bing,2011-4","output":""}},{"type":"Feature","geometry":{"type":"Point","coordinates":[134.94015,34.54671]},"properties":{"name":"北淡震災記念風力発電所","fuel":"solar","output":""}},{"type":"Feature","geometry":{"type":"Point","coordinates":[136.68875,35.00894]},"properties":{"name":"川越火力発電所","fuel":"gas","output":""}},{"type":"Feature","geometry":{"type":"Point","coordinates":[134.89241,34.74764]},"properties":{"name":"中村稲美町発電所","fuel":"solar","output":""}},{"type":"Feature","geometry":{"type":"Point","coordinates":[135.69647,35.03724]},"properties":{"name":"北部クリーンセンター","fuel":"waste","output":""}},{"type":"Feature","geometry":{"type":"Point","coordinates":[135.9275,33.93401]},"properties":{"name":"小森発電所 (J-POWER Komori Power Station)","fuel":"hydro","output":""}},{"type":"Feature","geometry":{"type":"Point","coordinates":[135.97491,34.04023]},"properties":{"name":"電源開発 池原水力発電所","fuel":"hydro","output":""}},{"type":"Feature","geometry":{"type":"Point","coordinates":[135.04308,35.25503]},"properties":{"name":"青垣町東芦田丹波市発電所","fuel":"solar","output":""}},{"type":"Feature","geometry":{"type":"Point","coordinates":[135.78842,35.01005]},"properties":{"name":"蹴上発電所","fuel":"hydro","output":""}},{"type":"Feature","geometry":{"type":"Point","coordinates":[136.76743,35.28501]},"properties":{"name":"萩原町富田方一宮市発電所","fuel":"solar","output":""}},{"type":"Feature","geometry":{"type":"Point","coordinates":[134.66824,34.77469]},"properties":{"name":"姫路第一発電所","fuel":"gas","output":""}},{"type":"Feature","geometry":{"type":"Point","coordinates":[134.69173,34.7738]},"properties":{"name":"姫路第二発電所","fuel":"gas","output":""}},{"type":"Feature","geometry":{"type":"Point","coordinates":[135.99606,34.12042]},"properties":{"name":"白川発電所","fuel":"hydro","output":""}},{"type":"Feature","geometry":{"type":"Point","coordinates":[135.76674,34.94562]},"properties":{"name":"旧伏見発電所本館","fuel":"hydro","output":""}},{"type":"Feature","geometry":{"type":"Point","coordinates":[136.66856,35.46712]},"properties":{"name":"長屋本巣市発電所","fuel":"solar","output":""}},{"type":"Feature","geometry":{"type":"Point","coordinates":[136.64128,35.37286]},"properties":{"name":"今宿六丁目大垣市発電所","fuel":"","output":""}},{"type":"Feature","geometry":{"type":"Point","coordinates":[136.6786,35.38982]},"properties":{"name":"野田新田瑞穂市発電所","fuel":"","output":""}},{"type":"Feature","geometry":{"type":"Point","coordinates":[136.67707,35.38967]},"properties":{"name":"野田新田瑞穂市発電所","fuel":"","output":""}},{"type":"Feature","geometry":{"type":"Point","coordinates":[136.67663,35.38898]},"properties":{"name":"野田新田瑞穂市発電所","fuel":"","output":""}},{"type":"Feature","geometry":{"type":"Point","coordinates":[136.68054,35.39092]},"properties":{"name":"野田新田瑞穂市発電所","fuel":"solar","output":""}},{"type":"Feature","geometry":{"type":"Point","coordinates":[135.82547,34.88252]},"properties":{"name":"旧志津川発電所","fuel":"hydro","output":""}},{"type":"Feature","geometry":{"type":"Point","coordinates":[135.21061,34.66094]},"properties":{"name":"港島クリーンセンター","fuel":"gas","output":""}},{"type":"Feature","geometry":{"type":"Point","coordinates":[134.90201,34.42287]},"properties":{"name":"志筑新島淡路市発電所","fuel":"solar","output":""}},{"type":"Feature","geometry":{"type":"Point","coordinates":[134.90354,34.42406]},"properties":{"name":"志筑新島淡路市発電所","fuel":"solar","output":""}},{"type":"Feature","geometry":{"type":"Point","coordinates":[135.79416,34.53612]},"properties":{"name":"多田原本町発電所","fuel":"","output":""}},{"type":"Feature","geometry":{"type":"Point","coordinates":[135.79477,34.52765]},"properties":{"name":"上品寺町橿原市発電所","fuel":"","output":""}},{"type":"Feature","geometry":{"type":"Point","coordinates":[135.77349,34.82711]},"properties":{"name":"田辺勇田京田辺市発電所","fuel":"","output":""}},{"type":"Feature","geometry":{"type":"Point","coordinates":[135.81165,34.51229]},"properties":{"name":"山之坊町橿原市発電所","fuel":"","output":""}},{"type":"Feature","geometry":{"type":"Point","coordinates":[136.07045,34.59768]},"properties":{"name":"赤目町丈六名張市発電所","fuel":"","output":""}},{"type":"Feature","geometry":{"type":"Point","coordinates":[136.40561,34.65558]},"properties":{"name":"一志町石橋津市発電所","fuel":"","output":""}},{"type":"Feature","geometry":{"type":"Point","coordinates":[136.51146,34.60454]},"properties":{"name":"市場庄町松阪市発電所","fuel":"","output":""}},{"type":"Feature","geometry":{"type":"Point","coordinates":[136.51326,34.60293]},"properties":{"name":"市場庄町松阪市発電所","fuel":"","output":""}},{"type":"Feature","geometry":{"type":"Point","coordinates":[136.66582,34.52309]},"properties":{"name":"野村町伊勢市発電所","fuel":"solar","output":""}},{"type":"Feature","geometry":{"type":"Point","coordinates":[136.6694,34.52168]},"properties":{"name":"小俣町明野伊勢市発電所","fuel":"","output":""}},{"type":"Feature","geometry":{"type":"Point","coordinates":[136.74192,34.49669]},"properties":{"name":"伊勢保健衛生専門学校","fuel":"solar","output":""}},{"type":"Feature","geometry":{"type":"Point","coordinates":[136.52223,34.59167]},"properties":{"name":"船江町松阪市発電所","fuel":"solar","output":""}},{"type":"Feature","geometry":{"type":"Point","coordinates":[136.51322,34.60208]},"properties":{"name":"関西_34.6021_136.5132","fuel":"","output":""}},{"type":"Feature","geometry":{"type":"Point","coordinates":[136.51271,34.67686]},"properties":{"name":"高茶屋二丁目津市発電所","fuel":"","output":""}},{"type":"Feature","geometry":{"type":"Point","coordinates":[136.51294,34.67585]},"properties":{"name":"高茶屋二丁目津市発電所","fuel":"","output":""}},{"type":"Feature","geometry":{"type":"Point","coordinates":[136.50682,34.62998]},"properties":{"name":"嬉野小村町松阪市発電所","fuel":"","output":""}},{"type":"Feature","geometry":{"type":"Point","coordinates":[136.50806,34.62194]},"properties":{"name":"三雲町南幼児園","fuel":"solar","output":""}},{"type":"Feature","geometry":{"type":"Point","coordinates":[136.50833,34.60993]},"properties":{"name":"三雲町南幼児園","fuel":"","output":""}},{"type":"Feature","geometry":{"type":"Point","coordinates":[136.4805,34.61881]},"properties":{"name":"嬉野権現前町松阪市発電所","fuel":"","output":""}},{"type":"Feature","geometry":{"type":"Point","coordinates":[136.44693,34.64719]},"properties":{"name":"一志町八太津市発電所","fuel":"","output":""}},{"type":"Feature","geometry":{"type":"Point","coordinates":[136.41697,34.64416]},"properties":{"name":"一志町井関津市発電所","fuel":"","output":""}},{"type":"Feature","geometry":{"type":"Point","coordinates":[136.41672,34.64394]},"properties":{"name":"一志町井関津市発電所","fuel":"","output":""}},{"type":"Feature","geometry":{"type":"Point","coordinates":[136.34234,34.64016]},"properties":{"name":"津市発電所","fuel":"","output":""}},{"type":"Feature","geometry":{"type":"Point","coordinates":[136.3098,34.60044]},"properties":{"name":"竹原水力発電所","fuel":"solar","output":""}},{"type":"Feature","geometry":{"type":"Point","coordinates":[136.26345,34.51285]},"properties":{"name":"美杉町奥津津市発電所","fuel":"","output":""}},{"type":"Feature","geometry":{"type":"Point","coordinates":[136.30828,34.59924]},"properties":{"name":"竹原水力発電所","fuel":"solar","output":""}},{"type":"Feature","geometry":{"type":"Point","coordinates":[136.59905,34.84224]},"properties":{"name":"北江島町鈴鹿市発電所","fuel":"","output":""}},{"type":"Feature","geometry":{"type":"Point","coordinates":[136.53204,35.00099]},"properties":{"name":"朝日ガスエナジー株式会社","fuel":"","output":""}},{"type":"Feature","geometry":{"type":"Point","coordinates":[136.48497,35.01306]},"properties":{"name":"大羽根園青葉町菰野町発電所","fuel":"","output":""}},{"type":"Feature","geometry":{"type":"Point","coordinates":[136.48599,35.01278]},"properties":{"name":"大羽根園呉竹町菰野町発電所","fuel":"","output":""}},{"type":"Feature","geometry":{"type":"Point","coordinates":[136.531,35.00256]},"properties":{"name":"朝日ガスエナジー株式会社","fuel":"","output":""}},{"type":"Feature","geometry":{"type":"Point","coordinates":[136.55226,34.98707]},"properties":{"name":"智積町四日市市発電所","fuel":"","output":""}},{"type":"Feature","geometry":{"type":"Point","coordinates":[136.6012,34.9558]},"properties":{"name":"日永西一丁目四日市市発電所","fuel":"solar","output":""}},{"type":"Feature","geometry":{"type":"Point","coordinates":[136.76962,35.2862]},"properties":{"name":"苅安賀一丁目一宮市発電所","fuel":"solar","output":""}},{"type":"Feature","geometry":{"type":"Point","coordinates":[136.589,34.92679]},"properties":{"name":"小古曽三丁目四日市市発電所","fuel":"solar","output":""}},{"type":"Feature","geometry":{"type":"Point","coordinates":[136.66636,35.02569]},"properties":{"name":"川越町立川越南小学校","fuel":"solar","output":""}},{"type":"Feature","geometry":{"type":"Point","coordinates":[134.74602,34.85454]},"properties":{"name":"飾東町豊国姫路市発電所","fuel":"solar","output":""}},{"type":"Feature","geometry":{"type":"Point","coordinates":[136.01997,35.75198]},"properties":{"name":"敦賀原子力発電所","fuel":"nuclear","output":""}},{"type":"Feature","geometry":{"type":"Point","coordinates":[135.50398,35.52297]},"properties":{"name":"高浜原子力発電所","fuel":"nuclear","output":""}},{"type":"Feature","geometry":{"type":"Point","coordinates":[135.2403,34.70325]},"properties":{"name":"神鋼神戸発電所","fuel":"coal","output":""}},{"type":"Feature","geometry":{"type":"Point","coordinates":[136.58153,34.81886]},"properties":{"name":"寺家太陽光発電所","fuel":"solar","output":""}},{"type":"Feature","geometry":{"type":"Point","coordinates":[134.75068,34.77959]},"properties":{"name":"高砂市発電所","fuel":"solar","output":""}},{"type":"Feature","geometry":{"type":"Point","coordinates":[134.75748,34.77352]},"properties":{"name":"大塩町宮前姫路市発電所","fuel":"solar","output":""}},{"type":"Feature","geometry":{"type":"Point","coordinates":[134.75806,34.77531]},"properties":{"name":"大塩町宮前姫路市発電所","fuel":"solar","output":""}},{"type":"Feature","geometry":{"type":"Point","coordinates":[134.75638,34.77556]},"properties":{"name":"大塩町宮前姫路市発電所","fuel":"solar","output":""}},{"type":"Feature","geometry":{"type":"Point","coordinates":[135.15104,33.85954]},"properties":{"name":"御坊火力発電所","fuel":"oil","output":""}},{"type":"Feature","geometry":{"type":"Point","coordinates":[135.29756,33.95756]},"properties":{"name":"関西電力 新高津尾水力発電所","fuel":"hydro","output":""}},{"type":"Feature","geometry":{"type":"Point","coordinates":[135.50603,35.08295]},"properties":{"name":"八木町玉ノ井南丹市発電所","fuel":"","output":""}},{"type":"Feature","geometry":{"type":"Point","coordinates":[135.43806,35.20714]},"properties":{"name":"京丹波町発電所","fuel":"","output":""}},{"type":"Feature","geometry":{"type":"Point","coordinates":[135.41662,35.21921]},"properties":{"name":"京丹波町発電所","fuel":"","output":""}},{"type":"Feature","geometry":{"type":"Point","coordinates":[135.22049,35.30518]},"properties":{"name":"大島町綾部市発電所","fuel":"","output":""}},{"type":"Feature","geometry":{"type":"Point","coordinates":[135.28939,35.46178]},"properties":{"name":"下東舞鶴市発電所","fuel":"solar","output":""}},{"type":"Feature","geometry":{"type":"Point","coordinates":[135.28868,35.46135]},"properties":{"name":"下東舞鶴市発電所","fuel":"solar","output":""}},{"type":"Feature","geometry":{"type":"Point","coordinates":[135.28141,35.51472]},"properties":{"name":"由良宮津市発電所","fuel":"solar","output":""}},{"type":"Feature","geometry":{"type":"Point","coordinates":[135.28273,35.51342]},"properties":{"name":"由良宮津市発電所","fuel":"solar","output":""}},{"type":"Feature","geometry":{"type":"Point","coordinates":[135.21407,34.42919]},"properties":{"name":"泉州空港南泉南市発電所","fuel":"solar","output":""}},{"type":"Feature","geometry":{"type":"Point","coordinates":[135.99543,34.76867]},"properties":{"name":"大河原発電所","fuel":"hydro","output":""}},{"type":"Feature","geometry":{"type":"Point","coordinates":[136.15594,34.74051]},"properties":{"name":"伊賀市立友生小学校","fuel":"solar","output":""}},{"type":"Feature","geometry":{"type":"Point","coordinates":[136.1542,34.73889]},"properties":{"name":"伊賀市立友生小学校","fuel":"solar","output":""}},{"type":"Feature","geometry":{"type":"Point","coordinates":[135.33932,34.05584]},"properties":{"name":"関西電力 岩倉水力発電所","fuel":"hydro","output":""}},{"type":"Feature","geometry":{"type":"Point","coordinates":[135.41037,34.09261]},"properties":{"name":"関西電力 三田水力発電所","fuel":"hydro","output":""}},{"type":"Feature","geometry":{"type":"Point","coordinates":[135.9109,35.00566]},"properties":{"name":"矢橋帰帆島メガソーラー発電所","fuel":"solar","output":""}},{"type":"Feature","geometry":{"type":"Point","coordinates":[135.09952,34.08864]},"properties":{"name":"関西電力 有田太陽光発電所","fuel":"solar","output":""}},{"type":"Feature","geometry":{"type":"Point","coordinates":[136.08828,34.78691]},"properties":{"name":"伊賀市発電所","fuel":"solar","output":""}},{"type":"Feature","geometry":{"type":"Point","coordinates":[134.84503,34.33839]},"properties":{"name":"上内膳洲本市発電所","fuel":"solar","output":""}},{"type":"Feature","geometry":{"type":"Point","coordinates":[135.86284,34.23868]},"properties":{"name":"関西電力川合発電所","fuel":"hydro","output":""}},{"type":"Feature","geometry":{"type":"Point","coordinates":[135.82252,34.19619]},"properties":{"name":"関西電力和田発電所","fuel":"hydro","output":""}},{"type":"Feature","geometry":{"type":"Point","coordinates":[136.13322,34.78368]},"properties":{"name":"服部町伊賀市発電所","fuel":"solar","output":""}},{"type":"Feature","geometry":{"type":"Point","coordinates":[136.73747,35.4569]},"properties":{"name":"岐阜大学","fuel":"solar","output":""}},{"type":"Feature","geometry":{"type":"Point","coordinates":[136.72381,35.47662]},"properties":{"name":"深坂一丁目岐阜市発電所","fuel":"solar","output":""}},{"type":"Feature","geometry":{"type":"Point","coordinates":[135.38065,34.65544]},"properties":{"name":"大阪ひかりの森","fuel":"solar","output":""}},{"type":"Feature","geometry":{"type":"Point","coordinates":[136.70832,35.4769]},"properties":{"name":"御望岐阜市発電所","fuel":"solar","output":""}},{"type":"Feature","geometry":{"type":"Point","coordinates":[136.69925,35.48114]},"properties":{"name":"上西郷九丁目岐阜市発電所","fuel":"solar","output":""}},{"type":"Feature","geometry":{"type":"Point","coordinates":[136.69844,35.476]},"properties":{"name":"上西郷一丁目岐阜市発電所","fuel":"solar","output":""}},{"type":"Feature","geometry":{"type":"Point","coordinates":[136.69354,35.48427]},"properties":{"name":"本巣市発電所","fuel":"solar","output":""}},{"type":"Feature","geometry":{"type":"Point","coordinates":[136.69231,35.48619]},"properties":{"name":"本巣市発電所","fuel":"solar","output":""}},{"type":"Feature","geometry":{"type":"Point","coordinates":[136.69197,35.48661]},"properties":{"name":"本巣市発電所","fuel":"solar","output":""}},{"type":"Feature","geometry":{"type":"Point","coordinates":[136.69199,35.48576]},"properties":{"name":"本巣市発電所","fuel":"solar","output":""}},{"type":"Feature","geometry":{"type":"Point","coordinates":[136.67176,35.48568]},"properties":{"name":"本巣市立本巣中学校","fuel":"solar","output":""}},{"type":"Feature","geometry":{"type":"Point","coordinates":[135.15067,34.18704]},"properties":{"name":"田野和歌山市発電所","fuel":"solar","output":""}},{"type":"Feature","geometry":{"type":"Point","coordinates":[136.69212,35.48725]},"properties":{"name":"本巣市発電所","fuel":"solar","output":""}},{"type":"Feature","geometry":{"type":"Point","coordinates":[136.69071,35.48723]},"properties":{"name":"本巣市発電所","fuel":"solar","output":""}},{"type":"Feature","geometry":{"type":"Point","coordinates":[136.70082,35.50471]},"properties":{"name":"秋沢二丁目岐阜市発電所","fuel":"solar","output":""}},{"type":"Feature","geometry":{"type":"Point","coordinates":[136.68791,35.49764]},"properties":{"name":"本巣市発電所","fuel":"solar","output":""}},{"type":"Feature","geometry":{"type":"Point","coordinates":[136.68558,35.49263]},"properties":{"name":"文殊本巣市発電所","fuel":"solar","output":""}},{"type":"Feature","geometry":{"type":"Point","coordinates":[136.68503,35.48875]},"properties":{"name":"本巣市立本巣中学校","fuel":"solar","output":""}},{"type":"Feature","geometry":{"type":"Point","coordinates":[136.66316,35.50434]},"properties":{"name":"山口本巣市発電所","fuel":"solar","output":""}},{"type":"Feature","geometry":{"type":"Point","coordinates":[136.66296,35.50133]},"properties":{"name":"山口本巣市発電所","fuel":"solar","output":""}},{"type":"Feature","geometry":{"type":"Point","coordinates":[136.66079,35.4614]},"properties":{"name":"随原本巣市発電所","fuel":"solar","output":""}},{"type":"Feature","geometry":{"type":"Point","coordinates":[136.72409,35.52523]},"properties":{"name":"小倉山県市発電所","fuel":"solar","output":""}},{"type":"Feature","geometry":{"type":"Point","coordinates":[136.72693,35.52754]},"properties":{"name":"小倉山県市発電所","fuel":"solar","output":""}},{"type":"Feature","geometry":{"type":"Point","coordinates":[136.72543,35.53254]},"properties":{"name":"洞田山県市発電所","fuel":"solar","output":""}},{"type":"Feature","geometry":{"type":"Point","coordinates":[136.73448,35.522]},"properties":{"name":"大森山県市発電所","fuel":"solar","output":""}},{"type":"Feature","geometry":{"type":"Point","coordinates":[136.74676,35.51576]},"properties":{"name":"山県市発電所","fuel":"solar","output":""}},{"type":"Feature","geometry":{"type":"Point","coordinates":[136.73969,35.51566]},"properties":{"name":"梅原山県市発電所","fuel":"solar","output":""}},{"type":"Feature","geometry":{"type":"Point","coordinates":[135.38031,34.67975]},"properties":{"name":"エコひょうご尼崎発電所","fuel":"solar","output":""}},{"type":"Feature","geometry":{"type":"Point","coordinates":[135.4059,34.61765]},"properties":{"name":"南港火力発電所","fuel":"gas","output":""}},{"type":"Feature","geometry":{"type":"Point","coordinates":[136.64823,35.45534]},"properties":{"name":"本巣市発電所","fuel":"solar","output":""}},{"type":"Feature","geometry":{"type":"Point","coordinates":[135.4102,34.58264]},"properties":{"name":"堺太陽光発電所","fuel":"solar","output":""}},{"type":"Feature","geometry":{"type":"Point","coordinates":[135.65475,35.54109]},"properties":{"name":"大飯原子力発電所","fuel":"nuclear","output":""}},{"type":"Feature","geometry":{"type":"Point","coordinates":[134.76638,34.75367]},"properties":{"name":"高砂火力発電所","fuel":"coal","output":""}},{"type":"Feature","geometry":{"type":"Point","coordinates":[134.65294,33.85754]},"properties":{"name":"橘湾火力発電所","fuel":"coal","output":""}},{"type":"Feature","geometry":{"type":"Point","coordinates":[134.65566,33.86435]},"properties":{"name":"橘湾発電所","fuel":"coal","output":""}},{"type":"Feature","geometry":{"type":"Point","coordinates":[135.34298,35.52754]},"properties":{"name":"舞鶴火力発電所","fuel":"coal","output":""}},{"type":"Feature","geometry":{"type":"Point","coordinates":[135.96171,35.70362]},"properties":{"name":"美浜原子力発電所","fuel":"nuclear","output":""}},{"type":"Feature","geometry":{"type":"Point","coordinates":[136.01688,35.75467]},"properties":{"name":"ふげん","fuel":"nuclear","output":""}},{"type":"Feature","geometry":{"type":"Point","coordinates":[136.00546,35.7529]},"properties":{"name":"敦賀原子力発電所","fuel":"nuclear","output":""}},{"type":"Feature","geometry":{"type":"Point","coordinates":[136.08,35.6723]},"properties":{"name":"敦賀火力発電所","fuel":"coal","output":""}},{"type":"Feature","geometry":{"type":"Point","coordinates":[135.44015,34.56913]},"properties":{"name":"堺港火力発電所","fuel":"gas","output":""}},{"type":"Feature","geometry":{"type":"Point","coordinates":[134.6535,33.87823]},"properties":{"name":"阿南火力発電所","fuel":"oil","output":""}},{"type":"Feature","geometry":{"type":"Point","coordinates":[135.81188,34.89092]},"properties":{"name":"宇治発電所","fuel":"hydro","output":""}},{"type":"Feature","geometry":{"type":"Point","coordinates":[135.07939,34.74751]},"properties":{"name":"神鉄見津太陽光発電所","fuel":"solar","output":""}},{"type":"Feature","geometry":{"type":"Point","coordinates":[136.64654,34.97451]},"properties":{"name":"四日市火力発電所","fuel":"gas","output":""}},{"type":"Feature","geometry":{"type":"Point","coordinates":[136.76763,35.28171]},"properties":{"name":"二子一宮市発電所","fuel":"solar","output":""}},{"type":"Feature","geometry":{"type":"Point","coordinates":[135.40341,34.54216]},"properties":{"name":"泉北天然ガス発電所","fuel":"gas","output":""}},{"type":"Feature","geometry":{"type":"Point","coordinates":[135.91798,34.37526]},"properties":{"name":"樫尾発電所","fuel":"hydro","output":""}},{"type":"Feature","geometry":{"type":"Point","coordinates":[135.8746,34.38823]},"properties":{"name":"吉野発電所","fuel":"hydro","output":""}},{"type":"Feature","geometry":{"type":"Point","coordinates":[136.77917,35.28954]},"properties":{"name":"苅安賀一丁目一宮市発電所","fuel":"","output":""}},{"type":"Feature","geometry":{"type":"Point","coordinates":[136.53617,34.80698]},"properties":{"name":"津メガソーラー杜の街","fuel":"solar","output":""}},{"type":"Feature","geometry":{"type":"Point","coordinates":[136.54134,34.80458]},"properties":{"name":"津市発電所","fuel":"solar","output":""}},{"type":"Feature","geometry":{"type":"Point","coordinates":[136.54005,34.80716]},"properties":{"name":"津市発電所","fuel":"solar","output":""}},{"type":"Feature","geometry":{"type":"Point","coordinates":[136.66428,34.53641]},"properties":{"name":"伊勢市発電所","fuel":"solar","output":""}},{"type":"Feature","geometry":{"type":"Point","coordinates":[136.66217,34.53624]},"properties":{"name":"伊勢市発電所","fuel":"solar","output":""}},{"type":"Feature","geometry":{"type":"Point","coordinates":[135.74109,34.28779]},"properties":{"name":"西吉野第一発電所","fuel":"hydro","output":""}},{"type":"Feature","geometry":{"type":"Point","coordinates":[136.53753,34.81689]},"properties":{"name":"郡山町鈴鹿市発電所","fuel":"","output":""}},{"type":"Feature","geometry":{"type":"Point","coordinates":[135.14149,34.27901]},"properties":{"name":"太陽光発電","fuel":"solar","output":""}},{"type":"Feature","geometry":{"type":"Point","coordinates":[136.75448,35.04056]},"properties":{"name":"新輪一丁目木曽岬町発電所","fuel":"solar","output":""}},{"type":"Feature","geometry":{"type":"Point","coordinates":[134.75743,35.46556]},"properties":{"name":"日高町豊岡市発電所","fuel":"","output":""}},{"type":"Feature","geometry":{"type":"Point","coordinates":[134.78543,35.47293]},"properties":{"name":"日高町豊岡市発電所","fuel":"","output":""}},{"type":"Feature","geometry":{"type":"Point","coordinates":[134.60113,35.064]},"properties":{"name":"山崎町母栖宍粟市発電所","fuel":"solar","output":""}},{"type":"Feature","geometry":{"type":"Point","coordinates":[135.65814,35.04083]},"properties":{"name":"清滝発電所","fuel":"","output":""}},{"type":"Feature","geometry":{"type":"Point","coordinates":[135.08323,34.29219]},"properties":{"name":"太陽光発電所","fuel":"solar","output":""}},{"type":"Feature","geometry":{"type":"Point","coordinates":[136.21843,34.83073]},"properties":{"name":"楯岡伊賀市発電所","fuel":"solar","output":""}},{"type":"Feature","geometry":{"type":"Point","coordinates":[134.86998,34.76876]},"properties":{"name":"神野町石守三丁目加古川市発電所","fuel":"solar","output":""}},{"type":"Feature","geometry":{"type":"Point","coordinates":[136.13842,34.75339]},"properties":{"name":"伊賀市立久米小学校","fuel":"","output":""}},{"type":"Feature","geometry":{"type":"Point","coordinates":[136.13925,34.7533]},"properties":{"name":"伊賀市立久米小学校","fuel":"","output":""}},{"type":"Feature","geometry":{"type":"Point","coordinates":[136.14826,35.1125]},"properties":{"name":"ソーラー発電","fuel":"solar","output":""}},{"type":"Feature","geometry":{"type":"Point","coordinates":[136.15034,35.11384]},"properties":{"name":"武佐近江八幡市発電所","fuel":"","output":""}},{"type":"Feature","geometry":{"type":"Point","coordinates":[136.15025,35.11329]},"properties":{"name":"武佐近江八幡市発電所","fuel":"","output":""}},{"type":"Feature","geometry":{"type":"Point","coordinates":[136.14974,35.11388]},"properties":{"name":"武佐近江八幡市発電所","fuel":"","output":""}},{"type":"Feature","geometry":{"type":"Point","coordinates":[136.13944,35.10777]},"properties":{"name":"武佐近江八幡市発電所","fuel":"solar","output":""}},{"type":"Feature","geometry":{"type":"Point","coordinates":[135.83542,35.12707]},"properties":{"name":"大原勝林院町京都市発電所","fuel":"solar","output":""}},{"type":"Feature","geometry":{"type":"Point","coordinates":[134.92321,34.47381]},"properties":{"name":"ユーラス津名東ソーラーパーク","fuel":"solar","output":""}},{"type":"Feature","geometry":{"type":"Point","coordinates":[135.35405,34.42156]},"properties":{"name":"王子貝塚市発電所","fuel":"","output":""}},{"type":"Feature","geometry":{"type":"Point","coordinates":[136.54539,34.80757]},"properties":{"name":"河芸町千里ヶ丘津市発電所","fuel":"solar","output":""}},{"type":"Feature","geometry":{"type":"Point","coordinates":[135.16011,34.64803]},"properties":{"name":"神戸市環境局 苅藻島クリーンセンター","fuel":"waste","output":""}},{"type":"Feature","geometry":{"type":"Point","coordinates":[136.66393,34.97996]},"properties":{"name":"コスモ石油 四日市霞発電所","fuel":"oil","output":""}},{"type":"Feature","geometry":{"type":"Point","coordinates":[136.55228,34.49062]},"properties":{"name":"ふるさと交流館たき","fuel":"","output":""}},{"type":"Feature","geometry":{"type":"Point","coordinates":[135.47928,34.42937]},"properties":{"name":"和泉市発電所","fuel":"solar","output":""}},{"type":"Feature","geometry":{"type":"Point","coordinates":[136.26344,35.29031]},"properties":{"name":"彦根彦根市発電所","fuel":"solar","output":""}},{"type":"Feature","geometry":{"type":"Point","coordinates":[135.31114,34.29521]},"properties":{"name":"押川岩出市発電所","fuel":"solar","output":""}},{"type":"Feature","geometry":{"type":"Point","coordinates":[134.69363,35.12525]},"properties":{"name":"神河町発電所","fuel":"solar","output":""}},{"type":"Feature","geometry":{"type":"Point","coordinates":[136.09389,34.72302]},"properties":{"name":"伊賀市発電所","fuel":"solar","output":""}},{"type":"Feature","geometry":{"type":"Point","coordinates":[134.73302,34.19517]},"properties":{"name":"南淡風力発電施設","fuel":"solar","output":""}},{"type":"Feature","geometry":{"type":"Point","coordinates":[134.73504,34.19644]},"properties":{"name":"南淡風力発電施設","fuel":"solar","output":""}},{"type":"Feature","geometry":{"type":"Point","coordinates":[134.94828,34.28497]},"properties":{"name":"由良一丁目洲本市発電所","fuel":"solar","output":""}},{"type":"Feature","geometry":{"type":"Point","coordinates":[135.13279,34.29342]},"properties":{"name":"岬町発電所","fuel":"solar","output":""}},{"type":"Feature","geometry":{"type":"Point","coordinates":[135.12939,34.29324]},"properties":{"name":"多奈川東畑岬町発電所","fuel":"solar","output":""}},{"type":"Feature","geometry":{"type":"Point","coordinates":[135.12776,34.29926]},"properties":{"name":"多奈川東畑岬町発電所","fuel":"solar","output":""}},{"type":"Feature","geometry":{"type":"Point","coordinates":[134.83715,34.32877]},"properties":{"name":"株式会社玉岡屋","fuel":"solar","output":""}},{"type":"Feature","geometry":{"type":"Point","coordinates":[135.28365,35.32823]},"properties":{"name":"とよさか町綾部市発電所","fuel":"","output":""}},{"type":"Feature","geometry":{"type":"Point","coordinates":[136.24259,35.26678]},"properties":{"name":"彦根彦根市発電所","fuel":"solar","output":""}},{"type":"Feature","geometry":{"type":"Point","coordinates":[136.24185,35.26665]},"properties":{"name":"彦根彦根市発電所","fuel":"solar","output":""}},{"type":"Feature","geometry":{"type":"Point","coordinates":[136.14324,34.667]},"properties":{"name":"朝日ケ丘町伊賀市発電所","fuel":"solar","output":""}},{"type":"Feature","geometry":{"type":"Point","coordinates":[135.37305,34.5179]},"properties":{"name":"夕凪町泉大津市発電所","fuel":"solar","output":""}},{"type":"Feature","geometry":{"type":"Point","coordinates":[136.12388,34.71935]},"properties":{"name":"山出伊賀市発電所","fuel":"solar","output":""}},{"type":"Feature","geometry":{"type":"Point","coordinates":[134.9761,34.58657]},"properties":{"name":"野島貴船淡路市発電所","fuel":"solar","output":""}},{"type":"Feature","geometry":{"type":"Point","coordinates":[134.99536,34.54797]},"properties":{"name":"浜淡路市発電所","fuel":"solar","output":""}},{"type":"Feature","geometry":{"type":"Point","coordinates":[134.99572,34.54749]},"properties":{"name":"浜淡路市発電所","fuel":"solar","output":""}},{"type":"Feature","geometry":{"type":"Point","coordinates":[134.99657,34.54705]},"properties":{"name":"浜淡路市発電所","fuel":"solar","output":""}},{"type":"Feature","geometry":{"type":"Point","coordinates":[134.99749,34.54647]},"properties":{"name":"浜淡路市発電所","fuel":"solar","output":""}},{"type":"Feature","geometry":{"type":"Point","coordinates":[134.99644,34.54591]},"properties":{"name":"浜淡路市発電所","fuel":"solar","output":""}},{"type":"Feature","geometry":{"type":"Point","coordinates":[136.51702,34.53573]},"properties":{"name":"広陽町松阪市発電所","fuel":"solar","output":""}},{"type":"Feature","geometry":{"type":"Point","coordinates":[135.71658,34.92104]},"properties":{"name":"樋爪町京都市発電所","fuel":"solar","output":""}},{"type":"Feature","geometry":{"type":"Point","coordinates":[136.09846,34.7876]},"properties":{"name":"伊賀市発電所","fuel":"solar","output":""}},{"type":"Feature","geometry":{"type":"Point","coordinates":[136.12019,34.78727]},"properties":{"name":"東高倉伊賀市発電所","fuel":"solar","output":""}},{"type":"Feature","geometry":{"type":"Point","coordinates":[136.09888,34.78108]},"properties":{"name":"岩倉伊賀市発電所","fuel":"solar","output":""}},{"type":"Feature","geometry":{"type":"Point","coordinates":[136.10941,34.7844]},"properties":{"name":"東高倉伊賀市発電所","fuel":"solar","output":""}},{"type":"Feature","geometry":{"type":"Point","coordinates":[136.11483,34.78659]},"properties":{"name":"東高倉伊賀市発電所","fuel":"solar","output":""}},{"type":"Feature","geometry":{"type":"Point","coordinates":[136.11664,34.78665]},"properties":{"name":"東高倉伊賀市発電所","fuel":"solar","output":""}},{"type":"Feature","geometry":{"type":"Point","coordinates":[136.1164,34.78782]},"properties":{"name":"東高倉伊賀市発電所","fuel":"solar","output":""}},{"type":"Feature","geometry":{"type":"Point","coordinates":[136.10724,34.78449]},"properties":{"name":"東高倉伊賀市発電所","fuel":"solar","output":""}},{"type":"Feature","geometry":{"type":"Point","coordinates":[136.21864,34.78549]},"properties":{"name":"希望ヶ丘西一丁目伊賀市発電所","fuel":"solar","output":""}},{"type":"Feature","geometry":{"type":"Point","coordinates":[136.22022,34.79941]},"properties":{"name":"奥地建産株式会社","fuel":"solar","output":""}},{"type":"Feature","geometry":{"type":"Point","coordinates":[136.22202,34.79803]},"properties":{"name":"奥地建産株式会社","fuel":"solar","output":""}},{"type":"Feature","geometry":{"type":"Point","coordinates":[136.22295,34.7993]},"properties":{"name":"奥地建産株式会社","fuel":"solar","output":""}},{"type":"Feature","geometry":{"type":"Point","coordinates":[136.18234,34.79861]},"properties":{"name":"西之澤伊賀市発電所","fuel":"solar","output":""}},{"type":"Feature","geometry":{"type":"Point","coordinates":[136.18374,34.79987]},"properties":{"name":"西之澤伊賀市発電所","fuel":"solar","output":""}},{"type":"Feature","geometry":{"type":"Point","coordinates":[135.98529,35.73909]},"properties":{"name":"もんじゅ","fuel":"nuclear","output":""}},{"type":"Feature","geometry":{"type":"Point","coordinates":[135.95588,35.04348]},"properties":{"name":"新堂町草津市発電所","fuel":"solar","output":""}},{"type":"Feature","geometry":{"type":"Point","coordinates":[134.85488,34.32918]},"properties":{"name":"大野洲本市発電所","fuel":"solar","output":""}},{"type":"Feature","geometry":{"type":"Point","coordinates":[136.28659,34.94024]},"properties":{"name":"土山町甲賀市発電所","fuel":"solar","output":""}},{"type":"Feature","geometry":{"type":"Point","coordinates":[134.77227,35.46647]},"properties":{"name":"日高町豊岡市発電所","fuel":"solar","output":""}},{"type":"Feature","geometry":{"type":"Point","coordinates":[134.95462,34.74214]},"properties":{"name":"稲美町発電所","fuel":"solar","output":""}},{"type":"Feature","geometry":{"type":"Point","coordinates":[135.6884,34.71115]},"properties":{"name":"生駒市立俵口小学校","fuel":"solar","output":""}},{"type":"Feature","geometry":{"type":"Point","coordinates":[135.95595,35.05044]},"properties":{"name":"上寺町草津市発電所","fuel":"solar","output":""}},{"type":"Feature","geometry":{"type":"Point","coordinates":[135.92467,35.01313]},"properties":{"name":"矢橋町草津市発電所","fuel":"solar","output":""}},{"type":"Feature","geometry":{"type":"Point","coordinates":[135.92907,35.0065]},"properties":{"name":"矢橋町草津市発電所","fuel":"solar","output":""}},{"type":"Feature","geometry":{"type":"Point","coordinates":[135.28056,35.51579]},"properties":{"name":"由良宮津市発電所","fuel":"solar","output":""}},{"type":"Feature","geometry":{"type":"Point","coordinates":[135.27821,35.51563]},"properties":{"name":"由良宮津市発電所","fuel":"solar","output":""}},{"type":"Feature","geometry":{"type":"Point","coordinates":[135.91481,34.59912]},"properties":{"name":"天理市発電所","fuel":"solar","output":""}},{"type":"Feature","geometry":{"type":"Point","coordinates":[135.91608,34.60578]},"properties":{"name":"福住町天理市発電所","fuel":"solar","output":""}},{"type":"Feature","geometry":{"type":"Point","coordinates":[135.91301,34.60234]},"properties":{"name":"都祁相河町天理市発電所","fuel":"solar","output":""}},{"type":"Feature","geometry":{"type":"Point","coordinates":[135.91297,34.60146]},"properties":{"name":"都祁相河町天理市発電所","fuel":"solar","output":""}},{"type":"Feature","geometry":{"type":"Point","coordinates":[135.91889,34.60092]},"properties":{"name":"都祁相河町天理市発電所","fuel":"solar","output":""}},{"type":"Feature","geometry":{"type":"Point","coordinates":[135.91988,34.59813]},"properties":{"name":"天理市発電所","fuel":"solar","output":""}},{"type":"Feature","geometry":{"type":"Point","coordinates":[135.91138,34.59422]},"properties":{"name":"天理市発電所","fuel":"solar","output":""}},{"type":"Feature","geometry":{"type":"Point","coordinates":[135.32135,33.94157]},"properties":{"name":"大字小釜本日高川町発電所","fuel":"solar","output":""}},{"type":"Feature","geometry":{"type":"Point","coordinates":[135.07933,34.7519]},"properties":{"name":"西区神戸市発電所","fuel":"solar","output":""}},{"type":"Feature","geometry":{"type":"Point","coordinates":[135.08529,34.75277]},"properties":{"name":"北区神戸市発電所","fuel":"solar","output":""}},{"type":"Feature","geometry":{"type":"Point","coordinates":[135.01678,34.77165]},"properties":{"name":"志染町広野六丁目三木市発電所","fuel":"solar","output":""}},{"type":"Feature","geometry":{"type":"Point","coordinates":[134.9857,34.77305]},"properties":{"name":"西区三木市発電所","fuel":"solar","output":""}},{"type":"Feature","geometry":{"type":"Point","coordinates":[134.99129,34.7746]},"properties":{"name":"別所町小林三木市発電所","fuel":"solar","output":""}},{"type":"Feature","geometry":{"type":"Point","coordinates":[136.72354,35.04459]},"properties":{"name":"長島町白鶏桑名市発電所","fuel":"solar","output":""}},{"type":"Feature","geometry":{"type":"Point","coordinates":[136.72439,35.04475]},"properties":{"name":"長島町白鶏桑名市発電所","fuel":"solar","output":""}},{"type":"Feature","geometry":{"type":"Point","coordinates":[136.72408,35.0435]},"properties":{"name":"長島町白鶏桑名市発電所","fuel":"solar","output":""}},{"type":"Feature","geometry":{"type":"Point","coordinates":[136.72481,35.04391]},"properties":{"name":"長島町白鶏桑名市発電所","fuel":"solar","output":""}},{"type":"Feature","geometry":{"type":"Point","coordinates":[135.70009,34.74823]},"properties":{"name":"生駒市北田原メガソーラー発電所","fuel":"solar","output":""}},{"type":"Feature","geometry":{"type":"Point","coordinates":[135.71302,34.7445]},"properties":{"name":"ひかりが丘一丁目生駒市発電所","fuel":"solar","output":""}},{"type":"Feature","geometry":{"type":"Point","coordinates":[134.75116,34.7743]},"properties":{"name":"大塩町汐咲三丁目姫路市発電所","fuel":"solar","output":""}},{"type":"Feature","geometry":{"type":"Point","coordinates":[136.66096,35.73568]},"properties":{"name":"奥美濃所内水力発電所","fuel":"hydro","output":""}},{"type":"Feature","geometry":{"type":"Point","coordinates":[134.58946,35.56166]},"properties":{"name":"香美町発電所","fuel":"hydro","output":""}},{"type":"Feature","geometry":{"type":"Point","coordinates":[134.8572,35.23712]},"properties":{"name":"奥多々良木発電所","fuel":"hydro","output":""}},{"type":"Feature","geometry":{"type":"Point","coordinates":[135.62881,34.76416]},"properties":{"name":"本町寝屋川市発電所","fuel":"solar","output":""}},{"type":"Feature","geometry":{"type":"Point","coordinates":[135.62853,34.76418]},"properties":{"name":"本町寝屋川市発電所","fuel":"solar","output":""}},{"type":"Feature","geometry":{"type":"Point","coordinates":[135.61974,35.49229]},"properties":{"name":"犬見おおい町発電所","fuel":"solar","output":""}},{"type":"Feature","geometry":{"type":"Point","coordinates":[135.61813,35.49254]},"properties":{"name":"犬見おおい町発電所","fuel":"solar","output":""}},{"type":"Feature","geometry":{"type":"Point","coordinates":[136.28196,35.28343]},"properties":{"name":"鳥居本彦根市発電所","fuel":"solar","output":""}},{"type":"Feature","geometry":{"type":"Point","coordinates":[135.51796,35.11618]},"properties":{"name":"新庄発電所","fuel":"hydro","output":""}},{"type":"Feature","geometry":{"type":"Point","coordinates":[136.46721,34.96605]},"properties":{"name":"大久保町鈴鹿市発電所","fuel":"solar","output":""}},{"type":"Feature","geometry":{"type":"Point","coordinates":[134.51779,34.01417]},"properties":{"name":"徳島市発電所","fuel":"solar","output":""}},{"type":"Feature","geometry":{"type":"Point","coordinates":[134.67506,34.98755]},"properties":{"name":"夢前メガソーラー発電所","fuel":"solar","output":""}},{"type":"Feature","geometry":{"type":"Point","coordinates":[135.02718,35.67801]},"properties":{"name":"網野町京丹後市発電所","fuel":"solar","output":""}},{"type":"Feature","geometry":{"type":"Point","coordinates":[135.03302,35.67384]},"properties":{"name":"網野町京丹後市発電所","fuel":"solar","output":""}},{"type":"Feature","geometry":{"type":"Point","coordinates":[135.78043,34.74506]},"properties":{"name":"木津川台五丁目木津川市発電所","fuel":"solar","output":""}},{"type":"Feature","geometry":{"type":"Point","coordinates":[135.78014,34.74492]},"properties":{"name":"木津川台五丁目木津川市発電所","fuel":"solar","output":""}},{"type":"Feature","geometry":{"type":"Point","coordinates":[134.85419,34.7472]},"properties":{"name":"野口町古大内加古川市発電所","fuel":"solar","output":""}},{"type":"Feature","geometry":{"type":"Point","coordinates":[136.55079,34.85777]},"properties":{"name":"道伯町鈴鹿市発電所","fuel":"solar","output":""}},{"type":"Feature","geometry":{"type":"Point","coordinates":[136.53,34.85054]},"properties":{"name":"住吉町鈴鹿市発電所","fuel":"solar","output":""}},{"type":"Feature","geometry":{"type":"Point","coordinates":[136.52935,34.84956]},"properties":{"name":"住吉町鈴鹿市発電所","fuel":"solar","output":""}},{"type":"Feature","geometry":{"type":"Point","coordinates":[136.53698,34.85401]},"properties":{"name":"住吉町鈴鹿市発電所","fuel":"solar","output":""}},{"type":"Feature","geometry":{"type":"Point","coordinates":[136.53657,34.85383]},"properties":{"name":"住吉町鈴鹿市発電所","fuel":"solar","output":""}},{"type":"Feature","geometry":{"type":"Point","coordinates":[136.5358,34.85634]},"properties":{"name":"住吉町鈴鹿市発電所","fuel":"solar","output":""}},{"type":"Feature","geometry":{"type":"Point","coordinates":[136.52656,34.85033]},"properties":{"name":"住吉町鈴鹿市発電所","fuel":"solar","output":""}},{"type":"Feature","geometry":{"type":"Point","coordinates":[136.52557,34.85119]},"properties":{"name":"住吉五丁目鈴鹿市発電所","fuel":"solar","output":""}},{"type":"Feature","geometry":{"type":"Point","coordinates":[136.5246,34.85129]},"properties":{"name":"住吉五丁目鈴鹿市発電所","fuel":"solar","output":""}},{"type":"Feature","geometry":{"type":"Point","coordinates":[136.52448,34.85014]},"properties":{"name":"住吉五丁目鈴鹿市発電所","fuel":"solar","output":""}},{"type":"Feature","geometry":{"type":"Point","coordinates":[136.52257,34.85004]},"properties":{"name":"御薗町鈴鹿市発電所","fuel":"solar","output":""}},{"type":"Feature","geometry":{"type":"Point","coordinates":[134.8552,34.74397]},"properties":{"name":"野口町古大内加古川市発電所","fuel":"solar","output":""}},{"type":"Feature","geometry":{"type":"Point","coordinates":[135.05493,34.82182]},"properties":{"name":"細川町垂穂三木市発電所","fuel":"solar","output":""}},{"type":"Feature","geometry":{"type":"Point","coordinates":[135.05515,34.8214]},"properties":{"name":"細川町垂穂三木市発電所","fuel":"solar","output":""}},{"type":"Feature","geometry":{"type":"Point","coordinates":[135.04798,34.82021]},"properties":{"name":"三木市発電所","fuel":"solar","output":""}},{"type":"Feature","geometry":{"type":"Point","coordinates":[135.04803,34.81666]},"properties":{"name":"三木市発電所","fuel":"solar","output":""}},{"type":"Feature","geometry":{"type":"Point","coordinates":[135.04955,34.82089]},"properties":{"name":"三木市発電所","fuel":"solar","output":""}},{"type":"Feature","geometry":{"type":"Point","coordinates":[135.05021,34.82088]},"properties":{"name":"三木市発電所","fuel":"solar","output":""}},{"type":"Feature","geometry":{"type":"Point","coordinates":[135.04935,34.82056]},"properties":{"name":"三木市発電所","fuel":"solar","output":""}},{"type":"Feature","geometry":{"type":"Point","coordinates":[135.05632,34.82191]},"properties":{"name":"細川町垂穂三木市発電所","fuel":"solar","output":""}},{"type":"Feature","geometry":{"type":"Point","coordinates":[135.05573,34.82077]},"properties":{"name":"三木市発電所","fuel":"solar","output":""}},{"type":"Feature","geometry":{"type":"Point","coordinates":[135.45746,34.62942]},"properties":{"name":"Nakayama Steel Works Funamachi Power Station","fuel":"gas","output":""}},{"type":"Feature","geometry":{"type":"Point","coordinates":[135.95539,35.06075]},"properties":{"name":"森川原町守山市発電所","fuel":"solar","output":""}},{"type":"Feature","geometry":{"type":"Point","coordinates":[135.96315,35.03632]},"properties":{"name":"小平井三丁目栗東市発電所","fuel":"solar","output":""}},{"type":"Feature","geometry":{"type":"Point","coordinates":[134.62507,34.78745]},"properties":{"name":"NSC Hirohata Works Power Plant","fuel":"gas","output":""}},{"type":"Feature","geometry":{"type":"Point","coordinates":[135.12106,34.24625]},"properties":{"name":"Wakayama Gas power plant","fuel":"gas;oil","output":""}},{"type":"Feature","geometry":{"type":"Point","coordinates":[136.11506,34.60648]},"properties":{"name":"夏見名張市発電所","fuel":"solar","output":""}},{"type":"Feature","geometry":{"type":"Point","coordinates":[135.82632,34.88128]},"properties":{"name":"天ヶ瀬発電所","fuel":"hydro","output":""}},{"type":"Feature","geometry":{"type":"Point","coordinates":[135.02968,34.71001]},"properties":{"name":"井吹台北町三丁目神戸市発電所","fuel":"solar","output":""}},{"type":"Feature","geometry":{"type":"Point","coordinates":[135.02652,34.7065]},"properties":{"name":"井吹台北町一丁目神戸市発電所","fuel":"solar","output":""}},{"type":"Feature","geometry":{"type":"Point","coordinates":[135.02535,34.70566]},"properties":{"name":"井吹台北町一丁目神戸市発電所","fuel":"solar","output":""}},{"type":"Feature","geometry":{"type":"Point","coordinates":[136.5259,34.80609]},"properties":{"name":"河芸町杜の街四丁目津市発電所","fuel":"solar","output":""}},{"type":"Feature","geometry":{"type":"Point","coordinates":[136.52433,34.8058]},"properties":{"name":"河芸町杜の街四丁目津市発電所","fuel":"solar","output":""}},{"type":"Feature","geometry":{"type":"Point","coordinates":[136.52571,34.80473]},"properties":{"name":"河芸町杜の街四丁目津市発電所","fuel":"solar","output":""}},{"type":"Feature","geometry":{"type":"Point","coordinates":[136.52322,34.81147]},"properties":{"name":"河芸町杜の街四丁目津市発電所","fuel":"solar","output":""}},{"type":"Feature","geometry":{"type":"Point","coordinates":[136.52323,34.81008]},"properties":{"name":"河芸町杜の街四丁目津市発電所","fuel":"solar","output":""}},{"type":"Feature","geometry":{"type":"Point","coordinates":[134.7965,34.94517]},"properties":{"name":"福崎町発電所","fuel":"solar","output":""}},{"type":"Feature","geometry":{"type":"Point","coordinates":[134.75288,35.12638]},"properties":{"name":"栗神河町発電所","fuel":"solar","output":""}},{"type":"Feature","geometry":{"type":"Point","coordinates":[136.14991,34.09511]},"properties":{"name":"尾鷲第一発電所","fuel":"hydro","output":""}},{"type":"Feature","geometry":{"type":"Point","coordinates":[136.00168,33.96009]},"properties":{"name":"七色水力発電所","fuel":"hydro","output":""}},{"type":"Feature","geometry":{"type":"Point","coordinates":[136.5227,34.80694]},"properties":{"name":"河芸町杜の街四丁目津市発電所","fuel":"solar","output":""}},{"type":"Feature","geometry":{"type":"Point","coordinates":[136.52274,34.80629]},"properties":{"name":"河芸町杜の街四丁目津市発電所","fuel":"solar","output":""}},{"type":"Feature","geometry":{"type":"Point","coordinates":[136.52243,34.8053]},"properties":{"name":"河芸町杜の街四丁目津市発電所","fuel":"solar","output":""}},{"type":"Feature","geometry":{"type":"Point","coordinates":[136.52548,34.8098]},"properties":{"name":"河芸町杜の街四丁目津市発電所","fuel":"solar","output":""}},{"type":"Feature","geometry":{"type":"Point","coordinates":[136.55022,34.80844]},"properties":{"name":"河芸町西千里津市発電所","fuel":"solar","output":""}},{"type":"Feature","geometry":{"type":"Point","coordinates":[136.54955,34.80803]},"properties":{"name":"河芸町西千里津市発電所","fuel":"solar","output":""}},{"type":"Feature","geometry":{"type":"Point","coordinates":[136.5487,34.80788]},"properties":{"name":"河芸町西千里津市発電所","fuel":"solar","output":""}},{"type":"Feature","geometry":{"type":"Point","coordinates":[136.5482,34.80771]},"properties":{"name":"河芸町西千里津市発電所","fuel":"solar","output":""}},{"type":"Feature","geometry":{"type":"Point","coordinates":[136.54778,34.80775]},"properties":{"name":"河芸町西千里津市発電所","fuel":"solar","output":""}},{"type":"Feature","geometry":{"type":"Point","coordinates":[136.54607,34.80756]},"properties":{"name":"河芸町千里ヶ丘津市発電所","fuel":"solar","output":""}},{"type":"Feature","geometry":{"type":"Point","coordinates":[136.54436,34.80767]},"properties":{"name":"河芸町千里ヶ丘津市発電所","fuel":"solar","output":""}},{"type":"Feature","geometry":{"type":"Point","coordinates":[136.54451,34.80744]},"properties":{"name":"河芸町千里ヶ丘津市発電所","fuel":"solar","output":""}},{"type":"Feature","geometry":{"type":"Point","coordinates":[136.54747,34.80844]},"properties":{"name":"河芸町千里ヶ丘津市発電所","fuel":"solar","output":""}},{"type":"Feature","geometry":{"type":"Point","coordinates":[136.55029,34.80816]},"properties":{"name":"河芸町西千里津市発電所","fuel":"solar","output":""}},{"type":"Feature","geometry":{"type":"Point","coordinates":[135.16083,34.91596]},"properties":{"name":"学園二丁目三田市発電所","fuel":"solar","output":""}},{"type":"Feature","geometry":{"type":"Point","coordinates":[135.16477,34.88839]},"properties":{"name":"北区三木市発電所","fuel":"solar","output":""}},{"type":"Feature","geometry":{"type":"Point","coordinates":[134.92622,34.44987]},"properties":{"name":"佐野新島淡路市発電所","fuel":"solar","output":""}},{"type":"Feature","geometry":{"type":"Point","coordinates":[136.27759,35.25076]},"properties":{"name":"正法寺町彦根市発電所","fuel":"solar","output":""}},{"type":"Feature","geometry":{"type":"Point","coordinates":[136.27793,35.25078]},"properties":{"name":"正法寺町彦根市発電所","fuel":"solar","output":""}},{"type":"Feature","geometry":{"type":"Point","coordinates":[136.27827,35.2507]},"properties":{"name":"正法寺町彦根市発電所","fuel":"solar","output":""}},{"type":"Feature","geometry":{"type":"Point","coordinates":[136.2786,35.25084]},"properties":{"name":"正法寺町彦根市発電所","fuel":"solar","output":""}},{"type":"Feature","geometry":{"type":"Point","coordinates":[134.94642,34.55078]},"properties":{"name":"北淡町震災記念公園風力発電","fuel":"solar","output":""}},{"type":"Feature","geometry":{"type":"Point","coordinates":[134.9447,34.55119]},"properties":{"name":"北淡町震災記念公園風力発電","fuel":"solar","output":""}},{"type":"Feature","geometry":{"type":"Point","coordinates":[134.94582,34.55184]},"properties":{"name":"北淡町震災記念公園風力発電","fuel":"solar","output":""}},{"type":"Feature","geometry":{"type":"Point","coordinates":[134.93689,34.5482]},"properties":{"name":"北淡震災記念風力発電所","fuel":"solar","output":""}},{"type":"Feature","geometry":{"type":"Point","coordinates":[134.93679,34.54796]},"properties":{"name":"北淡震災記念風力発電所","fuel":"solar","output":""}},{"type":"Feature","geometry":{"type":"Point","coordinates":[134.93709,34.5462]},"properties":{"name":"北淡震災記念風力発電所","fuel":"solar","output":""}},{"type":"Feature","geometry":{"type":"Point","coordinates":[134.93647,34.54664]},"properties":{"name":"北淡震災記念風力発電所","fuel":"solar","output":""}},{"type":"Feature","geometry":{"type":"Point","coordinates":[134.93661,34.54685]},"properties":{"name":"北淡震災記念風力発電所","fuel":"solar","output":""}},{"type":"Feature","geometry":{"type":"Point","coordinates":[134.93777,34.54575]},"properties":{"name":"北淡震災記念風力発電所","fuel":"solar","output":""}},{"type":"Feature","geometry":{"type":"Point","coordinates":[134.93813,34.54583]},"properties":{"name":"北淡震災記念風力発電所","fuel":"solar","output":""}},{"type":"Feature","geometry":{"type":"Point","coordinates":[134.93805,34.54603]},"properties":{"name":"北淡震災記念風力発電所","fuel":"solar","output":""}},{"type":"Feature","geometry":{"type":"Point","coordinates":[134.93737,34.5468]},"properties":{"name":"北淡震災記念風力発電所","fuel":"solar","output":""}},{"type":"Feature","geometry":{"type":"Point","coordinates":[134.93586,34.54512]},"properties":{"name":"北淡震災記念風力発電所","fuel":"solar","output":""}},{"type":"Feature","geometry":{"type":"Point","coordinates":[134.93591,34.54404]},"properties":{"name":"北淡震災記念風力発電所","fuel":"solar","output":""}},{"type":"Feature","geometry":{"type":"Point","coordinates":[134.93704,34.54425]},"properties":{"name":"北淡震災記念風力発電所","fuel":"solar","output":""}},{"type":"Feature","geometry":{"type":"Point","coordinates":[134.93854,34.54493]},"properties":{"name":"北淡震災記念風力発電所","fuel":"solar","output":""}},{"type":"Feature","geometry":{"type":"Point","coordinates":[134.93959,34.5441]},"properties":{"name":"北淡震災記念風力発電所","fuel":"solar","output":""}},{"type":"Feature","geometry":{"type":"Point","coordinates":[134.93852,34.54747]},"properties":{"name":"北淡震災記念風力発電所","fuel":"solar","output":""}},{"type":"Feature","geometry":{"type":"Point","coordinates":[134.93783,34.54844]},"properties":{"name":"北淡震災記念風力発電所","fuel":"solar","output":""}},{"type":"Feature","geometry":{"type":"Point","coordinates":[134.93834,34.54893]},"properties":{"name":"北淡震災記念風力発電所","fuel":"solar","output":""}},{"type":"Feature","geometry":{"type":"Point","coordinates":[134.93847,34.54856]},"properties":{"name":"北淡震災記念風力発電所","fuel":"solar","output":""}},{"type":"Feature","geometry":{"type":"Point","coordinates":[134.93949,34.54856]},"properties":{"name":"北淡震災記念風力発電所","fuel":"solar","output":""}},{"type":"Feature","geometry":{"type":"Point","coordinates":[134.94026,34.54873]},"properties":{"name":"北淡震災記念風力発電所","fuel":"solar","output":""}},{"type":"Feature","geometry":{"type":"Point","coordinates":[134.94062,34.5491]},"properties":{"name":"北淡震災記念風力発電所","fuel":"solar","output":""}},{"type":"Feature","geometry":{"type":"Point","coordinates":[134.94227,34.54596]},"properties":{"name":"北淡震災記念風力発電所","fuel":"solar","output":""}},{"type":"Feature","geometry":{"type":"Point","coordinates":[134.94255,34.54743]},"properties":{"name":"北淡震災記念風力発電所","fuel":"solar","output":""}},{"type":"Feature","geometry":{"type":"Point","coordinates":[134.94152,34.54828]},"properties":{"name":"北淡震災記念風力発電所","fuel":"solar","output":""}},{"type":"Feature","geometry":{"type":"Point","coordinates":[134.94194,34.54801]},"properties":{"name":"北淡震災記念風力発電所","fuel":"solar","output":""}},{"type":"Feature","geometry":{"type":"Point","coordinates":[134.94436,34.5486]},"properties":{"name":"北淡震災記念風力発電所","fuel":"solar","output":""}},{"type":"Feature","geometry":{"type":"Point","coordinates":[134.94566,34.54875]},"properties":{"name":"北淡震災記念風力発電所","fuel":"solar","output":""}},{"type":"Feature","geometry":{"type":"Point","coordinates":[134.99775,34.55082]},"properties":{"name":"小磯淡路市発電所","fuel":"solar","output":""}},{"type":"Feature","geometry":{"type":"Point","coordinates":[134.9985,34.54948]},"properties":{"name":"小磯淡路市発電所","fuel":"solar","output":""}},{"type":"Feature","geometry":{"type":"Point","coordinates":[135.00374,34.55466]},"properties":{"name":"大磯淡路市発電所","fuel":"solar","output":""}},{"type":"Feature","geometry":{"type":"Point","coordinates":[134.94089,34.47598]},"properties":{"name":"佐野淡路市発電所","fuel":"solar","output":""}},{"type":"Feature","geometry":{"type":"Point","coordinates":[136.7981,34.50564]},"properties":{"name":"二見町江伊勢市発電所","fuel":"solar","output":""}},{"type":"Feature","geometry":{"type":"Point","coordinates":[136.54486,34.80755]},"properties":{"name":"河芸町千里ヶ丘津市発電所","fuel":"solar","output":""}},{"type":"Feature","geometry":{"type":"Point","coordinates":[136.54479,34.8081]},"properties":{"name":"河芸町千里ヶ丘津市発電所","fuel":"solar","output":""}},{"type":"Feature","geometry":{"type":"Point","coordinates":[134.89912,34.44978]},"properties":{"name":"淡路市発電所","fuel":"solar","output":""}},{"type":"Feature","geometry":{"type":"Point","coordinates":[134.99495,34.54601]},"properties":{"name":"浜淡路市発電所","fuel":"solar","output":""}},{"type":"Feature","geometry":{"type":"Point","coordinates":[134.99544,34.54675]},"properties":{"name":"浜淡路市発電所","fuel":"solar","output":""}},{"type":"Feature","geometry":{"type":"Point","coordinates":[134.995,34.54722]},"properties":{"name":"浜淡路市発電所","fuel":"solar","output":""}},{"type":"Feature","geometry":{"type":"Point","coordinates":[135.04599,34.73095]},"properties":{"name":"桜が丘西町六丁目神戸市発電所","fuel":"solar","output":""}},{"type":"Feature","geometry":{"type":"Point","coordinates":[134.98468,34.72537]},"properties":{"name":"西区神戸市発電所","fuel":"solar","output":""}},{"type":"Feature","geometry":{"type":"Point","coordinates":[134.98594,34.72724]},"properties":{"name":"関西_34.7272_134.9859","fuel":"solar","output":""}},{"type":"Feature","geometry":{"type":"Point","coordinates":[134.98297,34.73041]},"properties":{"name":"西区神戸市発電所","fuel":"solar","output":""}},{"type":"Feature","geometry":{"type":"Point","coordinates":[134.98518,34.73118]},"properties":{"name":"西区神戸市発電所","fuel":"solar","output":""}},{"type":"Feature","geometry":{"type":"Point","coordinates":[134.98265,34.7647]},"properties":{"name":"西区神戸市発電所","fuel":"solar","output":""}},{"type":"Feature","geometry":{"type":"Point","coordinates":[134.8274,34.7187]},"properties":{"name":"Kobe Steel Kakogawa Works Power Station","fuel":"gas","output":""}},{"type":"Feature","geometry":{"type":"Point","coordinates":[135.42631,34.53663]},"properties":{"name":"Mitsui Chemicals Osaka Power Station","fuel":"gas","output":""}},{"type":"Feature","geometry":{"type":"Point","coordinates":[135.18525,34.9376]},"properties":{"name":"大畑三田市発電所","fuel":"solar","output":""}},{"type":"Feature","geometry":{"type":"Point","coordinates":[135.05286,35.14816]},"properties":{"name":"柏原町田路丹波市発電所","fuel":"solar","output":""}},{"type":"Feature","geometry":{"type":"Point","coordinates":[134.79361,35.49535]},"properties":{"name":"日高町池上豊岡市発電所","fuel":"solar","output":""}},{"type":"Feature","geometry":{"type":"Point","coordinates":[134.85596,34.7908]},"properties":{"name":"平荘町池尻加古川市発電所","fuel":"solar","output":""}},{"type":"Feature","geometry":{"type":"Point","coordinates":[135.30163,34.83357]},"properties":{"name":"東山台五丁目西宮市発電所","fuel":"solar","output":""}},{"type":"Feature","geometry":{"type":"Point","coordinates":[135.32961,34.82444]},"properties":{"name":"塩瀬町生瀬西宮市発電所","fuel":"solar","output":""}},{"type":"Feature","geometry":{"type":"Point","coordinates":[135.98453,34.95015]},"properties":{"name":"大戸川発電所","fuel":"hydro","output":""}},{"type":"Feature","geometry":{"type":"Point","coordinates":[135.2712,34.97362]},"properties":{"name":"田中三田市発電所","fuel":"solar","output":""}},{"type":"Feature","geometry":{"type":"Point","coordinates":[136.03907,35.48085]},"properties":{"name":"マキノ町牧野高島市発電所","fuel":"solar","output":""}},{"type":"Feature","geometry":{"type":"Point","coordinates":[134.96163,34.70912]},"properties":{"name":"明石クリーンセンター","fuel":"solar","output":""}},{"type":"Feature","geometry":{"type":"Point","coordinates":[134.96318,34.70931]},"properties":{"name":"明石クリーンセンター","fuel":"solar","output":""}},{"type":"Feature","geometry":{"type":"Point","coordinates":[134.94844,34.69515]},"properties":{"name":"大久保町高丘四丁目明石市発電所","fuel":"solar","output":""}},{"type":"Feature","geometry":{"type":"Point","coordinates":[135.38803,35.15713]},"properties":{"name":"中台京丹波町発電所","fuel":"solar","output":""}},{"type":"Feature","geometry":{"type":"Point","coordinates":[136.45506,35.59217]},"properties":{"name":"横山水力発電所","fuel":"hydro","output":""}},{"type":"Feature","geometry":{"type":"Point","coordinates":[136.1381,34.66997]},"properties":{"name":"上神戸伊賀市発電所","fuel":"solar","output":""}},{"type":"Feature","geometry":{"type":"Point","coordinates":[135.69538,34.74672]},"properties":{"name":"北田原町交野市発電所","fuel":"solar","output":""}},{"type":"Feature","geometry":{"type":"Point","coordinates":[136.51756,34.59303]},"properties":{"name":"塚本町松阪市発電所","fuel":"solar","output":""}},{"type":"Feature","geometry":{"type":"Point","coordinates":[136.74285,34.49613]},"properties":{"name":"伊勢保健衛生専門学校","fuel":"solar","output":""}},{"type":"Feature","geometry":{"type":"Point","coordinates":[136.30942,34.60208]},"properties":{"name":"竹原水力発電所","fuel":"solar","output":""}},{"type":"Feature","geometry":{"type":"Point","coordinates":[136.30858,34.60011]},"properties":{"name":"竹原水力発電所","fuel":"solar","output":""}},{"type":"Feature","geometry":{"type":"Point","coordinates":[135.15279,35.42938]},"properties":{"name":"内宮発電所","fuel":"hydro","output":""}},{"type":"Feature","geometry":{"type":"Point","coordinates":[135.15644,33.87978]},"properties":{"name":"名屋御坊市発電所","fuel":"solar","output":""}},{"type":"Feature","geometry":{"type":"Point","coordinates":[135.82702,34.85741]},"properties":{"name":"クリーン２１長谷山発電所","fuel":"solar","output":""}},{"type":"Feature","geometry":{"type":"Point","coordinates":[134.82319,34.74025]},"properties":{"name":"尾上町池田加古川市発電所","fuel":"solar","output":""}},{"type":"Feature","geometry":{"type":"Point","coordinates":[134.8239,34.73769]},"properties":{"name":"尾上町池田加古川市発電所","fuel":"solar","output":""}},{"type":"Feature","geometry":{"type":"Point","coordinates":[134.82376,34.73824]},"properties":{"name":"尾上町池田加古川市発電所","fuel":"solar","output":""}},{"type":"Feature","geometry":{"type":"Point","coordinates":[134.92173,34.45145]},"properties":{"name":"生穂淡路市発電所","fuel":"solar","output":""}},{"type":"Feature","geometry":{"type":"Point","coordinates":[134.86911,34.76676]},"properties":{"name":"野口町水足加古川市発電所","fuel":"solar","output":""}},{"type":"Feature","geometry":{"type":"Point","coordinates":[134.83082,34.78616]},"properties":{"name":"東神吉町砂部加古川市発電所","fuel":"solar","output":""}},{"type":"Feature","geometry":{"type":"Point","coordinates":[134.83767,34.79288]},"properties":{"name":"兵庫県立東播工業高等学校","fuel":"solar","output":""}},{"type":"Feature","geometry":{"type":"Point","coordinates":[135.25675,35.55666]},"properties":{"name":"宮津エネルギー研究所","fuel":"oil","output":""}},{"type":"Feature","geometry":{"type":"Point","coordinates":[134.84431,34.78606]},"properties":{"name":"東神吉町升田加古川市発電所","fuel":"solar","output":""}},{"type":"Feature","geometry":{"type":"Point","coordinates":[134.70606,34.23009]},"properties":{"name":"ホテルニューアワジプラザ淡路島風力発電所","fuel":"solar","output":""}},{"type":"Feature","geometry":{"type":"Point","coordinates":[134.72385,34.25864]},"properties":{"name":"福良甲南あわじ市発電所","fuel":"solar","output":""}},{"type":"Feature","geometry":{"type":"Point","coordinates":[134.72513,34.25873]},"properties":{"name":"福良甲南あわじ市発電所","fuel":"solar","output":""}},{"type":"Feature","geometry":{"type":"Point","coordinates":[135.78394,33.44694]},"properties":{"name":"出雲串本町発電所","fuel":"solar","output":""}},{"type":"Feature","geometry":{"type":"Point","coordinates":[135.78715,33.44567]},"properties":{"name":"出雲串本町発電所","fuel":"solar","output":""}},{"type":"Feature","geometry":{"type":"Point","coordinates":[136.02639,33.85353]},"properties":{"name":"御浜町発電所","fuel":"solar","output":""}},{"type":"Feature","geometry":{"type":"Point","coordinates":[134.82556,34.82473]},"properties":{"name":"志方町西飯坂加古川市発電所","fuel":"solar","output":""}},{"type":"Feature","geometry":{"type":"Point","coordinates":[134.80191,34.82501]},"properties":{"name":"志方町西牧加古川市発電所","fuel":"solar","output":""}},{"type":"Feature","geometry":{"type":"Point","coordinates":[134.93477,34.45665]},"properties":{"name":"佐野新島淡路市発電所","fuel":"solar","output":""}},{"type":"Feature","geometry":{"type":"Point","coordinates":[134.87994,34.75321]},"properties":{"name":"中一色加古川市発電所","fuel":"solar","output":""}},{"type":"Feature","geometry":{"type":"Point","coordinates":[135.989,34.63114]},"properties":{"name":"奈良市発電所","fuel":"solar","output":""}},{"type":"Feature","geometry":{"type":"Point","coordinates":[135.99315,34.63169]},"properties":{"name":"切幡奈良市発電所","fuel":"solar","output":""}},{"type":"Feature","geometry":{"type":"Point","coordinates":[135.99253,34.63374]},"properties":{"name":"奈良市発電所","fuel":"solar","output":""}},{"type":"Feature","geometry":{"type":"Point","coordinates":[135.994,34.63453]},"properties":{"name":"山添村発電所","fuel":"solar","output":""}},{"type":"Feature","geometry":{"type":"Point","coordinates":[135.98605,34.62686]},"properties":{"name":"切幡奈良市発電所","fuel":"solar","output":""}},{"type":"Feature","geometry":{"type":"Point","coordinates":[135.98674,34.62717]},"properties":{"name":"奈良市発電所","fuel":"solar","output":""}},{"type":"Feature","geometry":{"type":"Point","coordinates":[135.81134,34.78498]},"properties":{"name":"山城町綺田木津川市発電所","fuel":"solar","output":""}},{"type":"Feature","geometry":{"type":"Point","coordinates":[136.60411,34.5119]},"properties":{"name":"大字池村明和町発電所","fuel":"solar","output":""}},{"type":"Feature","geometry":{"type":"Point","coordinates":[136.60003,34.51053]},"properties":{"name":"大字池村明和町発電所","fuel":"solar","output":""}},{"type":"Feature","geometry":{"type":"Point","coordinates":[136.59895,34.50993]},"properties":{"name":"大字池村明和町発電所","fuel":"solar","output":""}},{"type":"Feature","geometry":{"type":"Point","coordinates":[136.59806,34.50988]},"properties":{"name":"大字上村明和町発電所","fuel":"solar","output":""}},{"type":"Feature","geometry":{"type":"Point","coordinates":[136.09668,34.86742]},"properties":{"name":"甲賀市発電所","fuel":"solar","output":""}},{"type":"Feature","geometry":{"type":"Point","coordinates":[136.63566,34.52809]},"properties":{"name":"大字明星明和町発電所","fuel":"solar","output":""}},{"type":"Feature","geometry":{"type":"Point","coordinates":[136.63682,34.5284]},"properties":{"name":"大字明星明和町発電所","fuel":"solar","output":""}},{"type":"Feature","geometry":{"type":"Point","coordinates":[136.63205,34.52608]},"properties":{"name":"大字明星明和町発電所","fuel":"solar","output":""}},{"type":"Feature","geometry":{"type":"Point","coordinates":[136.63099,34.52425]},"properties":{"name":"大字明星明和町発電所","fuel":"solar","output":""}},{"type":"Feature","geometry":{"type":"Point","coordinates":[136.61975,34.52498]},"properties":{"name":"大字金剛坂明和町発電所","fuel":"solar","output":""}},{"type":"Feature","geometry":{"type":"Point","coordinates":[136.65772,34.52319]},"properties":{"name":"大字新茶屋明和町発電所","fuel":"solar","output":""}},{"type":"Feature","geometry":{"type":"Point","coordinates":[136.64604,34.53897]},"properties":{"name":"大字平尾明和町発電所","fuel":"solar","output":""}},{"type":"Feature","geometry":{"type":"Point","coordinates":[136.64923,34.53883]},"properties":{"name":"柏町伊勢市発電所","fuel":"solar","output":""}},{"type":"Feature","geometry":{"type":"Point","coordinates":[136.63761,34.53912]},"properties":{"name":"大字平尾明和町発電所","fuel":"solar","output":""}},{"type":"Feature","geometry":{"type":"Point","coordinates":[136.63596,34.52848]},"properties":{"name":"大字明星明和町発電所","fuel":"solar","output":""}},{"type":"Feature","geometry":{"type":"Point","coordinates":[136.63642,34.53058]},"properties":{"name":"大字上野明和町発電所","fuel":"solar","output":""}},{"type":"Feature","geometry":{"type":"Point","coordinates":[136.63589,34.53195]},"properties":{"name":"大字上野明和町発電所","fuel":"solar","output":""}},{"type":"Feature","geometry":{"type":"Point","coordinates":[136.63941,34.53933]},"properties":{"name":"大字平尾明和町発電所","fuel":"solar","output":""}},{"type":"Feature","geometry":{"type":"Point","coordinates":[136.63994,34.53935]},"properties":{"name":"大字平尾明和町発電所","fuel":"solar","output":""}},{"type":"Feature","geometry":{"type":"Point","coordinates":[136.6385,34.53898]},"properties":{"name":"大字平尾明和町発電所","fuel":"solar","output":""}},{"type":"Feature","geometry":{"type":"Point","coordinates":[136.64248,34.54174]},"properties":{"name":"大字平尾明和町発電所","fuel":"solar","output":""}},{"type":"Feature","geometry":{"type":"Point","coordinates":[136.64257,34.54141]},"properties":{"name":"大字平尾明和町発電所","fuel":"solar","output":""}},{"type":"Feature","geometry":{"type":"Point","coordinates":[136.65076,34.54035]},"properties":{"name":"柏町伊勢市発電所","fuel":"solar","output":""}},{"type":"Feature","geometry":{"type":"Point","coordinates":[136.65031,34.53956]},"properties":{"name":"柏町伊勢市発電所","fuel":"solar","output":""}},{"type":"Feature","geometry":{"type":"Point","coordinates":[136.65064,34.5398]},"properties":{"name":"柏町伊勢市発電所","fuel":"solar","output":""}},{"type":"Feature","geometry":{"type":"Point","coordinates":[136.65935,34.53871]},"properties":{"name":"伊勢市発電所","fuel":"solar","output":""}},{"type":"Feature","geometry":{"type":"Point","coordinates":[136.66017,34.5383]},"properties":{"name":"伊勢市発電所","fuel":"solar","output":""}},{"type":"Feature","geometry":{"type":"Point","coordinates":[136.66167,34.53795]},"properties":{"name":"伊勢市発電所","fuel":"solar","output":""}},{"type":"Feature","geometry":{"type":"Point","coordinates":[136.6678,34.53699]},"properties":{"name":"伊勢市発電所","fuel":"solar","output":""}},{"type":"Feature","geometry":{"type":"Point","coordinates":[136.66777,34.53838]},"properties":{"name":"村松町伊勢市発電所","fuel":"solar","output":""}},{"type":"Feature","geometry":{"type":"Point","coordinates":[136.66954,34.53755]},"properties":{"name":"村松町伊勢市発電所","fuel":"solar","output":""}},{"type":"Feature","geometry":{"type":"Point","coordinates":[136.67231,34.53673]},"properties":{"name":"村松町伊勢市発電所","fuel":"solar","output":""}},{"type":"Feature","geometry":{"type":"Point","coordinates":[136.67339,34.53694]},"properties":{"name":"村松町伊勢市発電所","fuel":"solar","output":""}},{"type":"Feature","geometry":{"type":"Point","coordinates":[136.67267,34.53607]},"properties":{"name":"村松町伊勢市発電所","fuel":"solar","output":""}},{"type":"Feature","geometry":{"type":"Point","coordinates":[136.67362,34.53562]},"properties":{"name":"村松町伊勢市発電所","fuel":"solar","output":""}},{"type":"Feature","geometry":{"type":"Point","coordinates":[136.67416,34.53539]},"properties":{"name":"村松町伊勢市発電所","fuel":"solar","output":""}},{"type":"Feature","geometry":{"type":"Point","coordinates":[136.67479,34.53508]},"properties":{"name":"村松町伊勢市発電所","fuel":"solar","output":""}},{"type":"Feature","geometry":{"type":"Point","coordinates":[136.67548,34.53476]},"properties":{"name":"村松町伊勢市発電所","fuel":"solar","output":""}},{"type":"Feature","geometry":{"type":"Point","coordinates":[136.67654,34.53483]},"properties":{"name":"村松町伊勢市発電所","fuel":"solar","output":""}},{"type":"Feature","geometry":{"type":"Point","coordinates":[136.6761,34.53566]},"properties":{"name":"村松町伊勢市発電所","fuel":"solar","output":""}},{"type":"Feature","geometry":{"type":"Point","coordinates":[136.67577,34.53584]},"properties":{"name":"村松町伊勢市発電所","fuel":"solar","output":""}},{"type":"Feature","geometry":{"type":"Point","coordinates":[136.62873,34.52943]},"properties":{"name":"大字上野明和町発電所","fuel":"solar","output":""}},{"type":"Feature","geometry":{"type":"Point","coordinates":[136.62768,34.52788]},"properties":{"name":"大字蓑村明和町発電所","fuel":"solar","output":""}},{"type":"Feature","geometry":{"type":"Point","coordinates":[136.62712,34.52793]},"properties":{"name":"大字蓑村明和町発電所","fuel":"solar","output":""}},{"type":"Feature","geometry":{"type":"Point","coordinates":[136.63602,34.53957]},"properties":{"name":"大字平尾明和町発電所","fuel":"solar","output":""}},{"type":"Feature","geometry":{"type":"Point","coordinates":[136.63476,34.53972]},"properties":{"name":"大字上野明和町発電所","fuel":"solar","output":""}},{"type":"Feature","geometry":{"type":"Point","coordinates":[136.6391,34.54199]},"properties":{"name":"大字平尾明和町発電所","fuel":"solar","output":""}},{"type":"Feature","geometry":{"type":"Point","coordinates":[136.6543,34.56738]},"properties":{"name":"大字大淀明和町発電所","fuel":"solar","output":""}},{"type":"Feature","geometry":{"type":"Point","coordinates":[136.64298,34.5696]},"properties":{"name":"大字山大淀明和町発電所","fuel":"solar","output":""}},{"type":"Feature","geometry":{"type":"Point","coordinates":[136.30157,34.62387]},"properties":{"name":"白山町二俣津市発電所","fuel":"solar","output":""}},{"type":"Feature","geometry":{"type":"Point","coordinates":[136.30376,34.62653]},"properties":{"name":"白山町城立津市発電所","fuel":"solar","output":""}},{"type":"Feature","geometry":{"type":"Point","coordinates":[136.30376,34.6245]},"properties":{"name":"白山町二俣津市発電所","fuel":"solar","output":""}},{"type":"Feature","geometry":{"type":"Point","coordinates":[136.30044,34.62144]},"properties":{"name":"白山町二俣津市発電所","fuel":"solar","output":""}},{"type":"Feature","geometry":{"type":"Point","coordinates":[136.29997,34.62688]},"properties":{"name":"白山町城立津市発電所","fuel":"solar","output":""}},{"type":"Feature","geometry":{"type":"Point","coordinates":[136.29788,34.62793]},"properties":{"name":"白山町城立津市発電所","fuel":"solar","output":""}},{"type":"Feature","geometry":{"type":"Point","coordinates":[136.29883,34.62564]},"properties":{"name":"白山町二俣津市発電所","fuel":"solar","output":""}},{"type":"Feature","geometry":{"type":"Point","coordinates":[136.29501,34.62744]},"properties":{"name":"白山町城立津市発電所","fuel":"solar","output":""}},{"type":"Feature","geometry":{"type":"Point","coordinates":[136.29681,34.62544]},"properties":{"name":"白山町二俣津市発電所","fuel":"solar","output":""}},{"type":"Feature","geometry":{"type":"Point","coordinates":[136.59346,34.53965]},"properties":{"name":"稲木町松阪市発電所","fuel":"solar","output":""}},{"type":"Feature","geometry":{"type":"Point","coordinates":[136.57998,34.49486]},"properties":{"name":"森荘多気町発電所","fuel":"solar","output":""}},{"type":"Feature","geometry":{"type":"Point","coordinates":[136.5805,34.49456]},"properties":{"name":"笠木多気町発電所","fuel":"solar","output":""}},{"type":"Feature","geometry":{"type":"Point","coordinates":[136.57999,34.49397]},"properties":{"name":"笠木多気町発電所","fuel":"solar","output":""}},{"type":"Feature","geometry":{"type":"Point","coordinates":[136.62395,34.57651]},"properties":{"name":"大字中村明和町発電所","fuel":"solar","output":""}},{"type":"Feature","geometry":{"type":"Point","coordinates":[136.63057,34.57666]},"properties":{"name":"大字養川明和町発電所","fuel":"solar","output":""}},{"type":"Feature","geometry":{"type":"Point","coordinates":[136.62652,34.57323]},"properties":{"name":"大字前野明和町発電所","fuel":"solar","output":""}},{"type":"Feature","geometry":{"type":"Point","coordinates":[136.62806,34.57207]},"properties":{"name":"大字前野明和町発電所","fuel":"solar","output":""}},{"type":"Feature","geometry":{"type":"Point","coordinates":[136.63372,34.5677]},"properties":{"name":"大字行部明和町発電所","fuel":"solar","output":""}},{"type":"Feature","geometry":{"type":"Point","coordinates":[136.63959,34.5682]},"properties":{"name":"大字行部明和町発電所","fuel":"solar","output":""}},{"type":"Feature","geometry":{"type":"Point","coordinates":[136.63725,34.5707]},"properties":{"name":"大字行部明和町発電所","fuel":"solar","output":""}},{"type":"Feature","geometry":{"type":"Point","coordinates":[136.63873,34.56982]},"properties":{"name":"大字行部明和町発電所","fuel":"solar","output":""}},{"type":"Feature","geometry":{"type":"Point","coordinates":[136.63826,34.57076]},"properties":{"name":"大字行部明和町発電所","fuel":"solar","output":""}},{"type":"Feature","geometry":{"type":"Point","coordinates":[134.74729,34.77117]},"properties":{"name":"大塩町汐咲三丁目姫路市発電所","fuel":"solar","output":""}},{"type":"Feature","geometry":{"type":"Point","coordinates":[136.56464,34.46605]},"properties":{"name":"野中多気町発電所","fuel":"solar","output":""}},{"type":"Feature","geometry":{"type":"Point","coordinates":[136.56589,34.46666]},"properties":{"name":"野中多気町発電所","fuel":"solar","output":""}},{"type":"Feature","geometry":{"type":"Point","coordinates":[136.57957,34.47211]},"properties":{"name":"野中多気町発電所","fuel":"solar","output":""}},{"type":"Feature","geometry":{"type":"Point","coordinates":[136.60627,34.52634]},"properties":{"name":"大字金剛坂明和町発電所","fuel":"solar","output":""}},{"type":"Feature","geometry":{"type":"Point","coordinates":[136.57827,34.48464]},"properties":{"name":"森荘多気町発電所","fuel":"solar","output":""}},{"type":"Feature","geometry":{"type":"Point","coordinates":[136.57799,34.4846]},"properties":{"name":"森荘多気町発電所","fuel":"solar","output":""}},{"type":"Feature","geometry":{"type":"Point","coordinates":[136.57994,34.48285]},"properties":{"name":"森荘多気町発電所","fuel":"solar","output":""}},{"type":"Feature","geometry":{"type":"Point","coordinates":[136.53369,34.44]},"properties":{"name":"千代大台町発電所","fuel":"solar","output":""}},{"type":"Feature","geometry":{"type":"Point","coordinates":[136.53238,34.43945]},"properties":{"name":"千代大台町発電所","fuel":"solar","output":""}},{"type":"Feature","geometry":{"type":"Point","coordinates":[136.53189,34.43918]},"properties":{"name":"千代大台町発電所","fuel":"solar","output":""}},{"type":"Feature","geometry":{"type":"Point","coordinates":[136.53334,34.43974]},"properties":{"name":"千代大台町発電所","fuel":"solar","output":""}},{"type":"Feature","geometry":{"type":"Point","coordinates":[136.53332,34.43995]},"properties":{"name":"千代大台町発電所","fuel":"solar","output":""}},{"type":"Feature","geometry":{"type":"Point","coordinates":[136.53283,34.43959]},"properties":{"name":"千代大台町発電所","fuel":"solar","output":""}},{"type":"Feature","geometry":{"type":"Point","coordinates":[136.5328,34.43985]},"properties":{"name":"千代大台町発電所","fuel":"solar","output":""}},{"type":"Feature","geometry":{"type":"Point","coordinates":[136.53744,34.4398]},"properties":{"name":"千代大台町発電所","fuel":"solar","output":""}},{"type":"Feature","geometry":{"type":"Point","coordinates":[136.53802,34.43954]},"properties":{"name":"千代大台町発電所","fuel":"solar","output":""}},{"type":"Feature","geometry":{"type":"Point","coordinates":[135.76069,34.62674]},"properties":{"name":"小泉町大和郡山市発電所","fuel":"solar","output":""}},{"type":"Feature","geometry":{"type":"Point","coordinates":[134.76054,34.26232]},"properties":{"name":"賀集福井南あわじ市発電所","fuel":"solar","output":""}},{"type":"Feature","geometry":{"type":"Point","coordinates":[134.75945,34.26239]},"properties":{"name":"賀集福井南あわじ市発電所","fuel":"solar","output":""}},{"type":"Feature","geometry":{"type":"Point","coordinates":[134.7583,34.26252]},"properties":{"name":"賀集福井南あわじ市発電所","fuel":"solar","output":""}},{"type":"Feature","geometry":{"type":"Point","coordinates":[134.80148,34.79417]},"properties":{"name":"神爪六丁目高砂市発電所","fuel":"solar","output":""}},{"type":"Feature","geometry":{"type":"Point","coordinates":[134.8014,34.79472]},"properties":{"name":"神爪六丁目加古川市発電所","fuel":"solar","output":""}},{"type":"Feature","geometry":{"type":"Point","coordinates":[134.80054,34.79625]},"properties":{"name":"阿弥陀町魚橋高砂市発電所","fuel":"solar","output":""}},{"type":"Feature","geometry":{"type":"Point","coordinates":[136.60755,34.53134]},"properties":{"name":"大字金剛坂明和町発電所","fuel":"solar","output":""}},{"type":"Feature","geometry":{"type":"Point","coordinates":[136.6072,34.53139]},"properties":{"name":"大字金剛坂明和町発電所","fuel":"solar","output":""}},{"type":"Feature","geometry":{"type":"Point","coordinates":[134.88998,34.78308]},"properties":{"name":"山手二丁目加古川市発電所","fuel":"solar","output":""}},{"type":"Feature","geometry":{"type":"Point","coordinates":[135.72578,34.43828]},"properties":{"name":"小殿御所市発電所","fuel":"solar","output":""}},{"type":"Feature","geometry":{"type":"Point","coordinates":[136.64897,34.52531]},"properties":{"name":"大字新茶屋明和町発電所","fuel":"solar","output":""}},{"type":"Feature","geometry":{"type":"Point","coordinates":[134.88917,34.77627]},"properties":{"name":"山手一丁目加古川市発電所","fuel":"solar","output":""}},{"type":"Feature","geometry":{"type":"Point","coordinates":[134.88869,34.77636]},"properties":{"name":"関西_34.7764_134.8887","fuel":"solar","output":""}},{"type":"Feature","geometry":{"type":"Point","coordinates":[134.88839,34.77672]},"properties":{"name":"山手一丁目加古川市発電所","fuel":"solar","output":""}},{"type":"Feature","geometry":{"type":"Point","coordinates":[134.88838,34.77657]},"properties":{"name":"山手一丁目加古川市発電所","fuel":"solar","output":""}},{"type":"Feature","geometry":{"type":"Point","coordinates":[134.88979,34.77762]},"properties":{"name":"山手一丁目加古川市発電所","fuel":"solar","output":""}},{"type":"Feature","geometry":{"type":"Point","coordinates":[134.88939,34.7777]},"properties":{"name":"山手一丁目加古川市発電所","fuel":"solar","output":""}},{"type":"Feature","geometry":{"type":"Point","coordinates":[134.88995,34.77748]},"properties":{"name":"山手一丁目加古川市発電所","fuel":"solar","output":""}},{"type":"Feature","geometry":{"type":"Point","coordinates":[134.89034,34.77647]},"properties":{"name":"山手一丁目加古川市発電所","fuel":"solar","output":""}},{"type":"Feature","geometry":{"type":"Point","coordinates":[134.8892,34.77707]},"properties":{"name":"山手一丁目加古川市発電所","fuel":"solar","output":""}},{"type":"Feature","geometry":{"type":"Point","coordinates":[134.88968,34.77702]},"properties":{"name":"山手一丁目加古川市発電所","fuel":"solar","output":""}},{"type":"Feature","geometry":{"type":"Point","coordinates":[136.03007,35.34659]},"properties":{"name":"高島市役所","fuel":"solar","output":""}},{"type":"Feature","geometry":{"type":"Point","coordinates":[136.0296,35.34664]},"properties":{"name":"高島市役所","fuel":"solar","output":""}},{"type":"Feature","geometry":{"type":"Point","coordinates":[136.02943,35.34694]},"properties":{"name":"高島市役所","fuel":"solar","output":""}},{"type":"Feature","geometry":{"type":"Point","coordinates":[135.1612,35.24217]},"properties":{"name":"丹波市発電所","fuel":"solar","output":""}},{"type":"Feature","geometry":{"type":"Point","coordinates":[135.13578,35.17834]},"properties":{"name":"春日町多利丹波市発電所","fuel":"solar","output":""}},{"type":"Feature","geometry":{"type":"Point","coordinates":[135.32021,35.18918]},"properties":{"name":"水原京丹波町発電所","fuel":"solar","output":""}},{"type":"Feature","geometry":{"type":"Point","coordinates":[135.32014,35.19012]},"properties":{"name":"水原京丹波町発電所","fuel":"solar","output":""}},{"type":"Feature","geometry":{"type":"Point","coordinates":[135.18342,35.07551]},"properties":{"name":"東古佐丹波篠山市発電所","fuel":"solar","output":""}},{"type":"Feature","geometry":{"type":"Point","coordinates":[135.16926,35.09631]},"properties":{"name":"東木之部丹波篠山市発電所","fuel":"solar","output":""}},{"type":"Feature","geometry":{"type":"Point","coordinates":[135.16905,35.09449]},"properties":{"name":"東木之部丹波篠山市発電所","fuel":"solar","output":""}},{"type":"Feature","geometry":{"type":"Point","coordinates":[135.17097,35.09439]},"properties":{"name":"宮田丹波篠山市発電所","fuel":"solar","output":""}},{"type":"Feature","geometry":{"type":"Point","coordinates":[134.90012,35.07199]},"properties":{"name":"中区安楽田多可町発電所","fuel":"solar","output":""}},{"type":"Feature","geometry":{"type":"Point","coordinates":[134.91871,35.07331]},"properties":{"name":"中区田野口多可町発電所","fuel":"solar","output":""}},{"type":"Feature","geometry":{"type":"Point","coordinates":[134.90296,35.06963]},"properties":{"name":"中区安楽田多可町発電所","fuel":"solar","output":""}},{"type":"Feature","geometry":{"type":"Point","coordinates":[134.90155,35.07462]},"properties":{"name":"中区安楽田多可町発電所","fuel":"solar","output":""}},{"type":"Feature","geometry":{"type":"Point","coordinates":[135.09188,35.11516]},"properties":{"name":"柏原町下小倉丹波市発電所","fuel":"solar","output":""}},{"type":"Feature","geometry":{"type":"Point","coordinates":[134.96571,34.95184]},"properties":{"name":"板波町加東市発電所","fuel":"solar","output":""}},{"type":"Feature","geometry":{"type":"Point","coordinates":[135.01483,35.24726]},"properties":{"name":"青垣町沢野丹波市発電所","fuel":"solar","output":""}},{"type":"Feature","geometry":{"type":"Point","coordinates":[135.04454,35.20458]},"properties":{"name":"丹波市発電所","fuel":"solar","output":""}},{"type":"Feature","geometry":{"type":"Point","coordinates":[134.7353,34.21865]},"properties":{"name":"阿万下町南あわじ市発電所","fuel":"solar","output":""}},{"type":"Feature","geometry":{"type":"Point","coordinates":[135.04245,35.18156]},"properties":{"name":"氷上町立氷上中学校","fuel":"solar","output":""}},{"type":"Feature","geometry":{"type":"Point","coordinates":[134.74983,34.19578]},"properties":{"name":"灘地野南あわじ市発電所","fuel":"solar","output":""}},{"type":"Feature","geometry":{"type":"Point","coordinates":[134.81811,34.2124]},"properties":{"name":"灘山本南あわじ市発電所","fuel":"solar","output":""}},{"type":"Feature","geometry":{"type":"Point","coordinates":[134.80586,34.30251]},"properties":{"name":"八木養宜上南あわじ市発電所","fuel":"solar","output":""}},{"type":"Feature","geometry":{"type":"Point","coordinates":[134.81291,34.3052]},"properties":{"name":"中条徳原南あわじ市発電所","fuel":"solar","output":""}},{"type":"Feature","geometry":{"type":"Point","coordinates":[134.8145,34.3083]},"properties":{"name":"中条広田南あわじ市発電所","fuel":"solar","output":""}},{"type":"Feature","geometry":{"type":"Point","coordinates":[134.81438,34.30704]},"properties":{"name":"中条徳原南あわじ市発電所","fuel":"solar","output":""}},{"type":"Feature","geometry":{"type":"Point","coordinates":[134.83188,34.31635]},"properties":{"name":"株式会社玉岡屋","fuel":"solar","output":""}},{"type":"Feature","geometry":{"type":"Point","coordinates":[134.84566,34.32989]},"properties":{"name":"大野洲本市発電所","fuel":"solar","output":""}},{"type":"Feature","geometry":{"type":"Point","coordinates":[134.84523,34.33264]},"properties":{"name":"山添南あわじ市発電所","fuel":"solar","output":""}},{"type":"Feature","geometry":{"type":"Point","coordinates":[135.95766,35.05045]},"properties":{"name":"上寺町草津市発電所","fuel":"solar","output":""}},{"type":"Feature","geometry":{"type":"Point","coordinates":[135.98118,34.98443]},"properties":{"name":"草津市立クリーンセンター","fuel":"","output":""}},{"type":"Feature","geometry":{"type":"Point","coordinates":[135.32213,34.77115]},"properties":{"name":"北山町西宮市発電所","fuel":"solar","output":""}},{"type":"Feature","geometry":{"type":"Point","coordinates":[134.78627,34.74414]},"properties":{"name":"T-Point (Tomoni) Power Plant","fuel":"https://www.gem.wiki/T-Point_2_power_station;https://power.mhi.com/products/gasturbines/technology/validate","output":""}},{"type":"Feature","geometry":{"type":"Point","coordinates":[134.88831,34.77147]},"properties":{"name":"神野町福留加古川市発電所","fuel":"solar","output":""}},{"type":"Feature","geometry":{"type":"Point","coordinates":[134.88699,34.77127]},"properties":{"name":"関西_34.7713_134.8870","fuel":"solar","output":""}},{"type":"Feature","geometry":{"type":"Point","coordinates":[134.91018,34.78529]},"properties":{"name":"八幡町下村加古川市発電所","fuel":"solar","output":""}},{"type":"Feature","geometry":{"type":"Point","coordinates":[134.91018,34.78525]},"properties":{"name":"八幡町下村加古川市発電所","fuel":"solar","output":""}},{"type":"Feature","geometry":{"type":"Point","coordinates":[134.91016,34.7852]},"properties":{"name":"八幡町下村加古川市発電所","fuel":"solar","output":""}},{"type":"Feature","geometry":{"type":"Point","coordinates":[134.91015,34.78516]},"properties":{"name":"八幡町下村加古川市発電所","fuel":"solar","output":""}},{"type":"Feature","geometry":{"type":"Point","coordinates":[134.91015,34.78521]},"properties":{"name":"八幡町下村加古川市発電所","fuel":"solar","output":""}},{"type":"Feature","geometry":{"type":"Point","coordinates":[134.92189,34.7968]},"properties":{"name":"八幡町宗佐加古川市発電所","fuel":"solar","output":""}},{"type":"Feature","geometry":{"type":"Point","coordinates":[134.91932,34.7887]},"properties":{"name":"八幡町下村加古川市発電所","fuel":"solar","output":""}},{"type":"Feature","geometry":{"type":"Point","coordinates":[134.92211,34.78075]},"properties":{"name":"八幡町野村加古川市発電所","fuel":"solar","output":""}},{"type":"Feature","geometry":{"type":"Point","coordinates":[134.9222,34.77885]},"properties":{"name":"八幡町野村加古川市発電所","fuel":"solar","output":""}},{"type":"Feature","geometry":{"type":"Point","coordinates":[134.92767,34.77846]},"properties":{"name":"下草谷加古川市発電所","fuel":"solar","output":""}},{"type":"Feature","geometry":{"type":"Point","coordinates":[135.90842,35.5653]},"properties":{"name":"生倉若狭町発電所","fuel":"solar","output":""}},{"type":"Feature","geometry":{"type":"Point","coordinates":[134.88226,34.7538]},"properties":{"name":"中一色稲美町発電所","fuel":"solar","output":""}},{"type":"Feature","geometry":{"type":"Point","coordinates":[136.58056,34.48016]},"properties":{"name":"玉城町発電所","fuel":"solar","output":""}},{"type":"Feature","geometry":{"type":"Point","coordinates":[136.58193,34.4802]},"properties":{"name":"玉城町発電所","fuel":"solar","output":""}},{"type":"Feature","geometry":{"type":"Point","coordinates":[134.83178,34.78515]},"properties":{"name":"東神吉町砂部加古川市発電所","fuel":"solar","output":""}},{"type":"Feature","geometry":{"type":"Point","coordinates":[134.8309,34.78575]},"properties":{"name":"東神吉町砂部加古川市発電所","fuel":"solar","output":""}},{"type":"Feature","geometry":{"type":"Point","coordinates":[134.83091,34.78566]},"properties":{"name":"東神吉町砂部加古川市発電所","fuel":"solar","output":""}},{"type":"Feature","geometry":{"type":"Point","coordinates":[134.8309,34.78559]},"properties":{"name":"東神吉町砂部加古川市発電所","fuel":"solar","output":""}},{"type":"Feature","geometry":{"type":"Point","coordinates":[134.83089,34.78553]},"properties":{"name":"東神吉町砂部加古川市発電所","fuel":"solar","output":""}},{"type":"Feature","geometry":{"type":"Point","coordinates":[134.83087,34.78547]},"properties":{"name":"東神吉町砂部加古川市発電所","fuel":"solar","output":""}},{"type":"Feature","geometry":{"type":"Point","coordinates":[134.83101,34.78602]},"properties":{"name":"東神吉町砂部加古川市発電所","fuel":"solar","output":""}},{"type":"Feature","geometry":{"type":"Point","coordinates":[134.83092,34.78576]},"properties":{"name":"東神吉町砂部加古川市発電所","fuel":"solar","output":""}},{"type":"Feature","geometry":{"type":"Point","coordinates":[134.8309,34.78558]},"properties":{"name":"東神吉町砂部加古川市発電所","fuel":"solar","output":""}},{"type":"Feature","geometry":{"type":"Point","coordinates":[134.83118,34.78479]},"properties":{"name":"東神吉町砂部加古川市発電所","fuel":"solar","output":""}},{"type":"Feature","geometry":{"type":"Point","coordinates":[134.76238,34.97248]},"properties":{"name":"山崎福崎町発電所","fuel":"solar","output":""}},{"type":"Feature","geometry":{"type":"Point","coordinates":[135.37083,33.68442]},"properties":{"name":"堅田白浜町発電所","fuel":"solar","output":""}},{"type":"Feature","geometry":{"type":"Point","coordinates":[134.83938,34.78462]},"properties":{"name":"東神吉町出河原加古川市発電所","fuel":"solar","output":""}},{"type":"Feature","geometry":{"type":"Point","coordinates":[134.83976,34.78352]},"properties":{"name":"東神吉町出河原加古川市発電所","fuel":"solar","output":""}},{"type":"Feature","geometry":{"type":"Point","coordinates":[134.83939,34.78296]},"properties":{"name":"東神吉町出河原加古川市発電所","fuel":"solar","output":""}},{"type":"Feature","geometry":{"type":"Point","coordinates":[134.8935,34.7665]},"properties":{"name":"稲美町発電所","fuel":"solar","output":""}},{"type":"Feature","geometry":{"type":"Point","coordinates":[134.89503,34.77058]},"properties":{"name":"稲美町発電所","fuel":"solar","output":""}},{"type":"Feature","geometry":{"type":"Point","coordinates":[134.84035,34.78286]},"properties":{"name":"東神吉町出河原加古川市発電所","fuel":"solar","output":""}},{"type":"Feature","geometry":{"type":"Point","coordinates":[134.84025,34.7832]},"properties":{"name":"東神吉町出河原加古川市発電所","fuel":"solar","output":""}},{"type":"Feature","geometry":{"type":"Point","coordinates":[134.84068,34.78084]},"properties":{"name":"東神吉町出河原加古川市発電所","fuel":"solar","output":""}},{"type":"Feature","geometry":{"type":"Point","coordinates":[134.88908,34.80136]},"properties":{"name":"上荘町薬栗加古川市発電所","fuel":"solar","output":""}},{"type":"Feature","geometry":{"type":"Point","coordinates":[135.47331,33.73348]},"properties":{"name":"下鮎川上富田町発電所","fuel":"solar","output":""}},{"type":"Feature","geometry":{"type":"Point","coordinates":[134.91803,34.80534]},"properties":{"name":"上荘町井ノ口加古川市発電所","fuel":"solar","output":""}},{"type":"Feature","geometry":{"type":"Point","coordinates":[134.92573,34.80607]},"properties":{"name":"加古川市発電所","fuel":"solar","output":""}},{"type":"Feature","geometry":{"type":"Point","coordinates":[134.92518,34.80504]},"properties":{"name":"八幡町宗佐加古川市発電所","fuel":"solar","output":""}},{"type":"Feature","geometry":{"type":"Point","coordinates":[134.92366,34.80181]},"properties":{"name":"八幡町宗佐加古川市発電所","fuel":"solar","output":""}},{"type":"Feature","geometry":{"type":"Point","coordinates":[134.92369,34.80239]},"properties":{"name":"八幡町宗佐加古川市発電所","fuel":"solar","output":""}},{"type":"Feature","geometry":{"type":"Point","coordinates":[134.9233,34.8023]},"properties":{"name":"八幡町宗佐加古川市発電所","fuel":"solar","output":""}},{"type":"Feature","geometry":{"type":"Point","coordinates":[134.92435,34.80054]},"properties":{"name":"八幡町宗佐加古川市発電所","fuel":"solar","output":""}},{"type":"Feature","geometry":{"type":"Point","coordinates":[134.92376,34.8007]},"properties":{"name":"八幡町宗佐加古川市発電所","fuel":"solar","output":""}},{"type":"Feature","geometry":{"type":"Point","coordinates":[134.92401,34.80088]},"properties":{"name":"八幡町宗佐加古川市発電所","fuel":"solar","output":""}},{"type":"Feature","geometry":{"type":"Point","coordinates":[134.92188,34.80061]},"properties":{"name":"八幡町宗佐加古川市発電所","fuel":"solar","output":""}},{"type":"Feature","geometry":{"type":"Point","coordinates":[134.92151,34.80049]},"properties":{"name":"八幡町宗佐加古川市発電所","fuel":"solar","output":""}},{"type":"Feature","geometry":{"type":"Point","coordinates":[134.92135,34.80345]},"properties":{"name":"上荘町国包加古川市発電所","fuel":"solar","output":""}},{"type":"Feature","geometry":{"type":"Point","coordinates":[134.92212,34.8021]},"properties":{"name":"八幡町宗佐加古川市発電所","fuel":"solar","output":""}},{"type":"Feature","geometry":{"type":"Point","coordinates":[134.92221,34.80232]},"properties":{"name":"八幡町宗佐加古川市発電所","fuel":"solar","output":""}},{"type":"Feature","geometry":{"type":"Point","coordinates":[134.92191,34.80242]},"properties":{"name":"八幡町宗佐加古川市発電所","fuel":"solar","output":""}},{"type":"Feature","geometry":{"type":"Point","coordinates":[134.89835,34.76996]},"properties":{"name":"稲美町発電所","fuel":"solar","output":""}},{"type":"Feature","geometry":{"type":"Point","coordinates":[134.86603,34.72751]},"properties":{"name":"播磨町健康いきいきセンター","fuel":"solar","output":""}},{"type":"Feature","geometry":{"type":"Point","coordinates":[134.79184,34.80123]},"properties":{"name":"阿弥陀町北山高砂市発電所","fuel":"solar","output":""}},{"type":"Feature","geometry":{"type":"Point","coordinates":[134.89745,34.76947]},"properties":{"name":"稲美町発電所","fuel":"solar","output":""}},{"type":"Feature","geometry":{"type":"Point","coordinates":[134.89558,34.76876]},"properties":{"name":"稲美町発電所","fuel":"solar","output":""}},{"type":"Feature","geometry":{"type":"Point","coordinates":[134.88016,34.77725]},"properties":{"name":"神野町神野加古川市発電所","fuel":"solar","output":""}},{"type":"Feature","geometry":{"type":"Point","coordinates":[134.88985,34.77442]},"properties":{"name":"山手一丁目加古川市発電所","fuel":"solar","output":""}},{"type":"Feature","geometry":{"type":"Point","coordinates":[134.86278,34.77347]},"properties":{"name":"加古川町大野加古川市発電所","fuel":"solar","output":""}},{"type":"Feature","geometry":{"type":"Point","coordinates":[134.86621,34.76489]},"properties":{"name":"ハリマエムアイディ発電所","fuel":"solar","output":""}},{"type":"Feature","geometry":{"type":"Point","coordinates":[134.87093,34.76925]},"properties":{"name":"神野町石守三丁目加古川市発電所","fuel":"solar","output":""}},{"type":"Feature","geometry":{"type":"Point","coordinates":[134.78867,34.80014]},"properties":{"name":"阿弥陀町北池高砂市発電所","fuel":"solar","output":""}},{"type":"Feature","geometry":{"type":"Point","coordinates":[134.78813,34.79999]},"properties":{"name":"阿弥陀町北池高砂市発電所","fuel":"solar","output":""}},{"type":"Feature","geometry":{"type":"Point","coordinates":[134.78801,34.80075]},"properties":{"name":"阿弥陀町北山高砂市発電所","fuel":"solar","output":""}},{"type":"Feature","geometry":{"type":"Point","coordinates":[134.90134,34.76749]},"properties":{"name":"稲美町発電所","fuel":"solar","output":""}},{"type":"Feature","geometry":{"type":"Point","coordinates":[134.90086,34.77027]},"properties":{"name":"稲美町発電所","fuel":"solar","output":""}},{"type":"Feature","geometry":{"type":"Point","coordinates":[134.8969,34.7684]},"properties":{"name":"稲美町発電所","fuel":"solar","output":""}},{"type":"Feature","geometry":{"type":"Point","coordinates":[134.8989,34.76574]},"properties":{"name":"北山稲美町発電所","fuel":"solar","output":""}},{"type":"Feature","geometry":{"type":"Point","coordinates":[135.81368,34.71163]},"properties":{"name":"佐保台三丁目奈良市発電所","fuel":"solar","output":""}},{"type":"Feature","geometry":{"type":"Point","coordinates":[134.78684,34.78598]},"properties":{"name":"阿弥陀町南池高砂市発電所","fuel":"solar","output":""}},{"type":"Feature","geometry":{"type":"Point","coordinates":[135.75895,34.74646]},"properties":{"name":"光台三丁目精華町発電所","fuel":"solar","output":""}},{"type":"Feature","geometry":{"type":"Point","coordinates":[135.8302,34.71151]},"properties":{"name":"青山一丁目奈良市発電所","fuel":"solar","output":""}},{"type":"Feature","geometry":{"type":"Point","coordinates":[135.81718,34.71276]},"properties":{"name":"州見台七丁目木津川市発電所","fuel":"solar","output":""}},{"type":"Feature","geometry":{"type":"Point","coordinates":[135.80852,34.70625]},"properties":{"name":"佐保台一丁目奈良市発電所","fuel":"solar","output":""}},{"type":"Feature","geometry":{"type":"Point","coordinates":[135.77474,34.75301]},"properties":{"name":"精華台五丁目精華町発電所","fuel":"solar","output":""}},{"type":"Feature","geometry":{"type":"Point","coordinates":[134.78296,34.79926]},"properties":{"name":"阿弥陀町阿弥陀高砂市発電所","fuel":"solar","output":""}},{"type":"Feature","geometry":{"type":"Point","coordinates":[134.50081,34.15523]},"properties":{"name":"大麻町板東鳴門市発電所","fuel":"solar","output":""}},{"type":"Feature","geometry":{"type":"Point","coordinates":[134.52857,34.15207]},"properties":{"name":"大麻町高畑鳴門市発電所","fuel":"solar","output":""}},{"type":"Feature","geometry":{"type":"Point","coordinates":[134.5388,34.15855]},"properties":{"name":"大麻町松村鳴門市発電所","fuel":"solar","output":""}},{"type":"Feature","geometry":{"type":"Point","coordinates":[134.54749,34.15877]},"properties":{"name":"大麻町姫田鳴門市発電所","fuel":"solar","output":""}},{"type":"Feature","geometry":{"type":"Point","coordinates":[134.55414,34.16089]},"properties":{"name":"大麻町姫田鳴門市発電所","fuel":"solar","output":""}},{"type":"Feature","geometry":{"type":"Point","coordinates":[134.55262,34.16029]},"properties":{"name":"大麻町姫田鳴門市発電所","fuel":"solar","output":""}},{"type":"Feature","geometry":{"type":"Point","coordinates":[134.56329,34.16395]},"properties":{"name":"大津町大代鳴門市発電所","fuel":"solar","output":""}},{"type":"Feature","geometry":{"type":"Point","coordinates":[134.56778,34.16526]},"properties":{"name":"鳴門市発電所","fuel":"solar","output":""}},{"type":"Feature","geometry":{"type":"Point","coordinates":[134.59069,34.17193]},"properties":{"name":"撫養町木津鳴門市発電所","fuel":"solar","output":""}},{"type":"Feature","geometry":{"type":"Point","coordinates":[134.57692,34.16704]},"properties":{"name":"撫養町木津鳴門市発電所","fuel":"solar","output":""}},{"type":"Feature","geometry":{"type":"Point","coordinates":[134.54042,34.15777]},"properties":{"name":"大麻町松村鳴門市発電所","fuel":"solar","output":""}},{"type":"Feature","geometry":{"type":"Point","coordinates":[134.53859,34.15776]},"properties":{"name":"大麻町松村鳴門市発電所","fuel":"solar","output":""}},{"type":"Feature","geometry":{"type":"Point","coordinates":[134.53955,34.15747]},"properties":{"name":"大麻町松村鳴門市発電所","fuel":"solar","output":""}},{"type":"Feature","geometry":{"type":"Point","coordinates":[134.51249,34.15545]},"properties":{"name":"大麻町萩原鳴門市発電所","fuel":"solar","output":""}},{"type":"Feature","geometry":{"type":"Point","coordinates":[134.76294,34.77282]},"properties":{"name":"大塩町宮前姫路市発電所","fuel":"solar","output":""}},{"type":"Feature","geometry":{"type":"Point","coordinates":[134.76342,34.7759]},"properties":{"name":"大塩町宮前姫路市発電所","fuel":"solar","output":""}},{"type":"Feature","geometry":{"type":"Point","coordinates":[135.42407,34.67911]},"properties":{"name":"酉島エネルギーセンター","fuel":"gas","output":""}},{"type":"Feature","geometry":{"type":"Point","coordinates":[134.75023,34.77573]},"properties":{"name":"大塩町汐咲三丁目姫路市発電所","fuel":"solar","output":""}},{"type":"Feature","geometry":{"type":"Point","coordinates":[135.82489,34.7402]},"properties":{"name":"木津駅前一丁目木津川市発電所","fuel":"solar","output":""}},{"type":"Feature","geometry":{"type":"Point","coordinates":[135.8247,34.73956]},"properties":{"name":"木津駅前一丁目木津川市発電所","fuel":"solar","output":""}},{"type":"Feature","geometry":{"type":"Point","coordinates":[135.81446,34.7504]},"properties":{"name":"山城町上狛木津川市発電所","fuel":"solar","output":""}},{"type":"Feature","geometry":{"type":"Point","coordinates":[135.82939,34.75168]},"properties":{"name":"木津川市発電所","fuel":"solar","output":""}},{"type":"Feature","geometry":{"type":"Point","coordinates":[134.78495,34.79158]},"properties":{"name":"阿弥陀町南池高砂市発電所","fuel":"solar","output":""}},{"type":"Feature","geometry":{"type":"Point","coordinates":[135.83102,34.72363]},"properties":{"name":"城山台十三丁目木津川市発電所","fuel":"solar","output":""}},{"type":"Feature","geometry":{"type":"Point","coordinates":[134.82322,34.74014]},"properties":{"name":"尾上町池田加古川市発電所","fuel":"solar","output":""}},{"type":"Feature","geometry":{"type":"Point","coordinates":[134.82323,34.74021]},"properties":{"name":"尾上町池田加古川市発電所","fuel":"solar","output":""}},{"type":"Feature","geometry":{"type":"Point","coordinates":[134.82317,34.74028]},"properties":{"name":"尾上町池田加古川市発電所","fuel":"solar","output":""}},{"type":"Feature","geometry":{"type":"Point","coordinates":[134.82312,34.74035]},"properties":{"name":"尾上町池田加古川市発電所","fuel":"solar","output":""}},{"type":"Feature","geometry":{"type":"Point","coordinates":[134.82313,34.74042]},"properties":{"name":"尾上町池田加古川市発電所","fuel":"solar","output":""}},{"type":"Feature","geometry":{"type":"Point","coordinates":[135.79324,34.76653]},"properties":{"name":"祝園精華町発電所","fuel":"solar","output":""}},{"type":"Feature","geometry":{"type":"Point","coordinates":[135.77538,34.77088]},"properties":{"name":"南稲八妻精華町発電所","fuel":"solar","output":""}},{"type":"Feature","geometry":{"type":"Point","coordinates":[135.77644,34.76942]},"properties":{"name":"南稲八妻精華町発電所","fuel":"solar","output":""}},{"type":"Feature","geometry":{"type":"Point","coordinates":[135.79518,34.78249]},"properties":{"name":"菱田精華町発電所","fuel":"solar","output":""}},{"type":"Feature","geometry":{"type":"Point","coordinates":[136.22519,35.50725]},"properties":{"name":"木之本町木之本長浜市発電所","fuel":"solar","output":""}},{"type":"Feature","geometry":{"type":"Point","coordinates":[134.90131,34.76422]},"properties":{"name":"北山稲美町発電所","fuel":"solar","output":""}},{"type":"Feature","geometry":{"type":"Point","coordinates":[135.27884,35.48214]},"properties":{"name":"石浦舞鶴市発電所","fuel":"solar","output":""}},{"type":"Feature","geometry":{"type":"Point","coordinates":[134.778,34.78403]},"properties":{"name":"伊保町中筋高砂市発電所","fuel":"solar","output":""}},{"type":"Feature","geometry":{"type":"Point","coordinates":[134.77385,34.78508]},"properties":{"name":"伊保町中筋高砂市発電所","fuel":"solar","output":""}},{"type":"Feature","geometry":{"type":"Point","coordinates":[135.27641,35.46028]},"properties":{"name":"丸田舞鶴市発電所","fuel":"solar","output":""}},{"type":"Feature","geometry":{"type":"Point","coordinates":[135.79733,34.63838]},"properties":{"name":"若槻町大和郡山市発電所","fuel":"solar","output":""}},{"type":"Feature","geometry":{"type":"Point","coordinates":[134.77981,34.79117]},"properties":{"name":"中筋三丁目高砂市発電所","fuel":"solar","output":""}},{"type":"Feature","geometry":{"type":"Point","coordinates":[135.77603,34.62465]},"properties":{"name":"北西町大和郡山市発電所","fuel":"solar","output":""}},{"type":"Feature","geometry":{"type":"Point","coordinates":[135.03196,35.67323]},"properties":{"name":"網野町京丹後市発電所","fuel":"solar","output":""}},{"type":"Feature","geometry":{"type":"Point","coordinates":[135.73488,34.91794]},"properties":{"name":"南部クリーンセンター第二工場","fuel":"waste","output":""}},{"type":"Feature","geometry":{"type":"Point","coordinates":[134.88817,34.7352]},"properties":{"name":"和田稲美町発電所","fuel":"solar","output":""}},{"type":"Feature","geometry":{"type":"Point","coordinates":[134.88742,34.74348]},"properties":{"name":"幸竹稲美町発電所","fuel":"solar","output":""}},{"type":"Feature","geometry":{"type":"Point","coordinates":[135.77546,35.01587]},"properties":{"name":"関西電力夷川発電所","fuel":"hydro","output":""}},{"type":"Feature","geometry":{"type":"Point","coordinates":[135.09901,35.57919]},"properties":{"name":"大宮町京丹後市発電所","fuel":"solar","output":""}},{"type":"Feature","geometry":{"type":"Point","coordinates":[135.07099,35.61038]},"properties":{"name":"峰山町菅京丹後市発電所","fuel":"solar","output":""}},