{"type":"FeatureCollection","features":[{"type":"Feature","geometry":{"type":"Point","coordinates":[129.83543,33.51516]},"properties":{"name":"玄海原子力発電所","fuel":"nuclear","output":""}},{"type":"Feature","geometry":{"type":"Point","coordinates":[130.83691,33.34347]},"properties":{"name":"九州電力 夜明水力発電所","fuel":"hydro","output":""}},{"type":"Feature","geometry":{"type":"Point","coordinates":[131.68348,33.12184]},"properties":{"name":"梅が丘二丁目大分市発電所","fuel":"solar","output":""}},{"type":"Feature","geometry":{"type":"Point","coordinates":[130.88534,33.30443]},"properties":{"name":"柳又水力発電所","fuel":"hydro","output":""}},{"type":"Feature","geometry":{"type":"Point","coordinates":[130.32237,33.21457]},"properties":{"name":"九州ソーラーファーム3 川副発電所","fuel":"solar","output":""}},{"type":"Feature","geometry":{"type":"Point","coordinates":[130.1894,31.83333]},"properties":{"name":"川内原子力発電所","fuel":"nuclear","output":""}},{"type":"Feature","geometry":{"type":"Point","coordinates":[130.70438,32.42419]},"properties":{"name":"大平水力発電所","fuel":"hydro","output":""}},{"type":"Feature","geometry":{"type":"Point","coordinates":[130.04179,32.48526]},"properties":{"name":"苓北火力発電所","fuel":"coal","output":""}},{"type":"Feature","geometry":{"type":"Point","coordinates":[131.18736,33.10517]},"properties":{"name":"八丁原地熱発電所","fuel":"geothermal","output":""}},{"type":"Feature","geometry":{"type":"Point","coordinates":[130.97424,33.29416]},"properties":{"name":"女子畑水力発電所","fuel":"hydro","output":""}},{"type":"Feature","geometry":{"type":"Point","coordinates":[131.70689,33.26798]},"properties":{"name":"新大分火力発電所","fuel":"gas","output":""}},{"type":"Feature","geometry":{"type":"Point","coordinates":[129.68229,33.35071]},"properties":{"name":"九州電力 松浦火力発電所","fuel":"coal","output":""}},{"type":"Feature","geometry":{"type":"Point","coordinates":[129.69195,33.35628]},"properties":{"name":"電源開発 松浦火力発電所","fuel":"coal","output":""}},{"type":"Feature","geometry":{"type":"Point","coordinates":[131.11908,33.62609]},"properties":{"name":"豊前火力発電所","fuel":"oil","output":""}},{"type":"Feature","geometry":{"type":"Point","coordinates":[131.00298,34.00201]},"properties":{"name":"下関火力発電所","fuel":"coal;oil","output":""}},{"type":"Feature","geometry":{"type":"Point","coordinates":[129.64885,33.19648]},"properties":{"name":"相浦火力発電所","fuel":"oil","output":""}},{"type":"Feature","geometry":{"type":"Point","coordinates":[129.5976,32.93758]},"properties":{"name":"松島火力発電所","fuel":"coal","output":""}},{"type":"Feature","geometry":{"type":"Point","coordinates":[129.77793,33.77941]},"properties":{"name":"新壱岐発電所","fuel":"diesel","output":""}},{"type":"Feature","geometry":{"type":"Point","coordinates":[130.77908,33.17688]},"properties":{"name":"大渕発電所","fuel":"hydro","output":""}},{"type":"Feature","geometry":{"type":"Point","coordinates":[130.71199,33.20645]},"properties":{"name":"木屋発電所","fuel":"hydro","output":""}},{"type":"Feature","geometry":{"type":"Point","coordinates":[131.32391,32.19467]},"properties":{"name":"一ツ瀬水力発電所","fuel":"hydro","output":""}},{"type":"Feature","geometry":{"type":"Point","coordinates":[131.17321,32.47473]},"properties":{"name":"上椎葉水力発電所","fuel":"hydro","output":""}},{"type":"Feature","geometry":{"type":"Point","coordinates":[130.11048,33.33955]},"properties":{"name":"天山水力発電所","fuel":"hydro","output":""}},{"type":"Feature","geometry":{"type":"Point","coordinates":[130.09677,33.32689]},"properties":{"name":"厳木発電所","fuel":"hydro","output":""}},{"type":"Feature","geometry":{"type":"Point","coordinates":[130.11198,33.35063]},"properties":{"name":"厳木第二発電所","fuel":"hydro","output":""}},{"type":"Feature","geometry":{"type":"Point","coordinates":[130.79986,31.93365]},"properties":{"name":"大霧地熱発電所","fuel":"geothermal","output":""}},{"type":"Feature","geometry":{"type":"Point","coordinates":[131.24375,32.49025]},"properties":{"name":"岩屋戸水力発電所","fuel":"hydro","output":""}},{"type":"Feature","geometry":{"type":"Point","coordinates":[130.82302,32.39987]},"properties":{"name":"頭地発電所","fuel":"hydro","output":""}},{"type":"Feature","geometry":{"type":"Point","coordinates":[130.49391,31.98756]},"properties":{"name":"川内川第一水力発電所","fuel":"hydro","output":""}},{"type":"Feature","geometry":{"type":"Point","coordinates":[130.42093,33.00841]},"properties":{"name":"シグマパワー有明三池発電所","fuel":"coal","output":""}},{"type":"Feature","geometry":{"type":"Point","coordinates":[130.42098,33.01047]},"properties":{"name":"九州電力 メガソーラー 大牟田","fuel":"solar","output":""}},{"type":"Feature","geometry":{"type":"Point","coordinates":[130.42166,33.02012]},"properties":{"name":"シグマパワー有明三川発電所","fuel":"coal","output":""}},{"type":"Feature","geometry":{"type":"Point","coordinates":[130.52582,31.46691]},"properties":{"name":"鹿児島七ツ島メガソーラー発電所","fuel":"solar","output":""}},{"type":"Feature","geometry":{"type":"Point","coordinates":[130.41556,33.07998]},"properties":{"name":"九州ソーラーファーム7 みやま合同発電所","fuel":"solar","output":""}},{"type":"Feature","geometry":{"type":"Point","coordinates":[130.67228,32.71279]},"properties":{"name":"南区熊本市発電所","fuel":"solar","output":""}},{"type":"Feature","geometry":{"type":"Point","coordinates":[130.41708,33.16982]},"properties":{"name":"三橋町高畑柳川市発電所","fuel":"solar","output":""}},{"type":"Feature","geometry":{"type":"Point","coordinates":[130.92957,33.93461]},"properties":{"name":"彦島江の浦町七丁目下関市発電所","fuel":"","output":""}},{"type":"Feature","geometry":{"type":"Point","coordinates":[130.4179,33.63976]},"properties":{"name":"臨海工場","fuel":"waste","output":""}},{"type":"Feature","geometry":{"type":"Point","coordinates":[130.49807,31.57009]},"properties":{"name":"南国殖産山田町発電所","fuel":"solar","output":""}},{"type":"Feature","geometry":{"type":"Point","coordinates":[130.38697,31.62753]},"properties":{"name":"やまとソーラープラント伊集院","fuel":"solar","output":""}},{"type":"Feature","geometry":{"type":"Point","coordinates":[130.78552,32.64425]},"properties":{"name":"馬場美里町発電所","fuel":"solar","output":""}},{"type":"Feature","geometry":{"type":"Point","coordinates":[130.78578,32.64373]},"properties":{"name":"馬場美里町発電所","fuel":"solar","output":""}},{"type":"Feature","geometry":{"type":"Point","coordinates":[131.85097,34.01138]},"properties":{"name":"下松火力発電所","fuel":"oil","output":""}},{"type":"Feature","geometry":{"type":"Point","coordinates":[130.7971,32.65378]},"properties":{"name":"美里町発電所","fuel":"solar","output":""}},{"type":"Feature","geometry":{"type":"Point","coordinates":[131.20815,33.20298]},"properties":{"name":"町田第二発電所","fuel":"hydro","output":""}},{"type":"Feature","geometry":{"type":"Point","coordinates":[131.19358,33.17981]},"properties":{"name":"町田第一発電所","fuel":"hydro","output":""}},{"type":"Feature","geometry":{"type":"Point","coordinates":[131.20489,33.22481]},"properties":{"name":"九州電力 野上発電所","fuel":"hydro","output":""}},{"type":"Feature","geometry":{"type":"Point","coordinates":[130.61461,31.19055]},"properties":{"name":"山川発電所","fuel":"geothermal","output":""}},{"type":"Feature","geometry":{"type":"Point","coordinates":[130.2003,31.85879]},"properties":{"name":"川内発電所","fuel":"oil","output":""}},{"type":"Feature","geometry":{"type":"Point","coordinates":[131.27299,33.21151]},"properties":{"name":"九州電力 滝上発電所","fuel":"geothermal","output":""}},{"type":"Feature","geometry":{"type":"Point","coordinates":[130.80519,32.63412]},"properties":{"name":"萱野美里町発電所","fuel":"solar","output":""}},{"type":"Feature","geometry":{"type":"Point","coordinates":[131.36363,32.34045]},"properties":{"name":"渡川発電所","fuel":"hydro","output":""}},{"type":"Feature","geometry":{"type":"Point","coordinates":[132.04505,34.20131]},"properties":{"name":"生見川ダム","fuel":"hydro","output":""}},{"type":"Feature","geometry":{"type":"Point","coordinates":[130.94604,32.87485]},"properties":{"name":"黒川第三発電所","fuel":"hydro","output":""}},{"type":"Feature","geometry":{"type":"Point","coordinates":[130.96101,32.87363]},"properties":{"name":"白川発電所","fuel":"hydro","output":""}},{"type":"Feature","geometry":{"type":"Point","coordinates":[130.95811,32.87409]},"properties":{"name":"黒川第二発電所","fuel":"hydro","output":""}},{"type":"Feature","geometry":{"type":"Point","coordinates":[130.97003,32.87498]},"properties":{"name":"黒川第一発電所","fuel":"hydro","output":""}},{"type":"Feature","geometry":{"type":"Point","coordinates":[130.68796,32.68697]},"properties":{"name":"岩古曽町宇土市発電所","fuel":"solar","output":""}},{"type":"Feature","geometry":{"type":"Point","coordinates":[130.84735,32.87297]},"properties":{"name":"菊陽町発電所","fuel":"solar","output":""}},{"type":"Feature","geometry":{"type":"Point","coordinates":[130.86678,32.79954]},"properties":{"name":"堂園益城町発電所","fuel":"solar","output":""}},{"type":"Feature","geometry":{"type":"Point","coordinates":[130.87263,32.82934]},"properties":{"name":"株式会社熊本商品リサイクル市場","fuel":"solar","output":""}},{"type":"Feature","geometry":{"type":"Point","coordinates":[131.54919,32.98985]},"properties":{"name":"沈堕発電所","fuel":"hydro","output":""}},{"type":"Feature","geometry":{"type":"Point","coordinates":[130.45537,31.89934]},"properties":{"name":"さんSUNさつま","fuel":"solar","output":""}},{"type":"Feature","geometry":{"type":"Point","coordinates":[131.35255,33.52224]},"properties":{"name":"大字法鏡寺宇佐市発電所","fuel":"solar","output":""}},{"type":"Feature","geometry":{"type":"Point","coordinates":[130.84356,31.65223]},"properties":{"name":"鹿児島県霧島市太陽光発電所","fuel":"solar","output":""}},{"type":"Feature","geometry":{"type":"Point","coordinates":[131.03227,31.67322]},"properties":{"name":"都城市発電所","fuel":"solar","output":""}},{"type":"Feature","geometry":{"type":"Point","coordinates":[131.03401,33.25723]},"properties":{"name":"湯山発電所","fuel":"hydro","output":""}},{"type":"Feature","geometry":{"type":"Point","coordinates":[130.99391,33.19496]},"properties":{"name":"松原水力発電所","fuel":"hydro","output":""}},{"type":"Feature","geometry":{"type":"Point","coordinates":[130.97258,33.75957]},"properties":{"name":"桜ヶ丘苅田町発電所","fuel":"solar","output":""}},{"type":"Feature","geometry":{"type":"Point","coordinates":[130.9675,33.76232]},"properties":{"name":"大字尾倉苅田町発電所","fuel":"solar","output":""}},{"type":"Feature","geometry":{"type":"Point","coordinates":[130.96704,33.76093]},"properties":{"name":"大字尾倉苅田町発電所","fuel":"","output":""}},{"type":"Feature","geometry":{"type":"Point","coordinates":[130.97808,33.79751]},"properties":{"name":"若久町一丁目苅田町発電所","fuel":"","output":""}},{"type":"Feature","geometry":{"type":"Point","coordinates":[130.6138,33.83599]},"properties":{"name":"海老津三丁目岡垣町発電所","fuel":"","output":""}},{"type":"Feature","geometry":{"type":"Point","coordinates":[130.61219,33.83175]},"properties":{"name":"岡垣町発電所","fuel":"solar","output":""}},{"type":"Feature","geometry":{"type":"Point","coordinates":[130.42319,33.04277]},"properties":{"name":"ソーラーパネル発電所","fuel":"solar","output":""}},{"type":"Feature","geometry":{"type":"Point","coordinates":[130.80261,33.89711]},"properties":{"name":"修多羅二丁目北九州市発電所","fuel":"","output":""}},{"type":"Feature","geometry":{"type":"Point","coordinates":[130.69317,33.85155]},"properties":{"name":"頃末南三丁目水巻町発電所","fuel":"","output":""}},{"type":"Feature","geometry":{"type":"Point","coordinates":[131.35143,33.52126]},"properties":{"name":"大字別府宇佐市発電所","fuel":"solar","output":""}},{"type":"Feature","geometry":{"type":"Point","coordinates":[130.32001,33.19115]},"properties":{"name":"田中佐賀市発電所","fuel":"solar","output":""}},{"type":"Feature","geometry":{"type":"Point","coordinates":[130.30718,33.21418]},"properties":{"name":"野々古賀佐賀市発電所","fuel":"solar","output":""}},{"type":"Feature","geometry":{"type":"Point","coordinates":[130.33033,33.18798]},"properties":{"name":"和崎佐賀市発電所","fuel":"solar","output":""}},{"type":"Feature","geometry":{"type":"Point","coordinates":[130.20991,33.3728]},"properties":{"name":"矢櫃佐賀市発電所","fuel":"hydro","output":""}},{"type":"Feature","geometry":{"type":"Point","coordinates":[130.78822,33.92143]},"properties":{"name":"若松区北九州市発電所","fuel":"solar","output":""}},{"type":"Feature","geometry":{"type":"Point","coordinates":[130.79266,33.92131]},"properties":{"name":"若松区北九州市発電所","fuel":"solar","output":""}},{"type":"Feature","geometry":{"type":"Point","coordinates":[130.79223,33.92188]},"properties":{"name":"若松区北九州市発電所","fuel":"solar","output":""}},{"type":"Feature","geometry":{"type":"Point","coordinates":[130.32585,33.18912]},"properties":{"name":"犬井道佐賀市発電所","fuel":"solar","output":""}},{"type":"Feature","geometry":{"type":"Point","coordinates":[131.31327,33.53358]},"properties":{"name":"宇佐市発電所","fuel":"solar","output":""}},{"type":"Feature","geometry":{"type":"Point","coordinates":[131.31069,33.53259]},"properties":{"name":"宇佐市発電所","fuel":"solar","output":""}},{"type":"Feature","geometry":{"type":"Point","coordinates":[131.31195,33.53371]},"properties":{"name":"宇佐市発電所","fuel":"solar","output":""}},{"type":"Feature","geometry":{"type":"Point","coordinates":[130.35104,31.41273]},"properties":{"name":"万之瀬水力発電所","fuel":"hydro","output":""}},{"type":"Feature","geometry":{"type":"Point","coordinates":[130.72269,31.73307]},"properties":{"name":"DREAM Solar 霧島隼人Ⅰ･Ⅱ","fuel":"solar","output":""}},{"type":"Feature","geometry":{"type":"Point","coordinates":[130.84694,33.92619]},"properties":{"name":"戸畑共同火力発電所","fuel":"gas;coal","output":""}},{"type":"Feature","geometry":{"type":"Point","coordinates":[130.86018,33.90831]},"properties":{"name":"新小倉火力発電所","fuel":"gas","output":""}},{"type":"Feature","geometry":{"type":"Point","coordinates":[130.368,31.6329]},"properties":{"name":"大田発電所","fuel":"hydro","output":""}},{"type":"Feature","geometry":{"type":"Point","coordinates":[130.75704,31.81272]},"properties":{"name":"霧島市発電所","fuel":"","output":""}},{"type":"Feature","geometry":{"type":"Point","coordinates":[130.2774,31.34782]},"properties":{"name":"上野風力発電所","fuel":"solar","output":""}},{"type":"Feature","geometry":{"type":"Point","coordinates":[130.73713,31.83417]},"properties":{"name":"塩浸発電所","fuel":"hydro","output":""}},{"type":"Feature","geometry":{"type":"Point","coordinates":[130.38713,31.62452]},"properties":{"name":"日置市発電所","fuel":"solar","output":""}},{"type":"Feature","geometry":{"type":"Point","coordinates":[130.35075,31.49695]},"properties":{"name":"吹上町中之里日置市発電所","fuel":"solar","output":""}},{"type":"Feature","geometry":{"type":"Point","coordinates":[130.35381,31.59621]},"properties":{"name":"日吉町日置日置市発電所","fuel":"solar","output":""}},{"type":"Feature","geometry":{"type":"Point","coordinates":[130.31083,31.41556]},"properties":{"name":"加世田白亀南さつま市発電所","fuel":"solar","output":""}},{"type":"Feature","geometry":{"type":"Point","coordinates":[130.34984,31.49509]},"properties":{"name":"吹上町中之里日置市発電所","fuel":"solar","output":""}},{"type":"Feature","geometry":{"type":"Point","coordinates":[130.27863,31.34846]},"properties":{"name":"上野風力発電所","fuel":"solar","output":""}},{"type":"Feature","geometry":{"type":"Point","coordinates":[131.07965,31.75257]},"properties":{"name":"祝吉都城市発電所","fuel":"solar","output":""}},{"type":"Feature","geometry":{"type":"Point","coordinates":[131.07957,31.75206]},"properties":{"name":"祝吉都城市発電所","fuel":"solar","output":""}},{"type":"Feature","geometry":{"type":"Point","coordinates":[130.69483,33.6375]},"properties":{"name":"FAS芳雄太陽光パーク","fuel":"solar","output":""}},{"type":"Feature","geometry":{"type":"Point","coordinates":[131.72215,33.25928]},"properties":{"name":"大字横田大分市発電所","fuel":"solar","output":""}},{"type":"Feature","geometry":{"type":"Point","coordinates":[130.10416,32.41965]},"properties":{"name":"天草市発電所","fuel":"","output":""}},{"type":"Feature","geometry":{"type":"Point","coordinates":[130.11446,32.4148]},"properties":{"name":"天草市発電所","fuel":"","output":""}},{"type":"Feature","geometry":{"type":"Point","coordinates":[130.70114,31.74179]},"properties":{"name":"メガソーラーパーク霧島隼人発電所","fuel":"solar","output":""}},{"type":"Feature","geometry":{"type":"Point","coordinates":[130.26594,33.33137]},"properties":{"name":"出羽佐賀市発電所","fuel":"hydro","output":""}},{"type":"Feature","geometry":{"type":"Point","coordinates":[130.66069,33.5829]},"properties":{"name":"大字豆田桂川町発電所","fuel":"","output":""}},{"type":"Feature","geometry":{"type":"Point","coordinates":[130.24751,33.34875]},"properties":{"name":"湯の原佐賀市発電所","fuel":"hydro","output":""}},{"type":"Feature","geometry":{"type":"Point","coordinates":[130.24806,33.34759]},"properties":{"name":"湯の原佐賀市発電所","fuel":"hydro","output":""}},{"type":"Feature","geometry":{"type":"Point","coordinates":[130.33851,31.59218]},"properties":{"name":"日吉町神之川日置市発電所","fuel":"solar","output":""}},{"type":"Feature","geometry":{"type":"Point","coordinates":[130.50849,31.49839]},"properties":{"name":"坂之上五丁目鹿児島市発電所","fuel":"solar","output":""}},{"type":"Feature","geometry":{"type":"Point","coordinates":[130.83449,32.98986]},"properties":{"name":"木庭菊池市発電所","fuel":"solar","output":""}},{"type":"Feature","geometry":{"type":"Point","coordinates":[130.23138,33.36579]},"properties":{"name":"下小副川佐賀市発電所","fuel":"hydro","output":""}},{"type":"Feature","geometry":{"type":"Point","coordinates":[130.20446,33.54845]},"properties":{"name":"篠原西一丁目糸島市発電所","fuel":"solar","output":""}},{"type":"Feature","geometry":{"type":"Point","coordinates":[130.70618,33.6711]},"properties":{"name":"鯰田飯塚市発電所","fuel":"","output":""}},{"type":"Feature","geometry":{"type":"Point","coordinates":[130.70932,33.67067]},"properties":{"name":"鯰田飯塚市発電所","fuel":"","output":""}},{"type":"Feature","geometry":{"type":"Point","coordinates":[130.69265,33.61614]},"properties":{"name":"南尾飯塚市発電所","fuel":"solar","output":""}},{"type":"Feature","geometry":{"type":"Point","coordinates":[130.71996,33.63841]},"properties":{"name":"有安飯塚市発電所","fuel":"","output":""}},{"type":"Feature","geometry":{"type":"Point","coordinates":[131.12184,31.7661]},"properties":{"name":"三股町発電所","fuel":"solar","output":""}},{"type":"Feature","geometry":{"type":"Point","coordinates":[130.47692,31.56178]},"properties":{"name":"皇徳寺台五丁目鹿児島市発電所","fuel":"solar","output":""}},{"type":"Feature","geometry":{"type":"Point","coordinates":[130.51306,33.20489]},"properties":{"name":"野町筑後市発電所","fuel":"solar","output":""}},{"type":"Feature","geometry":{"type":"Point","coordinates":[130.33497,31.43044]},"properties":{"name":"加世田村原南さつま市発電所","fuel":"solar","output":""}},{"type":"Feature","geometry":{"type":"Point","coordinates":[130.541,31.20187]},"properties":{"name":"指宿市発電所","fuel":"solar","output":""}},{"type":"Feature","geometry":{"type":"Point","coordinates":[130.41284,31.25954]},"properties":{"name":"南九州市発電所","fuel":"solar","output":""}},{"type":"Feature","geometry":{"type":"Point","coordinates":[130.47288,31.24782]},"properties":{"name":"南九州市発電所","fuel":"solar","output":""}},{"type":"Feature","geometry":{"type":"Point","coordinates":[130.41291,31.26893]},"properties":{"name":"南九州市発電所","fuel":"solar","output":""}},{"type":"Feature","geometry":{"type":"Point","coordinates":[130.26798,31.26294]},"properties":{"name":"大塚南町枕崎市発電所","fuel":"solar","output":""}},{"type":"Feature","geometry":{"type":"Point","coordinates":[130.26826,31.26362]},"properties":{"name":"大塚南町枕崎市発電所","fuel":"solar","output":""}},{"type":"Feature","geometry":{"type":"Point","coordinates":[130.4866,33.20651]},"properties":{"name":"長崎筑後市発電所","fuel":"solar","output":""}},{"type":"Feature","geometry":{"type":"Point","coordinates":[130.31507,31.25958]},"properties":{"name":"社会福祉法人富士福祉会障害者支援施設ふじ美の里","fuel":"solar","output":""}},{"type":"Feature","geometry":{"type":"Point","coordinates":[130.35292,31.54923]},"properties":{"name":"日置市発電所","fuel":"solar","output":""}},{"type":"Feature","geometry":{"type":"Point","coordinates":[130.39825,31.61147]},"properties":{"name":"伊集院町古城日置市発電所","fuel":"solar","output":""}},{"type":"Feature","geometry":{"type":"Point","coordinates":[130.5109,33.23152]},"properties":{"name":"筑後市発電所","fuel":"solar","output":""}},{"type":"Feature","geometry":{"type":"Point","coordinates":[130.50971,33.22925]},"properties":{"name":"熊野筑後市発電所","fuel":"solar","output":""}},{"type":"Feature","geometry":{"type":"Point","coordinates":[130.48308,31.70212]},"properties":{"name":"鹿児島市発電所","fuel":"solar","output":""}},{"type":"Feature","geometry":{"type":"Point","coordinates":[130.48168,31.703]},"properties":{"name":"鹿児島市発電所","fuel":"solar","output":""}},{"type":"Feature","geometry":{"type":"Point","coordinates":[130.22728,33.4298]},"properties":{"name":"小関発電所","fuel":"hydro","output":""}},{"type":"Feature","geometry":{"type":"Point","coordinates":[130.47735,31.5993]},"properties":{"name":"五ケ別府町鹿児島市発電所","fuel":"solar","output":""}},{"type":"Feature","geometry":{"type":"Point","coordinates":[130.47623,31.5977]},"properties":{"name":"五ケ別府町鹿児島市発電所","fuel":"solar","output":""}},{"type":"Feature","geometry":{"type":"Point","coordinates":[130.58801,31.6752]},"properties":{"name":"牟礼ヶ岡風力発電所","fuel":"solar","output":""}},{"type":"Feature","geometry":{"type":"Point","coordinates":[130.48368,33.23226]},"properties":{"name":"町筑後市発電所","fuel":"solar","output":""}},{"type":"Feature","geometry":{"type":"Point","coordinates":[130.47582,33.34253]},"properties":{"name":"三島町於保里鳥栖市発電所","fuel":"solar","output":""}},{"type":"Feature","geometry":{"type":"Point","coordinates":[130.48631,31.52617]},"properties":{"name":"上福元町鹿児島市発電所","fuel":"solar","output":""}},{"type":"Feature","geometry":{"type":"Point","coordinates":[130.50489,33.21409]},"properties":{"name":"徳久筑後市発電所","fuel":"solar","output":""}},{"type":"Feature","geometry":{"type":"Point","coordinates":[130.4902,33.18599]},"properties":{"name":"常用筑後市発電所","fuel":"solar","output":""}},{"type":"Feature","geometry":{"type":"Point","coordinates":[130.50263,33.237]},"properties":{"name":"蔵数筑後市発電所","fuel":"solar","output":""}},{"type":"Feature","geometry":{"type":"Point","coordinates":[130.48913,33.21449]},"properties":{"name":"若菜筑後市発電所","fuel":"solar","output":""}},{"type":"Feature","geometry":{"type":"Point","coordinates":[130.4894,33.21465]},"properties":{"name":"若菜筑後市発電所","fuel":"solar","output":""}},{"type":"Feature","geometry":{"type":"Point","coordinates":[130.49596,33.21252]},"properties":{"name":"若菜筑後市発電所","fuel":"solar","output":""}},{"type":"Feature","geometry":{"type":"Point","coordinates":[130.40591,31.71893]},"properties":{"name":"九州おひさま発電","fuel":"solar","output":""}},{"type":"Feature","geometry":{"type":"Point","coordinates":[130.72026,33.62465]},"properties":{"name":"市営大坪住宅","fuel":"solar","output":""}},{"type":"Feature","geometry":{"type":"Point","coordinates":[130.72397,33.62578]},"properties":{"name":"市営大坪住宅","fuel":"solar","output":""}},{"type":"Feature","geometry":{"type":"Point","coordinates":[130.72713,33.62694]},"properties":{"name":"市営大坪住宅","fuel":"solar","output":""}},{"type":"Feature","geometry":{"type":"Point","coordinates":[130.72792,33.62553]},"properties":{"name":"市営大坪住宅","fuel":"solar","output":""}},{"type":"Feature","geometry":{"type":"Point","coordinates":[130.7284,33.62609]},"properties":{"name":"市営大坪住宅","fuel":"solar","output":""}},{"type":"Feature","geometry":{"type":"Point","coordinates":[130.51855,33.22845]},"properties":{"name":"八女西部クリーンセンター","fuel":"solar","output":""}},{"type":"Feature","geometry":{"type":"Point","coordinates":[130.60099,31.65064]},"properties":{"name":"吉野町鹿児島市発電所","fuel":"solar","output":""}},{"type":"Feature","geometry":{"type":"Point","coordinates":[130.58976,31.6565]},"properties":{"name":"吉野町鹿児島市発電所","fuel":"solar","output":""}},{"type":"Feature","geometry":{"type":"Point","coordinates":[130.82441,31.69148]},"properties":{"name":"やまとソーラープラント牧之原","fuel":"solar","output":""}},{"type":"Feature","geometry":{"type":"Point","coordinates":[130.5111,33.21981]},"properties":{"name":"前津筑後市発電所","fuel":"solar","output":""}},{"type":"Feature","geometry":{"type":"Point","coordinates":[130.50544,33.19965]},"properties":{"name":"植松筑後市発電所","fuel":"solar","output":""}},{"type":"Feature","geometry":{"type":"Point","coordinates":[130.51603,33.19618]},"properties":{"name":"新溝筑後市発電所","fuel":"solar","output":""}},{"type":"Feature","geometry":{"type":"Point","coordinates":[130.51332,33.20578]},"properties":{"name":"野町筑後市発電所","fuel":"solar","output":""}},{"type":"Feature","geometry":{"type":"Point","coordinates":[130.84197,31.81248]},"properties":{"name":"霧島大窪霧島市発電所","fuel":"solar","output":""}},{"type":"Feature","geometry":{"type":"Point","coordinates":[131.05642,31.77855]},"properties":{"name":"都城市発電所","fuel":"solar","output":""}},{"type":"Feature","geometry":{"type":"Point","coordinates":[131.08793,31.85405]},"properties":{"name":"都城市発電所","fuel":"solar","output":""}},{"type":"Feature","geometry":{"type":"Point","coordinates":[130.52352,33.18427]},"properties":{"name":"溝口筑後市発電所","fuel":"solar","output":""}},{"type":"Feature","geometry":{"type":"Point","coordinates":[130.50771,33.19933]},"properties":{"name":"植松筑後市発電所","fuel":"solar","output":""}},{"type":"Feature","geometry":{"type":"Point","coordinates":[131.06943,31.80021]},"properties":{"name":"都城市発電所","fuel":"solar","output":""}},{"type":"Feature","geometry":{"type":"Point","coordinates":[131.13352,31.91942]},"properties":{"name":"大淀川第一発電所","fuel":"hydro","output":""}},{"type":"Feature","geometry":{"type":"Point","coordinates":[130.51025,33.23392]},"properties":{"name":"筑後市発電所","fuel":"solar","output":""}},{"type":"Feature","geometry":{"type":"Point","coordinates":[131.17526,33.9846]},"properties":{"name":"高栄一丁目山陽小野田市発電所","fuel":"solar","output":""}},{"type":"Feature","geometry":{"type":"Point","coordinates":[130.48561,33.20897]},"properties":{"name":"長崎筑後市発電所","fuel":"solar","output":""}},{"type":"Feature","geometry":{"type":"Point","coordinates":[130.48693,33.20631]},"properties":{"name":"長崎筑後市発電所","fuel":"solar","output":""}},{"type":"Feature","geometry":{"type":"Point","coordinates":[130.50288,33.23045]},"properties":{"name":"熊野筑後市発電所","fuel":"solar","output":""}},{"type":"Feature","geometry":{"type":"Point","coordinates":[130.50395,33.22995]},"properties":{"name":"熊野筑後市発電所","fuel":"solar","output":""}},{"type":"Feature","geometry":{"type":"Point","coordinates":[131.39885,32.22818]},"properties":{"name":"石河内第二発電所","fuel":"hydro","output":""}},{"type":"Feature","geometry":{"type":"Point","coordinates":[131.38138,32.26251]},"properties":{"name":"石河内第一発電所","fuel":"hydro","output":""}},{"type":"Feature","geometry":{"type":"Point","coordinates":[130.47929,33.22281]},"properties":{"name":"高江筑後市発電所","fuel":"solar","output":""}},{"type":"Feature","geometry":{"type":"Point","coordinates":[130.47706,33.22409]},"properties":{"name":"高江筑後市発電所","fuel":"solar","output":""}},{"type":"Feature","geometry":{"type":"Point","coordinates":[130.57647,31.30631]},"properties":{"name":"喜入生見町鹿児島市発電所","fuel":"solar","output":""}},{"type":"Feature","geometry":{"type":"Point","coordinates":[130.59787,31.28089]},"properties":{"name":"指宿市発電所","fuel":"solar","output":""}},{"type":"Feature","geometry":{"type":"Point","coordinates":[130.64619,31.25032]},"properties":{"name":"大牟礼四丁目指宿市発電所","fuel":"solar","output":""}},{"type":"Feature","geometry":{"type":"Point","coordinates":[130.49814,31.32544]},"properties":{"name":"南九州市発電所","fuel":"solar","output":""}},{"type":"Feature","geometry":{"type":"Point","coordinates":[130.50235,31.32377]},"properties":{"name":"南九州市発電所","fuel":"solar","output":""}},{"type":"Feature","geometry":{"type":"Point","coordinates":[130.50024,31.32377]},"properties":{"name":"南九州市発電所","fuel":"solar","output":""}},{"type":"Feature","geometry":{"type":"Point","coordinates":[130.50104,31.32179]},"properties":{"name":"南九州市発電所","fuel":"solar","output":""}},{"type":"Feature","geometry":{"type":"Point","coordinates":[130.49978,31.31995]},"properties":{"name":"南九州市発電所","fuel":"solar","output":""}},{"type":"Feature","geometry":{"type":"Point","coordinates":[130.49786,31.32089]},"properties":{"name":"南九州市発電所","fuel":"solar","output":""}},{"type":"Feature","geometry":{"type":"Point","coordinates":[130.49332,31.32094]},"properties":{"name":"南九州市発電所","fuel":"solar","output":""}},{"type":"Feature","geometry":{"type":"Point","coordinates":[130.46662,31.25669]},"properties":{"name":"頴娃町御領南九州市発電所","fuel":"solar","output":""}},{"type":"Feature","geometry":{"type":"Point","coordinates":[130.4658,31.25232]},"properties":{"name":"南九州市発電所","fuel":"solar","output":""}},{"type":"Feature","geometry":{"type":"Point","coordinates":[130.4669,31.25052]},"properties":{"name":"南九州市発電所","fuel":"solar","output":""}},{"type":"Feature","geometry":{"type":"Point","coordinates":[131.12052,33.62833]},"properties":{"name":"豊前蓄電池変電所","fuel":"battery","output":""}},{"type":"Feature","geometry":{"type":"Point","coordinates":[131.64919,33.26858]},"properties":{"name":"大分共同発電所","fuel":"gas;oil","output":""}},{"type":"Feature","geometry":{"type":"Point","coordinates":[131.19081,33.12063]},"properties":{"name":"大岳発電所","fuel":"geothermal","output":""}},{"type":"Feature","geometry":{"type":"Point","coordinates":[131.13942,33.16649]},"properties":{"name":"菅原バイナリー発電所","fuel":"geothermal","output":""}},{"type":"Feature","geometry":{"type":"Point","coordinates":[129.841,32.72475]},"properties":{"name":"木鉢町一丁目長崎市発電所","fuel":"solar","output":""}},{"type":"Feature","geometry":{"type":"Point","coordinates":[129.847,32.72466]},"properties":{"name":"西泊町長崎市発電所","fuel":"solar","output":""}},{"type":"Feature","geometry":{"type":"Point","coordinates":[131.1304,32.28462]},"properties":{"name":"槇之口発電所","fuel":"hydro","output":""}},{"type":"Feature","geometry":{"type":"Point","coordinates":[131.15072,32.22863]},"properties":{"name":"村所発電所","fuel":"hydro","output":""}},{"type":"Feature","geometry":{"type":"Point","coordinates":[129.76298,33.80094]},"properties":{"name":"芦辺発電所","fuel":"diesel","output":""}},{"type":"Feature","geometry":{"type":"Point","coordinates":[130.54515,31.37213]},"properties":{"name":"喜入鹿児島市発電所","fuel":"solar","output":""}},{"type":"Feature","geometry":{"type":"Point","coordinates":[130.54497,31.3719]},"properties":{"name":"喜入鹿児島市発電所","fuel":"solar","output":""}},{"type":"Feature","geometry":{"type":"Point","coordinates":[130.46168,33.18026]},"properties":{"name":"馬間田筑後市発電所","fuel":"solar","output":""}},{"type":"Feature","geometry":{"type":"Point","coordinates":[131.06268,31.69772]},"properties":{"name":"下長飯町都城市発電所","fuel":"solar","output":""}},{"type":"Feature","geometry":{"type":"Point","coordinates":[130.48944,33.1761]},"properties":{"name":"津島西筑後市発電所","fuel":"solar","output":""}},{"type":"Feature","geometry":{"type":"Point","coordinates":[130.80217,33.31991]},"properties":{"name":"小塩発電所","fuel":"hydro","output":""}},{"type":"Feature","geometry":{"type":"Point","coordinates":[131.29497,32.71476]},"properties":{"name":"九州_32.7148_131.2950","fuel":"hydro","output":""}},{"type":"Feature","geometry":{"type":"Point","coordinates":[131.22705,33.16291]},"properties":{"name":"九重町発電所","fuel":"hydro","output":""}},{"type":"Feature","geometry":{"type":"Point","coordinates":[131.43484,32.17233]},"properties":{"name":"川原発電所","fuel":"hydro","output":""}},{"type":"Feature","geometry":{"type":"Point","coordinates":[131.35997,32.15714]},"properties":{"name":"杉安発電所","fuel":"hydro","output":""}},{"type":"Feature","geometry":{"type":"Point","coordinates":[131.37061,32.25107]},"properties":{"name":"小丸川水力発電所","fuel":"hydro","output":""}},{"type":"Feature","geometry":{"type":"Point","coordinates":[131.22948,32.02245]},"properties":{"name":"綾第二発電所","fuel":"hydro","output":""}},{"type":"Feature","geometry":{"type":"Point","coordinates":[131.24787,31.93621]},"properties":{"name":"大淀川第二水力発電所","fuel":"hydro","output":""}},{"type":"Feature","geometry":{"type":"Point","coordinates":[131.17344,32.08398]},"properties":{"name":"綾第一発電所","fuel":"hydro","output":""}},{"type":"Feature","geometry":{"type":"Point","coordinates":[131.31183,32.09023]},"properties":{"name":"三財発電所","fuel":"hydro","output":""}},{"type":"Feature","geometry":{"type":"Point","coordinates":[131.27966,32.12579]},"properties":{"name":"立花発電所","fuel":"hydro","output":""}},{"type":"Feature","geometry":{"type":"Point","coordinates":[131.12305,32.1352]},"properties":{"name":"田代八重発電所","fuel":"hydro","output":""}},{"type":"Feature","geometry":{"type":"Point","coordinates":[131.3252,32.50976]},"properties":{"name":"塚原発電所","fuel":"hydro","output":""}},{"type":"Feature","geometry":{"type":"Point","coordinates":[131.35134,32.50637]},"properties":{"name":"諸塚水力発電所","fuel":"hydro","output":""}},{"type":"Feature","geometry":{"type":"Point","coordinates":[131.15099,32.45871]},"properties":{"name":"上椎葉維持流量発電所","fuel":"hydro","output":""}},{"type":"Feature","geometry":{"type":"Point","coordinates":[131.37461,32.47638]},"properties":{"name":"山須原発電所","fuel":"hydro","output":""}},{"type":"Feature","geometry":{"type":"Point","coordinates":[131.42744,32.4484]},"properties":{"name":"西郷発電所","fuel":"hydro","output":""}},{"type":"Feature","geometry":{"type":"Point","coordinates":[131.48165,32.42914]},"properties":{"name":"大内原発電所","fuel":"hydro","output":""}},{"type":"Feature","geometry":{"type":"Point","coordinates":[131.19267,32.46661]},"properties":{"name":"間柏原発電所","fuel":"hydro","output":""}},{"type":"Feature","geometry":{"type":"Point","coordinates":[131.44596,32.61507]},"properties":{"name":"星山発電所","fuel":"hydro","output":""}},{"type":"Feature","geometry":{"type":"Point","coordinates":[131.39079,32.64297]},"properties":{"name":"五ヶ瀬川発電所","fuel":"hydro","output":""}},{"type":"Feature","geometry":{"type":"Point","coordinates":[131.43765,32.64502]},"properties":{"name":"新菅原発電所","fuel":"hydro","output":""}},{"type":"Feature","geometry":{"type":"Point","coordinates":[131.3252,32.68144]},"properties":{"name":"水ヶ崎発電所","fuel":"hydro","output":""}},{"type":"Feature","geometry":{"type":"Point","coordinates":[131.3936,32.66772]},"properties":{"name":"日之影発電所","fuel":"hydro","output":""}},{"type":"Feature","geometry":{"type":"Point","coordinates":[131.14348,32.3376]},"properties":{"name":"大河内椎葉村発電所","fuel":"hydro","output":""}},{"type":"Feature","geometry":{"type":"Point","coordinates":[130.85066,32.20137]},"properties":{"name":"一武錦町発電所","fuel":"solar","output":""}},{"type":"Feature","geometry":{"type":"Point","coordinates":[130.93015,32.26165]},"properties":{"name":"多良木町発電所","fuel":"solar","output":""}},{"type":"Feature","geometry":{"type":"Point","coordinates":[131.47482,32.25672]},"properties":{"name":"名貫川発電所","fuel":"hydro","output":""}},{"type":"Feature","geometry":{"type":"Point","coordinates":[131.22201,32.00583]},"properties":{"name":"南発電所","fuel":"hydro","output":""}},{"type":"Feature","geometry":{"type":"Point","coordinates":[131.14082,31.94171]},"properties":{"name":"岩瀬川発電所","fuel":"hydro","output":""}},{"type":"Feature","geometry":{"type":"Point","coordinates":[130.50441,33.18343]},"properties":{"name":"船小屋筑後市発電所","fuel":"solar","output":""}},{"type":"Feature","geometry":{"type":"Point","coordinates":[131.46305,32.98243]},"properties":{"name":"軸丸発電所","fuel":"hydro","output":""}},{"type":"Feature","geometry":{"type":"Point","coordinates":[131.41651,32.97276]},"properties":{"name":"竹田発電所","fuel":"hydro","output":""}},{"type":"Feature","geometry":{"type":"Point","coordinates":[131.64524,33.05925]},"properties":{"name":"大野川発電所","fuel":"hydro","output":""}},{"type":"Feature","geometry":{"type":"Point","coordinates":[131.18455,32.69934]},"properties":{"name":"回淵発電所","fuel":"hydro","output":""}},{"type":"Feature","geometry":{"type":"Point","coordinates":[131.189,32.72107]},"properties":{"name":"馬見原発電所","fuel":"hydro","output":""}},{"type":"Feature","geometry":{"type":"Point","coordinates":[131.18978,32.72141]},"properties":{"name":"三ヶ所発電所","fuel":"hydro","output":""}},{"type":"Feature","geometry":{"type":"Point","coordinates":[131.18366,32.72205]},"properties":{"name":"下滝下発電所","fuel":"hydro","output":""}},{"type":"Feature","geometry":{"type":"Point","coordinates":[131.19443,32.80215]},"properties":{"name":"白水発電所","fuel":"hydro","output":""}},{"type":"Feature","geometry":{"type":"Point","coordinates":[131.24828,32.74211]},"properties":{"name":"桑野内発電所","fuel":"hydro","output":""}},{"type":"Feature","geometry":{"type":"Point","coordinates":[130.95059,33.30186]},"properties":{"name":"三芳発電所","fuel":"hydro","output":""}},{"type":"Feature","geometry":{"type":"Point","coordinates":[130.68965,32.87282]},"properties":{"name":"北区熊本市発電所","fuel":"solar","output":""}},{"type":"Feature","geometry":{"type":"Point","coordinates":[129.60522,33.25039]},"properties":{"name":"小佐々町岳ノ木場佐世保市発電所","fuel":"solar","output":""}},{"type":"Feature","geometry":{"type":"Point","coordinates":[130.67189,33.00711]},"properties":{"name":"志々岐山鹿市発電所","fuel":"solar","output":""}},{"type":"Feature","geometry":{"type":"Point","coordinates":[130.65852,33.21303]},"properties":{"name":"黒木町桑原八女市発電所","fuel":"solar","output":""}},{"type":"Feature","geometry":{"type":"Point","coordinates":[130.65842,33.21277]},"properties":{"name":"黒木町桑原八女市発電所","fuel":"solar","output":""}},{"type":"Feature","geometry":{"type":"Point","coordinates":[130.85444,33.00247]},"properties":{"name":"菊池川第三発電所","fuel":"hydro","output":""}},{"type":"Feature","geometry":{"type":"Point","coordinates":[130.89131,33.01342]},"properties":{"name":"菊池川第二発電所","fuel":"hydro","output":""}},{"type":"Feature","geometry":{"type":"Point","coordinates":[130.82776,32.9885]},"properties":{"name":"菊池川第四発電所","fuel":"hydro","output":""}},{"type":"Feature","geometry":{"type":"Point","coordinates":[131.55757,34.14065]},"properties":{"name":"下小鯖山口市発電所","fuel":"solar","output":""}},{"type":"Feature","geometry":{"type":"Point","coordinates":[131.54481,34.14003]},"properties":{"name":"下小鯖山口市発電所","fuel":"solar","output":""}},{"type":"Feature","geometry":{"type":"Point","coordinates":[130.50591,31.65177]},"properties":{"name":"河頭発電所","fuel":"hydro","output":""}},{"type":"Feature","geometry":{"type":"Point","coordinates":[130.46248,33.22045]},"properties":{"name":"万才筑後市発電所","fuel":"solar","output":""}},{"type":"Feature","geometry":{"type":"Point","coordinates":[130.46239,33.22122]},"properties":{"name":"蛭池筑後市発電所","fuel":"solar","output":""}},{"type":"Feature","geometry":{"type":"Point","coordinates":[130.46158,33.21589]},"properties":{"name":"万才筑後市発電所","fuel":"solar","output":""}},{"type":"Feature","geometry":{"type":"Point","coordinates":[130.4629,33.21121]},"properties":{"name":"四ケ所筑後市発電所","fuel":"solar","output":""}},{"type":"Feature","geometry":{"type":"Point","coordinates":[130.4561,33.20183]},"properties":{"name":"井田筑後市発電所","fuel":"solar","output":""}},{"type":"Feature","geometry":{"type":"Point","coordinates":[130.45507,33.19984]},"properties":{"name":"井田筑後市発電所","fuel":"solar","output":""}},{"type":"Feature","geometry":{"type":"Point","coordinates":[130.45587,33.19938]},"properties":{"name":"井田筑後市発電所","fuel":"solar","output":""}},{"type":"Feature","geometry":{"type":"Point","coordinates":[130.49475,33.20231]},"properties":{"name":"筑後市発電所","fuel":"solar","output":""}},{"type":"Feature","geometry":{"type":"Point","coordinates":[130.49603,33.2021]},"properties":{"name":"野町筑後市発電所","fuel":"solar","output":""}},{"type":"Feature","geometry":{"type":"Point","coordinates":[130.49088,33.21108]},"properties":{"name":"和泉筑後市発電所","fuel":"solar","output":""}},{"type":"Feature","geometry":{"type":"Point","coordinates":[130.48648,33.20446]},"properties":{"name":"長崎筑後市発電所","fuel":"solar","output":""}},{"type":"Feature","geometry":{"type":"Point","coordinates":[130.48958,33.20446]},"properties":{"name":"下北島筑後市発電所","fuel":"solar","output":""}},{"type":"Feature","geometry":{"type":"Point","coordinates":[130.49315,33.21846]},"properties":{"name":"上久富筑後市発電所","fuel":"solar","output":""}},{"type":"Feature","geometry":{"type":"Point","coordinates":[130.4942,33.22465]},"properties":{"name":"熊野筑後市発電所","fuel":"solar","output":""}},{"type":"Feature","geometry":{"type":"Point","coordinates":[130.49396,33.22471]},"properties":{"name":"熊野筑後市発電所","fuel":"solar","output":""}},{"type":"Feature","geometry":{"type":"Point","coordinates":[130.49559,33.22606]},"properties":{"name":"熊野筑後市発電所","fuel":"solar","output":""}},{"type":"Feature","geometry":{"type":"Point","coordinates":[130.49601,33.22688]},"properties":{"name":"熊野筑後市発電所","fuel":"solar","output":""}},{"type":"Feature","geometry":{"type":"Point","coordinates":[130.49647,33.22643]},"properties":{"name":"上久富筑後市発電所","fuel":"solar","output":""}},{"type":"Feature","geometry":{"type":"Point","coordinates":[130.49954,33.22285]},"properties":{"name":"熊野筑後市発電所","fuel":"solar","output":""}},{"type":"Feature","geometry":{"type":"Point","coordinates":[130.51612,33.22211]},"properties":{"name":"八女西部クリーンセンター","fuel":"solar","output":""}},{"type":"Feature","geometry":{"type":"Point","coordinates":[130.51693,33.21991]},"properties":{"name":"八女西部クリーンセンター","fuel":"solar","output":""}},{"type":"Feature","geometry":{"type":"Point","coordinates":[130.42714,31.84869]},"properties":{"name":"さつま町発電所","fuel":"solar","output":""}},{"type":"Feature","geometry":{"type":"Point","coordinates":[130.50243,33.22281]},"properties":{"name":"筑後市発電所","fuel":"solar","output":""}},{"type":"Feature","geometry":{"type":"Point","coordinates":[130.50531,33.22327]},"properties":{"name":"熊野筑後市発電所","fuel":"solar","output":""}},{"type":"Feature","geometry":{"type":"Point","coordinates":[130.50571,33.22308]},"properties":{"name":"熊野筑後市発電所","fuel":"solar","output":""}},{"type":"Feature","geometry":{"type":"Point","coordinates":[130.50629,33.22422]},"properties":{"name":"上原々筑後市発電所","fuel":"solar","output":""}},{"type":"Feature","geometry":{"type":"Point","coordinates":[130.46733,33.18603]},"properties":{"name":"中牟田筑後市発電所","fuel":"solar","output":""}},{"type":"Feature","geometry":{"type":"Point","coordinates":[130.49042,33.24367]},"properties":{"name":"大字西牟田筑後市発電所","fuel":"solar","output":""}},{"type":"Feature","geometry":{"type":"Point","coordinates":[130.51568,33.12559]},"properties":{"name":"山川町清水みやま市発電所","fuel":"solar","output":""}},{"type":"Feature","geometry":{"type":"Point","coordinates":[130.51379,33.12386]},"properties":{"name":"山川町尾野みやま市発電所","fuel":"solar","output":""}},{"type":"Feature","geometry":{"type":"Point","coordinates":[130.51119,33.13614]},"properties":{"name":"みやま市発電所","fuel":"solar","output":""}},{"type":"Feature","geometry":{"type":"Point","coordinates":[130.51091,33.13658]},"properties":{"name":"山川町清水みやま市発電所","fuel":"solar","output":""}},{"type":"Feature","geometry":{"type":"Point","coordinates":[130.51287,33.13071]},"properties":{"name":"山川町尾野みやま市発電所","fuel":"solar","output":""}},{"type":"Feature","geometry":{"type":"Point","coordinates":[130.51251,33.13054]},"properties":{"name":"山川町尾野みやま市発電所","fuel":"solar","output":""}},{"type":"Feature","geometry":{"type":"Point","coordinates":[130.42899,31.93437]},"properties":{"name":"さつま町発電所","fuel":"solar","output":""}},{"type":"Feature","geometry":{"type":"Point","coordinates":[130.52314,33.12075]},"properties":{"name":"山川町原町みやま市発電所","fuel":"solar","output":""}},{"type":"Feature","geometry":{"type":"Point","coordinates":[130.5247,33.11949]},"properties":{"name":"山川町原町みやま市発電所","fuel":"solar","output":""}},{"type":"Feature","geometry":{"type":"Point","coordinates":[130.52893,33.11226]},"properties":{"name":"山川町原町みやま市発電所","fuel":"solar","output":""}},{"type":"Feature","geometry":{"type":"Point","coordinates":[130.5101,33.12937]},"properties":{"name":"山川町尾野みやま市発電所","fuel":"solar","output":""}},{"type":"Feature","geometry":{"type":"Point","coordinates":[130.50818,33.13095]},"properties":{"name":"山川町尾野みやま市発電所","fuel":"solar","output":""}},{"type":"Feature","geometry":{"type":"Point","coordinates":[129.64721,33.20406]},"properties":{"name":"相浦火力発電所","fuel":"solar","output":""}},{"type":"Feature","geometry":{"type":"Point","coordinates":[129.81089,33.17864]},"properties":{"name":"心野町佐世保市発電所","fuel":"solar","output":""}},{"type":"Feature","geometry":{"type":"Point","coordinates":[130.45613,33.14366]},"properties":{"name":"瀬高町高柳みやま市発電所","fuel":"solar","output":""}},{"type":"Feature","geometry":{"type":"Point","coordinates":[130.58987,31.68548]},"properties":{"name":"鹿児島市発電所","fuel":"solar","output":""}},{"type":"Feature","geometry":{"type":"Point","coordinates":[130.59354,31.68287]},"properties":{"name":"鹿児島市発電所","fuel":"solar","output":""}},{"type":"Feature","geometry":{"type":"Point","coordinates":[130.62678,31.18651]},"properties":{"name":"指宿市発電所","fuel":"solar","output":""}},{"type":"Feature","geometry":{"type":"Point","coordinates":[130.46618,33.21279]},"properties":{"name":"下富久筑後市発電所","fuel":"solar","output":""}},{"type":"Feature","geometry":{"type":"Point","coordinates":[130.46212,33.22129]},"properties":{"name":"蛭池筑後市発電所","fuel":"solar","output":""}},{"type":"Feature","geometry":{"type":"Point","coordinates":[130.49061,33.21667]},"properties":{"name":"上久富筑後市発電所","fuel":"solar","output":""}},{"type":"Feature","geometry":{"type":"Point","coordinates":[129.82374,32.80637]},"properties":{"name":"滑石ソーラーファーム","fuel":"solar","output":""}},{"type":"Feature","geometry":{"type":"Point","coordinates":[129.80019,32.85363]},"properties":{"name":"時津町発電所","fuel":"solar","output":""}},{"type":"Feature","geometry":{"type":"Point","coordinates":[130.85019,33.8616]},"properties":{"name":"泉台四丁目北九州市発電所","fuel":"solar","output":""}},{"type":"Feature","geometry":{"type":"Point","coordinates":[130.42978,33.0767]},"properties":{"name":"みやま市発電所","fuel":"solar","output":""}},{"type":"Feature","geometry":{"type":"Point","coordinates":[130.45651,31.2541]},"properties":{"name":"南九州市発電所","fuel":"solar","output":""}},{"type":"Feature","geometry":{"type":"Point","coordinates":[130.45827,31.25393]},"properties":{"name":"南九州市発電所","fuel":"solar","output":""}},{"type":"Feature","geometry":{"type":"Point","coordinates":[130.46668,31.25189]},"properties":{"name":"頴娃町御領南九州市発電所","fuel":"solar","output":""}},{"type":"Feature","geometry":{"type":"Point","coordinates":[130.62626,33.32235]},"properties":{"name":"草野町矢作久留米市発電所","fuel":"solar","output":""}},{"type":"Feature","geometry":{"type":"Point","coordinates":[130.71163,33.34898]},"properties":{"name":"田主丸町秋成久留米市発電所","fuel":"solar","output":""}},{"type":"Feature","geometry":{"type":"Point","coordinates":[130.7116,33.34891]},"properties":{"name":"田主丸町秋成久留米市発電所","fuel":"solar","output":""}},{"type":"Feature","geometry":{"type":"Point","coordinates":[130.71157,33.34884]},"properties":{"name":"田主丸町秋成久留米市発電所","fuel":"solar","output":""}},{"type":"Feature","geometry":{"type":"Point","coordinates":[130.71153,33.34878]},"properties":{"name":"田主丸町秋成久留米市発電所","fuel":"solar","output":""}},{"type":"Feature","geometry":{"type":"Point","coordinates":[130.51863,31.2701]},"properties":{"name":"南九州市発電所","fuel":"solar","output":""}},{"type":"Feature","geometry":{"type":"Point","coordinates":[130.76768,31.79315]},"properties":{"name":"隼人町松永霧島市発電所","fuel":"solar","output":""}},{"type":"Feature","geometry":{"type":"Point","coordinates":[130.68263,31.89478]},"properties":{"name":"横川町上ノ霧島市発電所","fuel":"solar","output":""}},{"type":"Feature","geometry":{"type":"Point","coordinates":[130.46908,31.95414]},"properties":{"name":"さつま町発電所","fuel":"hydro","output":""}},{"type":"Feature","geometry":{"type":"Point","coordinates":[130.47186,31.95738]},"properties":{"name":"さつま町発電所","fuel":"hydro","output":""}},{"type":"Feature","geometry":{"type":"Point","coordinates":[130.505,33.3984]},"properties":{"name":"神辺町鳥栖市発電所","fuel":"solar","output":""}},{"type":"Feature","geometry":{"type":"Point","coordinates":[130.65207,32.69271]},"properties":{"name":"高柳町宇土市発電所","fuel":"solar","output":""}},{"type":"Feature","geometry":{"type":"Point","coordinates":[130.50798,33.42474]},"properties":{"name":"園部基山町発電所","fuel":"solar","output":""}},{"type":"Feature","geometry":{"type":"Point","coordinates":[131.37125,33.54891]},"properties":{"name":"大字高森宇佐市発電所","fuel":"solar","output":""}},{"type":"Feature","geometry":{"type":"Point","coordinates":[130.78772,32.63985]},"properties":{"name":"馬場美里町発電所","fuel":"solar","output":""}},{"type":"Feature","geometry":{"type":"Point","coordinates":[131.03564,33.18206]},"properties":{"name":"杖立発電所","fuel":"hydro","output":""}},{"type":"Feature","geometry":{"type":"Point","coordinates":[130.54179,33.41369]},"properties":{"name":"小郡市発電所","fuel":"solar","output":""}},{"type":"Feature","geometry":{"type":"Point","coordinates":[131.03401,33.18201]},"properties":{"name":"杖立温泉熱バイナリー発電所","fuel":"geothermal","output":""}},{"type":"Feature","geometry":{"type":"Point","coordinates":[130.99596,33.80811]},"properties":{"name":"鳥越町苅田町発電所","fuel":"solar","output":""}},{"type":"Feature","geometry":{"type":"Point","coordinates":[130.48606,33.22959]},"properties":{"name":"筑後市発電所","fuel":"solar","output":""}},{"type":"Feature","geometry":{"type":"Point","coordinates":[131.86514,33.24938]},"properties":{"name":"古宮大分市発電所","fuel":"solar","output":""}},{"type":"Feature","geometry":{"type":"Point","coordinates":[130.99525,33.78779]},"properties":{"name":"苅田火力発電所","fuel":"solar","output":""}},{"type":"Feature","geometry":{"type":"Point","coordinates":[130.87103,31.71585]},"properties":{"name":"福山町佳例川霧島市発電所","fuel":"solar","output":""}},{"type":"Feature","geometry":{"type":"Point","coordinates":[131.00679,33.80974]},"properties":{"name":"苅田バイオマス発電所","fuel":"biomass","output":""}},{"type":"Feature","geometry":{"type":"Point","coordinates":[130.35061,33.36505]},"properties":{"name":"広滝第一発電所","fuel":"hydro","output":""}},{"type":"Feature","geometry":{"type":"Point","coordinates":[130.79055,33.94192]},"properties":{"name":"Orix Hibikinada Power Plant","fuel":"coal","output":""}},{"type":"Feature","geometry":{"type":"Point","coordinates":[131.68661,33.12363]},"properties":{"name":"大字杉原大分市発電所","fuel":"solar","output":""}},{"type":"Feature","geometry":{"type":"Point","coordinates":[131.58448,34.03951]},"properties":{"name":"Hofu Energy Service (Daini) Power Plant","fuel":"coal","output":""}},{"type":"Feature","geometry":{"type":"Point","coordinates":[131.98962,34.21259]},"properties":{"name":"中国電力錦川第二発電所","fuel":"hydro","output":""}},{"type":"Feature","geometry":{"type":"Point","coordinates":[131.75811,34.05483]},"properties":{"name":"Tosoh Nanyo Power Plant","fuel":"coal","output":""}},{"type":"Feature","geometry":{"type":"Point","coordinates":[130.15793,32.38757]},"properties":{"name":"大宮地川発電所","fuel":"hydro","output":""}},{"type":"Feature","geometry":{"type":"Point","coordinates":[130.50294,33.23689]},"properties":{"name":"蔵数筑後市発電所","fuel":"solar","output":""}},{"type":"Feature","geometry":{"type":"Point","coordinates":[130.50381,33.23708]},"properties":{"name":"赤坂筑後市発電所","fuel":"solar","output":""}},{"type":"Feature","geometry":{"type":"Point","coordinates":[130.5079,33.22868]},"properties":{"name":"熊野筑後市発電所","fuel":"solar","output":""}},{"type":"Feature","geometry":{"type":"Point","coordinates":[130.50956,33.22876]},"properties":{"name":"熊野筑後市発電所","fuel":"solar","output":""}},{"type":"Feature","geometry":{"type":"Point","coordinates":[130.50901,33.22877]},"properties":{"name":"熊野筑後市発電所","fuel":"solar","output":""}},{"type":"Feature","geometry":{"type":"Point","coordinates":[130.50953,33.23019]},"properties":{"name":"熊野筑後市発電所","fuel":"solar","output":""}},{"type":"Feature","geometry":{"type":"Point","coordinates":[130.51029,33.23065]},"properties":{"name":"筑後市発電所","fuel":"solar","output":""}},{"type":"Feature","geometry":{"type":"Point","coordinates":[130.5119,33.23016]},"properties":{"name":"筑後市発電所","fuel":"solar","output":""}},{"type":"Feature","geometry":{"type":"Point","coordinates":[130.51331,33.23073]},"properties":{"name":"欠塚筑後市発電所","fuel":"solar","output":""}},{"type":"Feature","geometry":{"type":"Point","coordinates":[130.51964,33.22886]},"properties":{"name":"八女西部クリーンセンター","fuel":"solar","output":""}},{"type":"Feature","geometry":{"type":"Point","coordinates":[131.7935,34.03553]},"properties":{"name":"Tokuyama Shunan Power East Power Plant","fuel":"biomass;coal","output":""}},{"type":"Feature","geometry":{"type":"Point","coordinates":[130.38193,33.34376]},"properties":{"name":"下志波屋神埼市発電所","fuel":"solar","output":""}},{"type":"Feature","geometry":{"type":"Point","coordinates":[130.38334,33.33999]},"properties":{"name":"竹原神埼市発電所","fuel":"solar","output":""}},{"type":"Feature","geometry":{"type":"Point","coordinates":[130.49333,31.66186]},"properties":{"name":"小山田発電所","fuel":"hydro","output":""}},{"type":"Feature","geometry":{"type":"Point","coordinates":[131.78232,33.15285]},"properties":{"name":"徳尾臼杵市発電所","fuel":"solar","output":""}},{"type":"Feature","geometry":{"type":"Point","coordinates":[129.82504,32.82242]},"properties":{"name":"時津町発電所","fuel":"solar","output":""}},{"type":"Feature","geometry":{"type":"Point","coordinates":[129.60154,32.88753]},"properties":{"name":"池島町長崎市発電所","fuel":"coal","output":""}},{"type":"Feature","geometry":{"type":"Point","coordinates":[129.60129,32.8876]},"properties":{"name":"池島町長崎市発電所","fuel":"","output":""}},{"type":"Feature","geometry":{"type":"Point","coordinates":[129.60108,32.88764]},"properties":{"name":"池島町長崎市発電所","fuel":"coal","output":""}},{"type":"Feature","geometry":{"type":"Point","coordinates":[129.60098,32.88779]},"properties":{"name":"池島町長崎市発電所","fuel":"coal","output":""}},{"type":"Feature","geometry":{"type":"Point","coordinates":[129.60132,32.88783]},"properties":{"name":"池島町長崎市発電所","fuel":"coal","output":""}},{"type":"Feature","geometry":{"type":"Point","coordinates":[129.60156,32.88781]},"properties":{"name":"池島町長崎市発電所","fuel":"coal","output":""}},{"type":"Feature","geometry":{"type":"Point","coordinates":[130.44945,33.3666]},"properties":{"name":"大字簑原みやき町発電所","fuel":"waste","output":""}},{"type":"Feature","geometry":{"type":"Point","coordinates":[129.86834,32.8473]},"properties":{"name":"環境科学試験所太陽光発電設備","fuel":"","output":""}},{"type":"Feature","geometry":{"type":"Point","coordinates":[130.66283,33.20839]},"properties":{"name":"黒木町桑原八女市発電所","fuel":"solar","output":""}},{"type":"Feature","geometry":{"type":"Point","coordinates":[130.65219,33.21026]},"properties":{"name":"八女市発電所","fuel":"solar","output":""}},{"type":"Feature","geometry":{"type":"Point","coordinates":[130.64861,33.20937]},"properties":{"name":"黒木町田本八女市発電所","fuel":"solar","output":""}},{"type":"Feature","geometry":{"type":"Point","coordinates":[130.65122,33.20779]},"properties":{"name":"八女市発電所","fuel":"solar","output":""}},{"type":"Feature","geometry":{"type":"Point","coordinates":[130.65508,33.20896]},"properties":{"name":"八女市発電所","fuel":"solar","output":""}},{"type":"Feature","geometry":{"type":"Point","coordinates":[130.51944,33.19734]},"properties":{"name":"新溝筑後市発電所","fuel":"solar","output":""}},{"type":"Feature","geometry":{"type":"Point","coordinates":[130.58305,33.24344]},"properties":{"name":"広川町発電所","fuel":"solar","output":""}},{"type":"Feature","geometry":{"type":"Point","coordinates":[130.58303,33.24331]},"properties":{"name":"大字水原広川町発電所","fuel":"solar","output":""}},{"type":"Feature","geometry":{"type":"Point","coordinates":[130.59764,33.23263]},"properties":{"name":"本八女市発電所","fuel":"solar","output":""}},{"type":"Feature","geometry":{"type":"Point","coordinates":[130.58243,33.23092]},"properties":{"name":"豊福八女市発電所","fuel":"solar","output":""}},{"type":"Feature","geometry":{"type":"Point","coordinates":[130.68686,33.18096]},"properties":{"name":"黒木町木屋八女市発電所","fuel":"solar","output":""}},{"type":"Feature","geometry":{"type":"Point","coordinates":[130.7518,31.48003]},"properties":{"name":"本城川発電所","fuel":"hydro","output":""}},{"type":"Feature","geometry":{"type":"Point","coordinates":[130.56834,33.21197]},"properties":{"name":"馬場八女市発電所","fuel":"solar","output":""}},{"type":"Feature","geometry":{"type":"Point","coordinates":[130.50963,33.24221]},"properties":{"name":"一条筑後市発電所","fuel":"solar","output":""}},{"type":"Feature","geometry":{"type":"Point","coordinates":[131.73779,33.17599]},"properties":{"name":"臼杵市発電所","fuel":"","output":""}},{"type":"Feature","geometry":{"type":"Point","coordinates":[130.50326,33.22447]},"properties":{"name":"熊野筑後市発電所","fuel":"solar","output":""}},{"type":"Feature","geometry":{"type":"Point","coordinates":[130.55097,33.26147]},"properties":{"name":"大字日吉広川町発電所","fuel":"solar","output":""}},{"type":"Feature","geometry":{"type":"Point","coordinates":[130.552,33.26034]},"properties":{"name":"大字日吉広川町発電所","fuel":"solar","output":""}},{"type":"Feature","geometry":{"type":"Point","coordinates":[130.55049,33.25977]},"properties":{"name":"大字日吉広川町発電所","fuel":"solar","output":""}},{"type":"Feature","geometry":{"type":"Point","coordinates":[130.53291,33.26129]},"properties":{"name":"大字藤田久留米市発電所","fuel":"solar","output":""}},{"type":"Feature","geometry":{"type":"Point","coordinates":[130.52938,33.269]},"properties":{"name":"久留米市上津クリーンセンター","fuel":"solar","output":""}},{"type":"Feature","geometry":{"type":"Point","coordinates":[130.5225,33.25829]},"properties":{"name":"大字藤田広川町発電所","fuel":"solar","output":""}},{"type":"Feature","geometry":{"type":"Point","coordinates":[130.52201,33.25794]},"properties":{"name":"大字藤田広川町発電所","fuel":"solar","output":""}},{"type":"Feature","geometry":{"type":"Point","coordinates":[130.52243,33.25737]},"properties":{"name":"大字藤田広川町発電所","fuel":"solar","output":""}},{"type":"Feature","geometry":{"type":"Point","coordinates":[130.45953,33.50668]},"properties":{"name":"クリーンエネパーク南部","fuel":"waste","output":""}},{"type":"Feature","geometry":{"type":"Point","coordinates":[130.45065,33.16847]},"properties":{"name":"三橋町久末柳川市発電所","fuel":"solar","output":""}},{"type":"Feature","geometry":{"type":"Point","coordinates":[130.45011,33.16942]},"properties":{"name":"三橋町久末柳川市発電所","fuel":"solar","output":""}},{"type":"Feature","geometry":{"type":"Point","coordinates":[130.47732,33.23321]},"properties":{"name":"久保筑後市発電所","fuel":"solar","output":""}},{"type":"Feature","geometry":{"type":"Point","coordinates":[130.52571,33.18339]},"properties":{"name":"溝口筑後市発電所","fuel":"solar","output":""}},{"type":"Feature","geometry":{"type":"Point","coordinates":[129.96144,32.91846]},"properties":{"name":"乾馬場町大村市発電所","fuel":"solar","output":""}},{"type":"Feature","geometry":{"type":"Point","coordinates":[129.81252,32.80412]},"properties":{"name":"園田町長崎市発電所","fuel":"solar","output":""}},{"type":"Feature","geometry":{"type":"Point","coordinates":[129.80792,32.81363]},"properties":{"name":"鳴見町長崎市発電所","fuel":"solar","output":""}},{"type":"Feature","geometry":{"type":"Point","coordinates":[129.80858,32.81179]},"properties":{"name":"鳴見町長崎市発電所","fuel":"solar","output":""}},{"type":"Feature","geometry":{"type":"Point","coordinates":[129.7638,32.82673]},"properties":{"name":"丸二鋼材株式会社三京事務所棟太陽光発電設備","fuel":"solar","output":""}},{"type":"Feature","geometry":{"type":"Point","coordinates":[129.76496,32.82975]},"properties":{"name":"さくらの里二丁目長崎市発電所","fuel":"solar","output":""}},{"type":"Feature","geometry":{"type":"Point","coordinates":[129.7638,32.82861]},"properties":{"name":"丸二鋼材株式会社三京事務所棟太陽光発電設備","fuel":"solar","output":""}},{"type":"Feature","geometry":{"type":"Point","coordinates":[130.48559,33.20788]},"properties":{"name":"長崎筑後市発電所","fuel":"solar","output":""}},{"type":"Feature","geometry":{"type":"Point","coordinates":[130.48554,33.2082]},"properties":{"name":"長崎筑後市発電所","fuel":"solar","output":""}},{"type":"Feature","geometry":{"type":"Point","coordinates":[130.48344,33.19835]},"properties":{"name":"下北島筑後市発電所","fuel":"solar","output":""}},{"type":"Feature","geometry":{"type":"Point","coordinates":[130.48224,33.19842]},"properties":{"name":"下北島筑後市発電所","fuel":"solar","output":""}},{"type":"Feature","geometry":{"type":"Point","coordinates":[130.48219,33.19863]},"properties":{"name":"下北島筑後市発電所","fuel":"solar","output":""}},{"type":"Feature","geometry":{"type":"Point","coordinates":[129.82868,32.82206]},"properties":{"name":"左底郷時津町発電所","fuel":"solar","output":""}},{"type":"Feature","geometry":{"type":"Point","coordinates":[129.80167,32.82331]},"properties":{"name":"鳴見台一丁目長崎市発電所","fuel":"solar","output":""}},{"type":"Feature","geometry":{"type":"Point","coordinates":[129.80087,32.82354]},"properties":{"name":"鳴見台一丁目長崎市発電所","fuel":"solar","output":""}},{"type":"Feature","geometry":{"type":"Point","coordinates":[130.50041,33.23735]},"properties":{"name":"蔵数筑後市発電所","fuel":"solar","output":""}},{"type":"Feature","geometry":{"type":"Point","coordinates":[130.4995,33.2314]},"properties":{"name":"熊野筑後市発電所","fuel":"solar","output":""}},{"type":"Feature","geometry":{"type":"Point","coordinates":[130.50411,33.23021]},"properties":{"name":"熊野筑後市発電所","fuel":"solar","output":""}},{"type":"Feature","geometry":{"type":"Point","coordinates":[130.6238,31.75094]},"properties":{"name":"三拾町姶良市発電所","fuel":"solar","output":""}},{"type":"Feature","geometry":{"type":"Point","coordinates":[129.68095,33.34677]},"properties":{"name":"松浦火力発電所","fuel":"solar","output":""}},{"type":"Feature","geometry":{"type":"Point","coordinates":[129.66644,33.34765]},"properties":{"name":"松浦市発電所","fuel":"solar","output":""}},{"type":"Feature","geometry":{"type":"Point","coordinates":[129.671,33.34705]},"properties":{"name":"松浦市発電所","fuel":"solar","output":""}},{"type":"Feature","geometry":{"type":"Point","coordinates":[129.6647,33.35234]},"properties":{"name":"松浦市発電所","fuel":"solar","output":""}},{"type":"Feature","geometry":{"type":"Point","coordinates":[129.65336,33.20797]},"properties":{"name":"棚方町佐世保市発電所","fuel":"solar","output":""}},{"type":"Feature","geometry":{"type":"Point","coordinates":[129.62325,33.21318]},"properties":{"name":"小佐々町小坂佐世保市発電所","fuel":"solar","output":""}},{"type":"Feature","geometry":{"type":"Point","coordinates":[129.63792,33.2157]},"properties":{"name":"佐世保市発電所","fuel":"solar","output":""}},{"type":"Feature","geometry":{"type":"Point","coordinates":[129.68164,33.31888]},"properties":{"name":"松浦市発電所","fuel":"solar","output":""}},{"type":"Feature","geometry":{"type":"Point","coordinates":[129.66442,33.31636]},"properties":{"name":"江迎町箙尾佐世保市発電所","fuel":"solar","output":""}},{"type":"Feature","geometry":{"type":"Point","coordinates":[129.6628,33.31334]},"properties":{"name":"江迎町箙尾佐世保市発電所","fuel":"solar","output":""}},{"type":"Feature","geometry":{"type":"Point","coordinates":[129.6327,33.30198]},"properties":{"name":"江迎町三浦佐世保市発電所","fuel":"solar","output":""}},{"type":"Feature","geometry":{"type":"Point","coordinates":[129.66827,33.30172]},"properties":{"name":"江迎町七腕佐世保市発電所","fuel":"solar","output":""}},{"type":"Feature","geometry":{"type":"Point","coordinates":[129.6719,33.30029]},"properties":{"name":"江迎町七腕佐世保市発電所","fuel":"solar","output":""}},{"type":"Feature","geometry":{"type":"Point","coordinates":[129.76197,33.25624]},"properties":{"name":"世知原町北川内佐世保市発電所","fuel":"solar","output":""}},{"type":"Feature","geometry":{"type":"Point","coordinates":[129.76083,33.25524]},"properties":{"name":"世知原町北川内佐世保市発電所","fuel":"solar","output":""}},{"type":"Feature","geometry":{"type":"Point","coordinates":[129.7611,33.25429]},"properties":{"name":"世知原町中通佐世保市発電所","fuel":"solar","output":""}},{"type":"Feature","geometry":{"type":"Point","coordinates":[129.75912,33.25443]},"properties":{"name":"世知原町北川内佐世保市発電所","fuel":"solar","output":""}},{"type":"Feature","geometry":{"type":"Point","coordinates":[129.75883,33.25493]},"properties":{"name":"世知原町北川内佐世保市発電所","fuel":"solar","output":""}},{"type":"Feature","geometry":{"type":"Point","coordinates":[130.41928,33.01232]},"properties":{"name":"メガソーラー大牟田発電所","fuel":"solar","output":""}},{"type":"Feature","geometry":{"type":"Point","coordinates":[129.85154,33.26087]},"properties":{"name":"二里町大里乙伊万里市発電所","fuel":"solar","output":""}},{"type":"Feature","geometry":{"type":"Point","coordinates":[130.25012,32.63033]},"properties":{"name":"川向南島原市発電所","fuel":"solar","output":""}},{"type":"Feature","geometry":{"type":"Point","coordinates":[130.33184,32.72828]},"properties":{"name":"深江町乙南島原市発電所","fuel":"solar","output":""}},{"type":"Feature","geometry":{"type":"Point","coordinates":[130.32759,32.72897]},"properties":{"name":"深江町乙南島原市発電所","fuel":"solar","output":""}},{"type":"Feature","geometry":{"type":"Point","coordinates":[130.32,32.72932]},"properties":{"name":"深江町甲南島原市発電所","fuel":"solar","output":""}},{"type":"Feature","geometry":{"type":"Point","coordinates":[130.31905,32.73107]},"properties":{"name":"深江町乙南島原市発電所","fuel":"solar","output":""}},{"type":"Feature","geometry":{"type":"Point","coordinates":[130.31717,32.73088]},"properties":{"name":"深江町甲南島原市発電所","fuel":"solar","output":""}},{"type":"Feature","geometry":{"type":"Point","coordinates":[130.31467,32.73247]},"properties":{"name":"深江町乙南島原市発電所","fuel":"solar","output":""}},{"type":"Feature","geometry":{"type":"Point","coordinates":[130.31809,32.73424]},"properties":{"name":"深江町甲南島原市発電所","fuel":"solar","output":""}},{"type":"Feature","geometry":{"type":"Point","coordinates":[130.19416,32.62762]},"properties":{"name":"南島原市発電所","fuel":"solar","output":""}},{"type":"Feature","geometry":{"type":"Point","coordinates":[130.17867,32.611]},"properties":{"name":"口之津町甲南島原市発電所","fuel":"solar","output":""}},{"type":"Feature","geometry":{"type":"Point","coordinates":[129.65784,32.96235]},"properties":{"name":"大瀬戸町多以良内郷西海市発電所","fuel":"solar","output":""}},{"type":"Feature","geometry":{"type":"Point","coordinates":[129.63752,32.95052]},"properties":{"name":"大瀬戸町瀬戸板浦郷西海市発電所","fuel":"solar","output":""}},{"type":"Feature","geometry":{"type":"Point","coordinates":[129.64418,32.93672]},"properties":{"name":"大瀬戸町瀬戸樫浦郷西海市発電所","fuel":"solar","output":""}},{"type":"Feature","geometry":{"type":"Point","coordinates":[129.61852,32.93833]},"properties":{"name":"大瀬戸町松島外郷西海市発電所","fuel":"solar","output":""}},{"type":"Feature","geometry":{"type":"Point","coordinates":[129.9502,33.16105]},"properties":{"name":"武雄メガソーラーパーク","fuel":"solar","output":""}},{"type":"Feature","geometry":{"type":"Point","coordinates":[129.96888,33.12236]},"properties":{"name":"武雄市発電所","fuel":"solar","output":""}},{"type":"Feature","geometry":{"type":"Point","coordinates":[129.9909,33.13381]},"properties":{"name":"東川登町大字袴野嬉野市発電所","fuel":"solar","output":""}},{"type":"Feature","geometry":{"type":"Point","coordinates":[129.98862,33.13129]},"properties":{"name":"西川登町大字小田志武雄市発電所","fuel":"solar","output":""}},{"type":"Feature","geometry":{"type":"Point","coordinates":[129.99159,33.12805]},"properties":{"name":"武雄市発電所","fuel":"solar","output":""}},{"type":"Feature","geometry":{"type":"Point","coordinates":[129.99388,33.12831]},"properties":{"name":"嬉野市発電所","fuel":"solar","output":""}},{"type":"Feature","geometry":{"type":"Point","coordinates":[129.99716,33.12909]},"properties":{"name":"嬉野市発電所","fuel":"solar","output":""}},{"type":"Feature","geometry":{"type":"Point","coordinates":[129.99769,33.1294]},"properties":{"name":"嬉野市発電所","fuel":"solar","output":""}},{"type":"Feature","geometry":{"type":"Point","coordinates":[129.99839,33.12992]},"properties":{"name":"嬉野市発電所","fuel":"solar","output":""}},{"type":"Feature","geometry":{"type":"Point","coordinates":[129.99854,33.13079]},"properties":{"name":"塩田町大字大草野嬉野市発電所","fuel":"solar","output":""}},{"type":"Feature","geometry":{"type":"Point","coordinates":[130.00073,33.12991]},"properties":{"name":"塩田町大字大草野嬉野市発電所","fuel":"solar","output":""}},{"type":"Feature","geometry":{"type":"Point","coordinates":[129.99627,33.12616]},"properties":{"name":"嬉野市発電所","fuel":"solar","output":""}},{"type":"Feature","geometry":{"type":"Point","coordinates":[129.997,33.11621]},"properties":{"name":"嬉野市発電所","fuel":"solar","output":""}},{"type":"Feature","geometry":{"type":"Point","coordinates":[129.99871,33.11633]},"properties":{"name":"嬉野市発電所","fuel":"solar","output":""}},{"type":"Feature","geometry":{"type":"Point","coordinates":[130.00353,33.11407]},"properties":{"name":"嬉野市発電所","fuel":"solar","output":""}},{"type":"Feature","geometry":{"type":"Point","coordinates":[130.02192,33.32861]},"properties":{"name":"唐津市発電所","fuel":"solar","output":""}},{"type":"Feature","geometry":{"type":"Point","coordinates":[130.01217,33.33673]},"properties":{"name":"唐津市発電所","fuel":"solar","output":""}},{"type":"Feature","geometry":{"type":"Point","coordinates":[129.89818,32.85129]},"properties":{"name":"諫早市発電所","fuel":"solar","output":""}},{"type":"Feature","geometry":{"type":"Point","coordinates":[129.76508,33.2061]},"properties":{"name":"柚木町佐世保市発電所","fuel":"solar","output":""}},{"type":"Feature","geometry":{"type":"Point","coordinates":[129.98739,32.93298]},"properties":{"name":"大村市発電所","fuel":"solar","output":""}},{"type":"Feature","geometry":{"type":"Point","coordinates":[129.98153,32.93442]},"properties":{"name":"上諏訪町大村市発電所","fuel":"solar","output":""}},{"type":"Feature","geometry":{"type":"Point","coordinates":[129.97307,32.93737]},"properties":{"name":"特別養護老人ホーム箕望荘","fuel":"solar","output":""}},{"type":"Feature","geometry":{"type":"Point","coordinates":[129.97313,32.93378]},"properties":{"name":"特別養護老人ホーム箕望荘","fuel":"solar","output":""}},{"type":"Feature","geometry":{"type":"Point","coordinates":[129.97156,32.93643]},"properties":{"name":"特別養護老人ホーム箕望荘","fuel":"solar","output":""}},{"type":"Feature","geometry":{"type":"Point","coordinates":[130.73878,31.08037]},"properties":{"name":"南大隅町発電所","fuel":"solar","output":""}},{"type":"Feature","geometry":{"type":"Point","coordinates":[131.56833,32.28499]},"properties":{"name":"都農町発電所","fuel":"solar","output":""}},{"type":"Feature","geometry":{"type":"Point","coordinates":[131.56313,32.27592]},"properties":{"name":"都農町発電所","fuel":"solar","output":""}},{"type":"Feature","geometry":{"type":"Point","coordinates":[129.82631,32.77848]},"properties":{"name":"小江原五丁目長崎市発電所","fuel":"solar","output":""}},{"type":"Feature","geometry":{"type":"Point","coordinates":[129.82016,32.77162]},"properties":{"name":"小江長崎市発電所","fuel":"solar","output":""}},{"type":"Feature","geometry":{"type":"Point","coordinates":[129.82612,32.83953]},"properties":{"name":"日並郷時津町発電所","fuel":"solar","output":""}},{"type":"Feature","geometry":{"type":"Point","coordinates":[129.81892,32.84602]},"properties":{"name":"日並郷時津町発電所","fuel":"solar","output":""}},{"type":"Feature","geometry":{"type":"Point","coordinates":[129.70847,32.93413]},"properties":{"name":"大瀬戸町雪浦久良木郷西海市発電所","fuel":"solar","output":""}},{"type":"Feature","geometry":{"type":"Point","coordinates":[129.7194,32.92439]},"properties":{"name":"大瀬戸町雪浦久良木郷西海市発電所","fuel":"solar","output":""}},{"type":"Feature","geometry":{"type":"Point","coordinates":[129.7234,32.92348]},"properties":{"name":"大瀬戸町雪浦久良木郷西海市発電所","fuel":"solar","output":""}},{"type":"Feature","geometry":{"type":"Point","coordinates":[129.84022,33.05702]},"properties":{"name":"三越郷川棚町発電所","fuel":"solar","output":""}},{"type":"Feature","geometry":{"type":"Point","coordinates":[129.84424,33.05521]},"properties":{"name":"三越郷川棚町発電所","fuel":"solar","output":""}},{"type":"Feature","geometry":{"type":"Point","coordinates":[129.85,33.05862]},"properties":{"name":"白石郷川棚町発電所","fuel":"solar","output":""}},{"type":"Feature","geometry":{"type":"Point","coordinates":[131.6594,34.19884]},"properties":{"name":"徳地堀山口市発電所","fuel":"solar","output":""}},{"type":"Feature","geometry":{"type":"Point","coordinates":[130.21423,32.97718]},"properties":{"name":"野崎太良町発電所","fuel":"solar","output":""}},{"type":"Feature","geometry":{"type":"Point","coordinates":[130.21188,32.97722]},"properties":{"name":"亀の浦太良町発電所","fuel":"solar","output":""}},{"type":"Feature","geometry":{"type":"Point","coordinates":[130.2038,32.97816]},"properties":{"name":"亀の浦太良町発電所","fuel":"solar","output":""}},{"type":"Feature","geometry":{"type":"Point","coordinates":[130.20693,32.98365]},"properties":{"name":"広江太良町発電所","fuel":"solar","output":""}},{"type":"Feature","geometry":{"type":"Point","coordinates":[130.20894,32.98379]},"properties":{"name":"広江太良町発電所","fuel":"solar","output":""}},{"type":"Feature","geometry":{"type":"Point","coordinates":[130.2042,32.98475]},"properties":{"name":"亀の浦太良町発電所","fuel":"solar","output":""}},{"type":"Feature","geometry":{"type":"Point","coordinates":[130.17981,32.99248]},"properties":{"name":"太良町発電所","fuel":"solar","output":""}},{"type":"Feature","geometry":{"type":"Point","coordinates":[130.17889,32.99271]},"properties":{"name":"太良町発電所","fuel":"solar","output":""}},{"type":"Feature","geometry":{"type":"Point","coordinates":[130.17928,32.99357]},"properties":{"name":"太良町発電所","fuel":"solar","output":""}},{"type":"Feature","geometry":{"type":"Point","coordinates":[130.17715,32.99393]},"properties":{"name":"太良町発電所","fuel":"solar","output":""}},{"type":"Feature","geometry":{"type":"Point","coordinates":[130.17516,32.99082]},"properties":{"name":"太良町発電所","fuel":"solar","output":""}},{"type":"Feature","geometry":{"type":"Point","coordinates":[130.15491,32.97939]},"properties":{"name":"太良町発電所","fuel":"solar","output":""}},{"type":"Feature","geometry":{"type":"Point","coordinates":[130.14633,32.9633]},"properties":{"name":"山茶花高原ピクニックパーク風力第１・第２発電所","fuel":"solar","output":""}},{"type":"Feature","geometry":{"type":"Point","coordinates":[130.15489,32.93966]},"properties":{"name":"小長井町川内諫早市発電所","fuel":"solar","output":""}},{"type":"Feature","geometry":{"type":"Point","coordinates":[130.1604,32.94508]},"properties":{"name":"小長井町田原諫早市発電所","fuel":"solar","output":""}},{"type":"Feature","geometry":{"type":"Point","coordinates":[130.16697,32.94963]},"properties":{"name":"諫早市発電所","fuel":"solar","output":""}},{"type":"Feature","geometry":{"type":"Point","coordinates":[130.176,32.93922]},"properties":{"name":"小長井町井崎諫早市発電所","fuel":"solar","output":""}},{"type":"Feature","geometry":{"type":"Point","coordinates":[130.16573,32.91502]},"properties":{"name":"小長井町大峰諫早市発電所","fuel":"solar","output":""}},{"type":"Feature","geometry":{"type":"Point","coordinates":[130.86384,31.41244]},"properties":{"name":"下祓川町鹿屋市発電所","fuel":"solar","output":""}},{"type":"Feature","geometry":{"type":"Point","coordinates":[130.85643,31.42625]},"properties":{"name":"祓川町鹿屋市発電所","fuel":"solar","output":""}},{"type":"Feature","geometry":{"type":"Point","coordinates":[130.84257,31.3779]},"properties":{"name":"新栄町鹿屋市発電所","fuel":"solar","output":""}},{"type":"Feature","geometry":{"type":"Point","coordinates":[130.83875,31.37937]},"properties":{"name":"西原三丁目鹿屋市発電所","fuel":"solar","output":""}},{"type":"Feature","geometry":{"type":"Point","coordinates":[130.83839,31.38012]},"properties":{"name":"西原三丁目鹿屋市発電所","fuel":"solar","output":""}},{"type":"Feature","geometry":{"type":"Point","coordinates":[130.8624,31.36888]},"properties":{"name":"田崎町鹿屋市発電所","fuel":"solar","output":""}},{"type":"Feature","geometry":{"type":"Point","coordinates":[130.85822,32.84095]},"properties":{"name":"くまもと臨空メガソーラー","fuel":"solar","output":""}},{"type":"Feature","geometry":{"type":"Point","coordinates":[130.83315,32.89343]},"properties":{"name":"株式会社インターアクション熊本ＴＳＤＣ","fuel":"solar","output":""}},{"type":"Feature","geometry":{"type":"Point","coordinates":[130.83503,32.89418]},"properties":{"name":"株式会社インターアクション熊本ＴＳＤＣ","fuel":"solar","output":""}},{"type":"Feature","geometry":{"type":"Point","coordinates":[130.8443,32.8963]},"properties":{"name":"大津町発電所","fuel":"solar","output":""}},{"type":"Feature","geometry":{"type":"Point","coordinates":[130.83128,32.88]},"properties":{"name":"菊陽町発電所","fuel":"solar","output":""}},{"type":"Feature","geometry":{"type":"Point","coordinates":[129.75411,32.65415]},"properties":{"name":"長崎市高島地区風力発電所","fuel":"solar","output":""}},{"type":"Feature","geometry":{"type":"Point","coordinates":[129.92125,32.74109]},"properties":{"name":"長崎市発電所","fuel":"solar","output":""}},{"type":"Feature","geometry":{"type":"Point","coordinates":[129.60511,33.25181]},"properties":{"name":"小佐々町岳ノ木場佐世保市発電所","fuel":"solar","output":""}},{"type":"Feature","geometry":{"type":"Point","coordinates":[129.86574,33.06588]},"properties":{"name":"城山町川棚町発電所","fuel":"solar","output":""}},{"type":"Feature","geometry":{"type":"Point","coordinates":[129.86578,33.0647]},"properties":{"name":"城山町川棚町発電所","fuel":"solar","output":""}},{"type":"Feature","geometry":{"type":"Point","coordinates":[129.86371,33.06379]},"properties":{"name":"栄町川棚町発電所","fuel":"solar","output":""}},{"type":"Feature","geometry":{"type":"Point","coordinates":[129.86703,33.06388]},"properties":{"name":"城山町川棚町発電所","fuel":"solar","output":""}},{"type":"Feature","geometry":{"type":"Point","coordinates":[130.59448,31.21023]},"properties":{"name":"山川大山指宿市発電所","fuel":"solar","output":""}},{"type":"Feature","geometry":{"type":"Point","coordinates":[130.87925,32.8304]},"properties":{"name":"株式会社熊本商品リサイクル市場","fuel":"solar","output":""}},{"type":"Feature","geometry":{"type":"Point","coordinates":[130.88001,32.83059]},"properties":{"name":"株式会社熊本商品リサイクル市場","fuel":"solar","output":""}},{"type":"Feature","geometry":{"type":"Point","coordinates":[130.88071,32.83021]},"properties":{"name":"株式会社熊本商品リサイクル市場","fuel":"solar","output":""}},{"type":"Feature","geometry":{"type":"Point","coordinates":[130.88239,32.83027]},"properties":{"name":"株式会社熊本商品リサイクル市場","fuel":"solar","output":""}},{"type":"Feature","geometry":{"type":"Point","coordinates":[130.62325,33.32716]},"properties":{"name":"善導寺町島久留米市発電所","fuel":"solar","output":""}},{"type":"Feature","geometry":{"type":"Point","coordinates":[130.63168,33.32056]},"properties":{"name":"草野町矢作久留米市発電所","fuel":"solar","output":""}},{"type":"Feature","geometry":{"type":"Point","coordinates":[130.62134,33.3413]},"properties":{"name":"北野町大城久留米市発電所","fuel":"solar","output":""}},{"type":"Feature","geometry":{"type":"Point","coordinates":[130.59767,32.92188]},"properties":{"name":"田崎玉名市発電所","fuel":"solar","output":""}},{"type":"Feature","geometry":{"type":"Point","coordinates":[130.58073,32.92013]},"properties":{"name":"伊倉北方玉名市発電所","fuel":"solar","output":""}},{"type":"Feature","geometry":{"type":"Point","coordinates":[130.58107,32.92012]},"properties":{"name":"伊倉北方玉名市発電所","fuel":"solar","output":""}},{"type":"Feature","geometry":{"type":"Point","coordinates":[130.57852,32.91996]},"properties":{"name":"伊倉北方玉名市発電所","fuel":"solar","output":""}},{"type":"Feature","geometry":{"type":"Point","coordinates":[130.57852,32.92069]},"properties":{"name":"伊倉北方玉名市発電所","fuel":"solar","output":""}},{"type":"Feature","geometry":{"type":"Point","coordinates":[130.5791,32.92053]},"properties":{"name":"伊倉北方玉名市発電所","fuel":"solar","output":""}},{"type":"Feature","geometry":{"type":"Point","coordinates":[130.58055,32.9205]},"properties":{"name":"伊倉北方玉名市発電所","fuel":"solar","output":""}},{"type":"Feature","geometry":{"type":"Point","coordinates":[130.58173,32.91848]},"properties":{"name":"伊倉北方玉名市発電所","fuel":"solar","output":""}},{"type":"Feature","geometry":{"type":"Point","coordinates":[130.58224,32.91871]},"properties":{"name":"伊倉北方玉名市発電所","fuel":"solar","output":""}},{"type":"Feature","geometry":{"type":"Point","coordinates":[130.58157,32.91885]},"properties":{"name":"伊倉北方玉名市発電所","fuel":"solar","output":""}},{"type":"Feature","geometry":{"type":"Point","coordinates":[130.58177,32.91893]},"properties":{"name":"伊倉北方玉名市発電所","fuel":"solar","output":""}},{"type":"Feature","geometry":{"type":"Point","coordinates":[130.58252,32.9195]},"properties":{"name":"伊倉北方玉名市発電所","fuel":"solar","output":""}},{"type":"Feature","geometry":{"type":"Point","coordinates":[130.58215,32.91909]},"properties":{"name":"伊倉北方玉名市発電所","fuel":"solar","output":""}},{"type":"Feature","geometry":{"type":"Point","coordinates":[130.51404,32.94064]},"properties":{"name":"岱明町西照寺玉名市発電所","fuel":"solar","output":""}},{"type":"Feature","geometry":{"type":"Point","coordinates":[130.46982,32.90399]},"properties":{"name":"トステム株式会社有明工場太陽光発電システム","fuel":"solar","output":""}},{"type":"Feature","geometry":{"type":"Point","coordinates":[130.42226,33.07321]},"properties":{"name":"みやま市発電所","fuel":"solar","output":""}},{"type":"Feature","geometry":{"type":"Point","coordinates":[130.42449,33.04805]},"properties":{"name":"タマホーム有明　メガソーラー発電所","fuel":"solar","output":""}},{"type":"Feature","geometry":{"type":"Point","coordinates":[130.42513,33.04054]},"properties":{"name":"大牟田リサイクル発電所","fuel":"solar","output":""}},{"type":"Feature","geometry":{"type":"Point","coordinates":[130.43199,33.0493]},"properties":{"name":"大牟田リサイクル発電所","fuel":"solar","output":""}},{"type":"Feature","geometry":{"type":"Point","coordinates":[130.4248,33.03381]},"properties":{"name":"岬町大牟田市発電所","fuel":"solar","output":""}},{"type":"Feature","geometry":{"type":"Point","coordinates":[130.42166,33.03413]},"properties":{"name":"西新町大牟田市発電所","fuel":"solar","output":""}},{"type":"Feature","geometry":{"type":"Point","coordinates":[130.58275,32.85029]},"properties":{"name":"西区玉名市発電所","fuel":"solar","output":""}},{"type":"Feature","geometry":{"type":"Point","coordinates":[130.03254,32.82691]},"properties":{"name":"平山町諫早市発電所","fuel":"solar","output":""}},{"type":"Feature","geometry":{"type":"Point","coordinates":[130.03347,32.80124]},"properties":{"name":"飯盛町山口諫早市発電所","fuel":"solar","output":""}},{"type":"Feature","geometry":{"type":"Point","coordinates":[130.00603,32.83751]},"properties":{"name":"諫早市発電所","fuel":"solar","output":""}},{"type":"Feature","geometry":{"type":"Point","coordinates":[130.00448,32.84953]},"properties":{"name":"溝陸町大村市発電所","fuel":"solar","output":""}},{"type":"Feature","geometry":{"type":"Point","coordinates":[130.01059,32.86118]},"properties":{"name":"今村町大村市発電所","fuel":"solar","output":""}},{"type":"Feature","geometry":{"type":"Point","coordinates":[130.00797,32.86276]},"properties":{"name":"今村町大村市発電所","fuel":"solar","output":""}},{"type":"Feature","geometry":{"type":"Point","coordinates":[129.95803,32.77682]},"properties":{"name":"矢上町長崎市発電所","fuel":"solar","output":""}},{"type":"Feature","geometry":{"type":"Point","coordinates":[130.01365,32.79085]},"properties":{"name":"飯盛町平古場諫早市発電所","fuel":"solar","output":""}},{"type":"Feature","geometry":{"type":"Point","coordinates":[130.01283,32.79045]},"properties":{"name":"飯盛町平古場諫早市発電所","fuel":"solar","output":""}},{"type":"Feature","geometry":{"type":"Point","coordinates":[130.09587,32.79535]},"properties":{"name":"松里町諫早市発電所","fuel":"solar","output":""}},{"type":"Feature","geometry":{"type":"Point","coordinates":[130.11218,32.79639]},"properties":{"name":"諫早市発電所","fuel":"solar","output":""}},{"type":"Feature","geometry":{"type":"Point","coordinates":[130.12826,32.79968]},"properties":{"name":"森山町唐比西諫早市発電所","fuel":"solar","output":""}},{"type":"Feature","geometry":{"type":"Point","coordinates":[130.15549,32.80459]},"properties":{"name":"愛野町乙雲仙市発電所","fuel":"solar","output":""}},{"type":"Feature","geometry":{"type":"Point","coordinates":[130.0869,32.81067]},"properties":{"name":"長野町諫早市発電所","fuel":"solar","output":""}},{"type":"Feature","geometry":{"type":"Point","coordinates":[130.08531,32.81047]},"properties":{"name":"諫早市発電所","fuel":"solar","output":""}},{"type":"Feature","geometry":{"type":"Point","coordinates":[130.05992,32.82617]},"properties":{"name":"小川町諫早市発電所","fuel":"solar","output":""}},{"type":"Feature","geometry":{"type":"Point","coordinates":[130.05574,32.82767]},"properties":{"name":"小川町諫早市発電所","fuel":"solar","output":""}},{"type":"Feature","geometry":{"type":"Point","coordinates":[130.14536,32.809]},"properties":{"name":"愛野町乙雲仙市発電所","fuel":"solar","output":""}},{"type":"Feature","geometry":{"type":"Point","coordinates":[130.32528,32.84874]},"properties":{"name":"有明町湯江甲島原市発電所","fuel":"solar","output":""}},{"type":"Feature","geometry":{"type":"Point","coordinates":[130.29758,32.87232]},"properties":{"name":"国見町土黒丙雲仙市発電所","fuel":"solar","output":""}},{"type":"Feature","geometry":{"type":"Point","coordinates":[130.28009,32.87734]},"properties":{"name":"国見町神代乙雲仙市発電所","fuel":"solar","output":""}},{"type":"Feature","geometry":{"type":"Point","coordinates":[130.28171,32.87672]},"properties":{"name":"国見町土黒丁雲仙市発電所","fuel":"solar","output":""}},{"type":"Feature","geometry":{"type":"Point","coordinates":[130.27048,32.87343]},"properties":{"name":"国見町神代乙雲仙市発電所","fuel":"solar","output":""}},{"type":"Feature","geometry":{"type":"Point","coordinates":[130.26164,32.85204]},"properties":{"name":"有限会社やさい工房有明","fuel":"solar","output":""}},{"type":"Feature","geometry":{"type":"Point","coordinates":[130.26158,32.85068]},"properties":{"name":"有限会社やさい工房有明","fuel":"solar","output":""}},{"type":"Feature","geometry":{"type":"Point","coordinates":[130.2614,32.84751]},"properties":{"name":"有限会社やさい工房有明","fuel":"solar","output":""}},{"type":"Feature","geometry":{"type":"Point","coordinates":[130.26044,32.84659]},"properties":{"name":"有限会社やさい工房有明","fuel":"solar","output":""}},{"type":"Feature","geometry":{"type":"Point","coordinates":[130.26172,32.84295]},"properties":{"name":"有限会社やさい工房有明","fuel":"solar","output":""}},{"type":"Feature","geometry":{"type":"Point","coordinates":[130.24397,32.84895]},"properties":{"name":"瑞穂町伊福甲雲仙市発電所","fuel":"solar","output":""}},{"type":"Feature","geometry":{"type":"Point","coordinates":[130.24283,32.85198]},"properties":{"name":"瑞穂町西郷己雲仙市発電所","fuel":"solar","output":""}},{"type":"Feature","geometry":{"type":"Point","coordinates":[130.21092,32.85554]},"properties":{"name":"吾妻町本村名雲仙市発電所","fuel":"solar","output":""}},{"type":"Feature","geometry":{"type":"Point","coordinates":[130.21044,32.8536]},"properties":{"name":"吾妻町本村名雲仙市発電所","fuel":"solar","output":""}},{"type":"Feature","geometry":{"type":"Point","coordinates":[130.2112,32.85352]},"properties":{"name":"吾妻町本村名雲仙市発電所","fuel":"solar","output":""}},{"type":"Feature","geometry":{"type":"Point","coordinates":[130.43947,33.10251]},"properties":{"name":"高田町江浦みやま市発電所","fuel":"solar","output":""}},{"type":"Feature","geometry":{"type":"Point","coordinates":[130.50983,33.12892]},"properties":{"name":"山川町尾野みやま市発電所","fuel":"solar","output":""}},{"type":"Feature","geometry":{"type":"Point","coordinates":[130.44635,33.26572]},"properties":{"name":"坂口みやき町発電所","fuel":"solar","output":""}},{"type":"Feature","geometry":{"type":"Point","coordinates":[130.44561,33.26551]},"properties":{"name":"坂口みやき町発電所","fuel":"solar","output":""}},{"type":"Feature","geometry":{"type":"Point","coordinates":[130.44476,33.26535]},"properties":{"name":"坂口みやき町発電所","fuel":"solar","output":""}},{"type":"Feature","geometry":{"type":"Point","coordinates":[130.44516,33.2652]},"properties":{"name":"坂口みやき町発電所","fuel":"solar","output":""}},{"type":"Feature","geometry":{"type":"Point","coordinates":[130.4458,33.26619]},"properties":{"name":"坂口みやき町発電所","fuel":"solar","output":""}},{"type":"Feature","geometry":{"type":"Point","coordinates":[130.44582,33.26583]},"properties":{"name":"坂口みやき町発電所","fuel":"solar","output":""}},{"type":"Feature","geometry":{"type":"Point","coordinates":[130.44631,33.2662]},"properties":{"name":"坂口みやき町発電所","fuel":"solar","output":""}},{"type":"Feature","geometry":{"type":"Point","coordinates":[130.44628,33.26642]},"properties":{"name":"坂口みやき町発電所","fuel":"solar","output":""}},{"type":"Feature","geometry":{"type":"Point","coordinates":[130.44654,33.26656]},"properties":{"name":"坂口みやき町発電所","fuel":"solar","output":""}},{"type":"Feature","geometry":{"type":"Point","coordinates":[130.56858,31.64105]},"properties":{"name":"吉野鹿児島市発電所","fuel":"solar","output":""}},{"type":"Feature","geometry":{"type":"Point","coordinates":[130.5978,31.64321]},"properties":{"name":"吉野町鹿児島市発電所","fuel":"solar","output":""}},{"type":"Feature","geometry":{"type":"Point","coordinates":[130.40154,33.16927]},"properties":{"name":"元町柳川市発電所","fuel":"solar","output":""}},{"type":"Feature","geometry":{"type":"Point","coordinates":[130.78093,31.11133]},"properties":{"name":"佐多辺塚南大隅町発電所","fuel":"solar","output":""}},{"type":"Feature","geometry":{"type":"Point","coordinates":[130.78099,31.11198]},"properties":{"name":"佐多辺塚南大隅町発電所","fuel":"solar","output":""}},{"type":"Feature","geometry":{"type":"Point","coordinates":[130.78028,31.11214]},"properties":{"name":"佐多辺塚南大隅町発電所","fuel":"solar","output":""}},{"type":"Feature","geometry":{"type":"Point","coordinates":[131.57253,33.36127]},"properties":{"name":"日出町発電所","fuel":"solar","output":""}},{"type":"Feature","geometry":{"type":"Point","coordinates":[131.57378,33.3606]},"properties":{"name":"日出町発電所","fuel":"solar","output":""}},{"type":"Feature","geometry":{"type":"Point","coordinates":[131.57718,33.36299]},"properties":{"name":"日出町発電所","fuel":"solar","output":""}},{"type":"Feature","geometry":{"type":"Point","coordinates":[131.59304,33.35462]},"properties":{"name":"日出町発電所","fuel":"solar","output":""}},{"type":"Feature","geometry":{"type":"Point","coordinates":[131.59171,33.35391]},"properties":{"name":"日出町発電所","fuel":"solar","output":""}},{"type":"Feature","geometry":{"type":"Point","coordinates":[131.59318,33.35313]},"properties":{"name":"日出町発電所","fuel":"solar","output":""}},{"type":"Feature","geometry":{"type":"Point","coordinates":[129.61093,33.32805]},"properties":{"name":"田平町田代免平戸市発電所","fuel":"solar","output":""}},{"type":"Feature","geometry":{"type":"Point","coordinates":[129.6124,33.31496]},"properties":{"name":"江迎町埋立佐世保市発電所","fuel":"solar","output":""}},{"type":"Feature","geometry":{"type":"Point","coordinates":[129.61468,33.31136]},"properties":{"name":"江迎町末橘佐世保市発電所","fuel":"solar","output":""}},{"type":"Feature","geometry":{"type":"Point","coordinates":[130.42198,32.16771]},"properties":{"name":"長崎水俣市発電所","fuel":"solar","output":""}},{"type":"Feature","geometry":{"type":"Point","coordinates":[130.69669,32.8635]},"properties":{"name":"北区熊本市発電所","fuel":"solar","output":""}},{"type":"Feature","geometry":{"type":"Point","coordinates":[130.89414,32.89072]},"properties":{"name":"美咲野三丁目大津町発電所","fuel":"solar","output":""}},{"type":"Feature","geometry":{"type":"Point","coordinates":[130.89517,32.88939]},"properties":{"name":"美咲野三丁目大津町発電所","fuel":"solar","output":""}},{"type":"Feature","geometry":{"type":"Point","coordinates":[130.90724,32.89056]},"properties":{"name":"高尾野大津町発電所","fuel":"solar","output":""}},{"type":"Feature","geometry":{"type":"Point","coordinates":[130.92144,32.87815]},"properties":{"name":"瀬田大津町発電所","fuel":"solar","output":""}},{"type":"Feature","geometry":{"type":"Point","coordinates":[130.92556,32.87609]},"properties":{"name":"瀬田大津町発電所","fuel":"solar","output":""}},{"type":"Feature","geometry":{"type":"Point","coordinates":[130.90566,32.87264]},"properties":{"name":"吹田大津町発電所","fuel":"solar","output":""}},{"type":"Feature","geometry":{"type":"Point","coordinates":[130.01707,33.09062]},"properties":{"name":"嬉野市発電所","fuel":"solar","output":""}},{"type":"Feature","geometry":{"type":"Point","coordinates":[130.01545,33.08742]},"properties":{"name":"嬉野市発電所","fuel":"solar","output":""}},{"type":"Feature","geometry":{"type":"Point","coordinates":[130.01544,33.08582]},"properties":{"name":"嬉野市発電所","fuel":"solar","output":""}},{"type":"Feature","geometry":{"type":"Point","coordinates":[130.01107,33.08202]},"properties":{"name":"嬉野市発電所","fuel":"solar","output":""}},{"type":"Feature","geometry":{"type":"Point","coordinates":[130.01057,33.08163]},"properties":{"name":"嬉野市発電所","fuel":"solar","output":""}},{"type":"Feature","geometry":{"type":"Point","coordinates":[130.0185,33.0998]},"properties":{"name":"嬉野町大字下野嬉野市発電所","fuel":"solar","output":""}},{"type":"Feature","geometry":{"type":"Point","coordinates":[130.00238,33.11338]},"properties":{"name":"嬉野市発電所","fuel":"solar","output":""}},{"type":"Feature","geometry":{"type":"Point","coordinates":[129.99612,33.12886]},"properties":{"name":"嬉野市発電所","fuel":"solar","output":""}},{"type":"Feature","geometry":{"type":"Point","coordinates":[129.99523,33.12928]},"properties":{"name":"嬉野市発電所","fuel":"solar","output":""}},{"type":"Feature","geometry":{"type":"Point","coordinates":[129.78348,33.13703]},"properties":{"name":"佐世保市東部クリーンセンター発電所","fuel":"solar","output":""}},{"type":"Feature","geometry":{"type":"Point","coordinates":[129.78395,33.13596]},"properties":{"name":"勝海町佐世保市発電所","fuel":"solar","output":""}},{"type":"Feature","geometry":{"type":"Point","coordinates":[130.67754,32.72466]},"properties":{"name":"南区熊本市発電所","fuel":"solar","output":""}},{"type":"Feature","geometry":{"type":"Point","coordinates":[129.79419,33.75982]},"properties":{"name":"七湊壱岐市発電所","fuel":"solar","output":""}},{"type":"Feature","geometry":{"type":"Point","coordinates":[131.00548,33.81172]},"properties":{"name":"Nihonkaisui TTS Kanda power station","fuel":"biomass","output":""}},{"type":"Feature","geometry":{"type":"Point","coordinates":[131.00459,33.80939]},"properties":{"name":"関西電力グループ　かんだ発電所","fuel":"biomass","output":""}},{"type":"Feature","geometry":{"type":"Point","coordinates":[130.87211,31.33325]},"properties":{"name":"飯隈町鹿屋市発電所","fuel":"solar","output":""}},{"type":"Feature","geometry":{"type":"Point","coordinates":[130.86667,31.3347]},"properties":{"name":"萩塚町鹿屋市発電所","fuel":"solar","output":""}},{"type":"Feature","geometry":{"type":"Point","coordinates":[130.871,31.33435]},"properties":{"name":"萩塚町鹿屋市発電所","fuel":"solar","output":""}},{"type":"Feature","geometry":{"type":"Point","coordinates":[130.85742,31.33354]},"properties":{"name":"池園町鹿屋市発電所","fuel":"solar","output":""}},{"type":"Feature","geometry":{"type":"Point","coordinates":[130.88661,31.35203]},"properties":{"name":"永野田町鹿屋市発電所","fuel":"solar","output":""}},{"type":"Feature","geometry":{"type":"Point","coordinates":[130.88898,31.35259]},"properties":{"name":"永野田町鹿屋市発電所","fuel":"solar","output":""}},{"type":"Feature","geometry":{"type":"Point","coordinates":[130.87505,31.35176]},"properties":{"name":"名貫町鹿屋市発電所","fuel":"solar","output":""}},{"type":"Feature","geometry":{"type":"Point","coordinates":[130.86737,31.35929]},"properties":{"name":"鹿屋市発電所","fuel":"solar","output":""}},{"type":"Feature","geometry":{"type":"Point","coordinates":[130.11299,33.58192]},"properties":{"name":"芥屋糸島市発電所","fuel":"solar","output":""}},{"type":"Feature","geometry":{"type":"Point","coordinates":[130.12605,33.58583]},"properties":{"name":"志摩岐志糸島市発電所","fuel":"solar","output":""}},{"type":"Feature","geometry":{"type":"Point","coordinates":[130.12694,33.58176]},"properties":{"name":"志摩岐志糸島市発電所","fuel":"solar","output":""}},{"type":"Feature","geometry":{"type":"Point","coordinates":[129.73381,33.35661]},"properties":{"name":"松浦市発電所","fuel":"solar","output":""}},{"type":"Feature","geometry":{"type":"Point","coordinates":[129.77705,32.86041]},"properties":{"name":"西海町長崎市発電所","fuel":"solar","output":""}},{"type":"Feature","geometry":{"type":"Point","coordinates":[129.77973,32.86168]},"properties":{"name":"西海町長崎市発電所","fuel":"solar","output":""}},{"type":"Feature","geometry":{"type":"Point","coordinates":[129.77755,32.86198]},"properties":{"name":"西海町長崎市発電所","fuel":"solar","output":""}},{"type":"Feature","geometry":{"type":"Point","coordinates":[129.76747,32.86952]},"properties":{"name":"長崎市発電所","fuel":"solar","output":""}},{"type":"Feature","geometry":{"type":"Point","coordinates":[131.90285,33.9803]},"properties":{"name":"虹ケ丘五丁目光市発電所","fuel":"solar","output":""}},{"type":"Feature","geometry":{"type":"Point","coordinates":[131.90327,33.97788]},"properties":{"name":"虹ケ丘六丁目光市発電所","fuel":"solar","output":""}},{"type":"Feature","geometry":{"type":"Point","coordinates":[131.90622,33.98166]},"properties":{"name":"虹ケ丘五丁目光市発電所","fuel":"solar","output":""}},{"type":"Feature","geometry":{"type":"Point","coordinates":[130.09046,32.79806]},"properties":{"name":"松里町諫早市発電所","fuel":"solar","output":""}},{"type":"Feature","geometry":{"type":"Point","coordinates":[130.07366,32.79063]},"properties":{"name":"有喜町諫早市発電所","fuel":"solar","output":""}},{"type":"Feature","geometry":{"type":"Point","coordinates":[130.07437,32.79092]},"properties":{"name":"有喜町諫早市発電所","fuel":"solar","output":""}},{"type":"Feature","geometry":{"type":"Point","coordinates":[130.10311,32.80972]},"properties":{"name":"諫早市発電所","fuel":"solar","output":""}},{"type":"Feature","geometry":{"type":"Point","coordinates":[130.03269,32.86484]},"properties":{"name":"栄田町諫早市発電所","fuel":"solar","output":""}},{"type":"Feature","geometry":{"type":"Point","coordinates":[130.03291,32.8631]},"properties":{"name":"栄田町諫早市発電所","fuel":"solar","output":""}},{"type":"Feature","geometry":{"type":"Point","coordinates":[130.42248,32.99839]},"properties":{"name":"ソフトバンク熊本荒尾ソーラーパーク","fuel":"solar","output":""}},{"type":"Feature","geometry":{"type":"Point","coordinates":[131.76102,34.10774]},"properties":{"name":"周南市発電所","fuel":"solar","output":""}},{"type":"Feature","geometry":{"type":"Point","coordinates":[131.76128,34.1065]},"properties":{"name":"周南市発電所","fuel":"solar","output":""}},{"type":"Feature","geometry":{"type":"Point","coordinates":[131.76186,34.10694]},"properties":{"name":"周南市発電所","fuel":"solar","output":""}},{"type":"Feature","geometry":{"type":"Point","coordinates":[131.76344,34.10709]},"properties":{"name":"周南市発電所","fuel":"solar","output":""}},{"type":"Feature","geometry":{"type":"Point","coordinates":[130.49534,33.17966]},"properties":{"name":"津島筑後市発電所","fuel":"solar","output":""}},{"type":"Feature","geometry":{"type":"Point","coordinates":[131.46917,32.00034]},"properties":{"name":"星空の都 さどわら","fuel":"solar","output":""}},{"type":"Feature","geometry":{"type":"Point","coordinates":[131.47131,32.00561]},"properties":{"name":"星空の都 さどわら","fuel":"solar","output":""}},{"type":"Feature","geometry":{"type":"Point","coordinates":[131.47234,32.00528]},"properties":{"name":"星空の都 さどわら","fuel":"solar","output":""}},{"type":"Feature","geometry":{"type":"Point","coordinates":[131.46793,32.00365]},"properties":{"name":"星空の都 さどわら","fuel":"solar","output":""}},{"type":"Feature","geometry":{"type":"Point","coordinates":[131.46675,32.00343]},"properties":{"name":"星空の都 さどわら","fuel":"solar","output":""}},{"type":"Feature","geometry":{"type":"Point","coordinates":[131.4703,32.00156]},"properties":{"name":"星空の都 さどわら","fuel":"solar","output":""}},{"type":"Feature","geometry":{"type":"Point","coordinates":[131.47357,32.00431]},"properties":{"name":"星空の都 さどわら","fuel":"solar","output":""}},{"type":"Feature","geometry":{"type":"Point","coordinates":[131.47292,32.00448]},"properties":{"name":"星空の都 さどわら","fuel":"solar","output":""}},{"type":"Feature","geometry":{"type":"Point","coordinates":[131.40862,32.00825]},"properties":{"name":"宮崎市発電所","fuel":"solar","output":""}},{"type":"Feature","geometry":{"type":"Point","coordinates":[131.40907,32.00401]},"properties":{"name":"宮崎市発電所","fuel":"solar","output":""}},{"type":"Feature","geometry":{"type":"Point","coordinates":[131.4644,31.99609]},"properties":{"name":"星空の都 さどわら","fuel":"solar","output":""}},{"type":"Feature","geometry":{"type":"Point","coordinates":[131.46679,31.99891]},"properties":{"name":"星空の都 さどわら","fuel":"solar","output":""}},{"type":"Feature","geometry":{"type":"Point","coordinates":[131.46653,31.99861]},"properties":{"name":"星空の都 さどわら","fuel":"solar","output":""}},{"type":"Feature","geometry":{"type":"Point","coordinates":[129.62823,33.03231]},"properties":{"name":"真砂町西海市発電所","fuel":"solar","output":""}},{"type":"Feature","geometry":{"type":"Point","coordinates":[131.20548,34.06909]},"properties":{"name":"厚狭発電所 九州ソーラーファーム山口地区","fuel":"solar","output":""}},{"type":"Feature","geometry":{"type":"Point","coordinates":[131.47046,34.06782]},"properties":{"name":"防府市発電所","fuel":"solar","output":""}},{"type":"Feature","geometry":{"type":"Point","coordinates":[131.46862,34.0686]},"properties":{"name":"防府市発電所","fuel":"solar","output":""}},{"type":"Feature","geometry":{"type":"Point","coordinates":[130.49627,33.23712]},"properties":{"name":"蔵数筑後市発電所","fuel":"solar","output":""}},{"type":"Feature","geometry":{"type":"Point","coordinates":[130.4949,33.23664]},"properties":{"name":"蔵数筑後市発電所","fuel":"solar","output":""}},{"type":"Feature","geometry":{"type":"Point","coordinates":[130.58671,33.39092]},"properties":{"name":"松崎小郡市発電所","fuel":"solar","output":""}},{"type":"Feature","geometry":{"type":"Point","coordinates":[131.4571,33.98907]},"properties":{"name":"山口市発電所","fuel":"solar","output":""}},{"type":"Feature","geometry":{"type":"Point","coordinates":[130.58231,33.40384]},"properties":{"name":"井上小郡市発電所","fuel":"solar","output":""}},{"type":"Feature","geometry":{"type":"Point","coordinates":[131.408,34.02571]},"properties":{"name":"九州_34.0257_131.4080","fuel":"solar","output":""}},{"type":"Feature","geometry":{"type":"Point","coordinates":[131.41085,34.01532]},"properties":{"name":"山口市発電所","fuel":"solar","output":""}},{"type":"Feature","geometry":{"type":"Point","coordinates":[131.41289,34.01791]},"properties":{"name":"山口市発電所","fuel":"solar","output":""}},