{"type":"FeatureCollection","features":[{"type":"Feature","geometry":{"type":"Point","coordinates":[132.87074,33.84668]},"properties":{"name":"小野町松山市発電所","fuel":"solar","output":""}},{"type":"Feature","geometry":{"type":"Point","coordinates":[132.26764,34.37406]},"properties":{"name":"廿日市市発電所","fuel":"solar","output":""}},{"type":"Feature","geometry":{"type":"Point","coordinates":[132.04505,34.20131]},"properties":{"name":"生見川ダム","fuel":"hydro","output":""}},{"type":"Feature","geometry":{"type":"Point","coordinates":[133.21229,33.56248]},"properties":{"name":"筏津ダム","fuel":"hydro","output":""}},{"type":"Feature","geometry":{"type":"Point","coordinates":[133.54818,33.50597]},"properties":{"name":"せとソーラーパワー太陽光発電所","fuel":"solar","output":""}},{"type":"Feature","geometry":{"type":"Point","coordinates":[132.1638,34.23246]},"properties":{"name":"岩国市発電所","fuel":"hydro","output":""}},{"type":"Feature","geometry":{"type":"Point","coordinates":[132.30894,33.48902]},"properties":{"name":"伊方原子力発電所","fuel":"nuclear","output":""}},{"type":"Feature","geometry":{"type":"Point","coordinates":[133.10008,34.30475]},"properties":{"name":"瀬戸田太陽光発電所","fuel":"solar","output":""}},{"type":"Feature","geometry":{"type":"Point","coordinates":[133.0988,34.30464]},"properties":{"name":"尾道市発電所","fuel":"solar","output":""}},{"type":"Feature","geometry":{"type":"Point","coordinates":[133.88843,34.0323]},"properties":{"name":"松尾川第二発電所","fuel":"hydro","output":""}},{"type":"Feature","geometry":{"type":"Point","coordinates":[134.36781,34.10636]},"properties":{"name":"吉野町柿原阿波市発電所","fuel":"solar","output":""}},{"type":"Feature","geometry":{"type":"Point","coordinates":[134.36779,34.10504]},"properties":{"name":"阿波市発電所","fuel":"solar","output":""}},{"type":"Feature","geometry":{"type":"Point","coordinates":[134.36883,34.10551]},"properties":{"name":"阿波市発電所","fuel":"solar","output":""}},{"type":"Feature","geometry":{"type":"Point","coordinates":[134.36888,34.10475]},"properties":{"name":"吉野町太陽光発電所","fuel":"solar","output":""}},{"type":"Feature","geometry":{"type":"Point","coordinates":[134.36867,34.10355]},"properties":{"name":"阿波市発電所","fuel":"solar","output":""}},{"type":"Feature","geometry":{"type":"Point","coordinates":[133.55522,33.49666]},"properties":{"name":"中村農園","fuel":"solar","output":""}},{"type":"Feature","geometry":{"type":"Point","coordinates":[133.86709,34.1509]},"properties":{"name":"こんぴらレイク太陽光発電所","fuel":"solar","output":""}},{"type":"Feature","geometry":{"type":"Point","coordinates":[133.837,34.24263]},"properties":{"name":"コスモ石油販売株式会社四国カンパニー","fuel":"solar","output":""}},{"type":"Feature","geometry":{"type":"Point","coordinates":[133.83674,34.24353]},"properties":{"name":"コスモ石油販売株式会社四国カンパニー","fuel":"solar","output":""}},{"type":"Feature","geometry":{"type":"Point","coordinates":[133.83479,34.23164]},"properties":{"name":"垂水町丸亀市発電所","fuel":"solar","output":""}},{"type":"Feature","geometry":{"type":"Point","coordinates":[134.65294,33.85754]},"properties":{"name":"橘湾火力発電所","fuel":"coal","output":""}},{"type":"Feature","geometry":{"type":"Point","coordinates":[134.65566,33.86435]},"properties":{"name":"橘湾発電所","fuel":"coal","output":""}},{"type":"Feature","geometry":{"type":"Point","coordinates":[132.95801,34.33724]},"properties":{"name":"竹原火力発電所","fuel":"coal","output":""}},{"type":"Feature","geometry":{"type":"Point","coordinates":[132.87251,34.25945]},"properties":{"name":"大崎火力発電所","fuel":"coal","output":""}},{"type":"Feature","geometry":{"type":"Point","coordinates":[132.20229,34.11832]},"properties":{"name":"中国電力岩国火力発電所","fuel":"oil","output":""}},{"type":"Feature","geometry":{"type":"Point","coordinates":[132.12573,33.95149]},"properties":{"name":"柳井火力発電所","fuel":"gas","output":""}},{"type":"Feature","geometry":{"type":"Point","coordinates":[133.84528,34.34185]},"properties":{"name":"坂出火力発電所","fuel":"gas;oil","output":""}},{"type":"Feature","geometry":{"type":"Point","coordinates":[134.6535,33.87823]},"properties":{"name":"阿南火力発電所","fuel":"oil","output":""}},{"type":"Feature","geometry":{"type":"Point","coordinates":[132.63631,34.27879]},"properties":{"name":"広町呉市発電所","fuel":"hydro","output":""}},{"type":"Feature","geometry":{"type":"Point","coordinates":[132.73268,34.38513]},"properties":{"name":"西条町大沢東広島市発電所","fuel":"solar","output":""}},{"type":"Feature","geometry":{"type":"Point","coordinates":[133.24948,33.95491]},"properties":{"name":"Niihama Nishi power station","fuel":"coal","output":""}},{"type":"Feature","geometry":{"type":"Point","coordinates":[133.5562,34.00601]},"properties":{"name":"Marusumi Paper Ohe Mill","fuel":"https://www.marusumi.co.jp/sp/en/about/gaiyo.html;https://www.gem.wiki/Marusumi_Paper_Ohe_Mill_power_station","output":""}},{"type":"Feature","geometry":{"type":"Point","coordinates":[134.36765,34.10345]},"properties":{"name":"阿波市発電所","fuel":"solar","output":""}},{"type":"Feature","geometry":{"type":"Point","coordinates":[133.63574,34.08201]},"properties":{"name":"サンシャインパーク豊浜","fuel":"solar","output":""}},{"type":"Feature","geometry":{"type":"Point","coordinates":[134.36963,34.10463]},"properties":{"name":"阿波市発電所","fuel":"solar","output":""}},{"type":"Feature","geometry":{"type":"Point","coordinates":[133.63548,34.07246]},"properties":{"name":"郵便局株式会社豊浜郵便局","fuel":"solar","output":""}},{"type":"Feature","geometry":{"type":"Point","coordinates":[133.63583,34.07495]},"properties":{"name":"郵便局株式会社豊浜郵便局","fuel":"solar","output":""}},{"type":"Feature","geometry":{"type":"Point","coordinates":[133.63612,34.07641]},"properties":{"name":"郵便局株式会社豊浜郵便局","fuel":"solar","output":""}},{"type":"Feature","geometry":{"type":"Point","coordinates":[134.37126,34.11577]},"properties":{"name":"阿波市発電所","fuel":"solar","output":""}},{"type":"Feature","geometry":{"type":"Point","coordinates":[134.36575,34.11091]},"properties":{"name":"阿波市発電所","fuel":"solar","output":""}},{"type":"Feature","geometry":{"type":"Point","coordinates":[134.36887,34.11474]},"properties":{"name":"吉野町五条阿波市発電所","fuel":"solar","output":""}},{"type":"Feature","geometry":{"type":"Point","coordinates":[134.37311,34.1127]},"properties":{"name":"吉野町西条阿波市発電所","fuel":"solar","output":""}},{"type":"Feature","geometry":{"type":"Point","coordinates":[134.37242,34.11078]},"properties":{"name":"阿波市発電所","fuel":"solar","output":""}},{"type":"Feature","geometry":{"type":"Point","coordinates":[134.37147,34.11208]},"properties":{"name":"阿波市発電所","fuel":"solar","output":""}},{"type":"Feature","geometry":{"type":"Point","coordinates":[132.55384,34.36374]},"properties":{"name":"東一丁目海田町発電所","fuel":"solar","output":""}},{"type":"Feature","geometry":{"type":"Point","coordinates":[132.55304,34.36356]},"properties":{"name":"三迫二丁目海田町発電所","fuel":"solar","output":""}},{"type":"Feature","geometry":{"type":"Point","coordinates":[133.63438,34.06597]},"properties":{"name":"豊浜町姫浜観音寺市発電所","fuel":"solar","output":""}},{"type":"Feature","geometry":{"type":"Point","coordinates":[133.78241,34.26442]},"properties":{"name":"金倉町丸亀市発電所","fuel":"solar","output":""}},{"type":"Feature","geometry":{"type":"Point","coordinates":[133.71066,34.15192]},"properties":{"name":"豊中町笠田笠岡三豊市発電所","fuel":"solar","output":""}},{"type":"Feature","geometry":{"type":"Point","coordinates":[134.06303,33.94989]},"properties":{"name":"切越つるぎ町発電所","fuel":"","output":""}},{"type":"Feature","geometry":{"type":"Point","coordinates":[133.03447,34.28614]},"properties":{"name":"上浦町盛今治市発電所","fuel":"solar","output":""}},{"type":"Feature","geometry":{"type":"Point","coordinates":[133.1684,33.93206]},"properties":{"name":"西条発電所","fuel":"coal","output":""}},{"type":"Feature","geometry":{"type":"Point","coordinates":[133.11425,33.93487]},"properties":{"name":"Nyugawa Power Plant","fuel":"coal","output":""}},{"type":"Feature","geometry":{"type":"Point","coordinates":[134.73302,34.19517]},"properties":{"name":"南淡風力発電施設","fuel":"solar","output":""}},{"type":"Feature","geometry":{"type":"Point","coordinates":[134.73504,34.19644]},"properties":{"name":"南淡風力発電施設","fuel":"solar","output":""}},{"type":"Feature","geometry":{"type":"Point","coordinates":[134.3057,33.81357]},"properties":{"name":"広野水力発電所","fuel":"","output":""}},{"type":"Feature","geometry":{"type":"Point","coordinates":[134.29599,33.80339]},"properties":{"name":"大殿那賀町発電所","fuel":"hydro","output":""}},{"type":"Feature","geometry":{"type":"Point","coordinates":[134.30062,33.82208]},"properties":{"name":"坂州発電所","fuel":"hydro","output":""}},{"type":"Feature","geometry":{"type":"Point","coordinates":[134.4096,33.79791]},"properties":{"name":"日野谷水力発電所","fuel":"hydro","output":""}},{"type":"Feature","geometry":{"type":"Point","coordinates":[133.68116,34.22592]},"properties":{"name":"京セラソーラーFC香川三豊","fuel":"solar","output":""}},{"type":"Feature","geometry":{"type":"Point","coordinates":[134.24105,34.29626]},"properties":{"name":"津田町津田さぬき市発電所","fuel":"solar","output":""}},{"type":"Feature","geometry":{"type":"Point","coordinates":[133.56515,33.97353]},"properties":{"name":"上柏町四国中央市発電所","fuel":"hydro","output":""}},{"type":"Feature","geometry":{"type":"Point","coordinates":[133.86779,34.27511]},"properties":{"name":"飯山第二ソーラー発電所","fuel":"solar","output":""}},{"type":"Feature","geometry":{"type":"Point","coordinates":[133.86957,34.27585]},"properties":{"name":"飯山ソーラー発電所","fuel":"solar","output":""}},{"type":"Feature","geometry":{"type":"Point","coordinates":[133.66874,34.2302]},"properties":{"name":"詫間町詫間三豊市発電所","fuel":"solar","output":""}},{"type":"Feature","geometry":{"type":"Point","coordinates":[133.66824,34.22953]},"properties":{"name":"詫間町詫間三豊市発電所","fuel":"solar","output":""}},{"type":"Feature","geometry":{"type":"Point","coordinates":[133.66813,34.23161]},"properties":{"name":"詫間町詫間三豊市発電所","fuel":"solar","output":""}},{"type":"Feature","geometry":{"type":"Point","coordinates":[133.6669,34.23029]},"properties":{"name":"詫間町詫間三豊市発電所","fuel":"solar","output":""}},{"type":"Feature","geometry":{"type":"Point","coordinates":[133.66724,34.23324]},"properties":{"name":"詫間町詫間三豊市発電所","fuel":"solar","output":""}},{"type":"Feature","geometry":{"type":"Point","coordinates":[133.6669,34.23386]},"properties":{"name":"詫間町詫間三豊市発電所","fuel":"solar","output":""}},{"type":"Feature","geometry":{"type":"Point","coordinates":[133.6666,34.23361]},"properties":{"name":"詫間町詫間三豊市発電所","fuel":"solar","output":""}},{"type":"Feature","geometry":{"type":"Point","coordinates":[133.6662,34.2334]},"properties":{"name":"詫間町詫間三豊市発電所","fuel":"solar","output":""}},{"type":"Feature","geometry":{"type":"Point","coordinates":[134.05646,34.35537]},"properties":{"name":"香川県高松港管理事務所","fuel":"solar","output":""}},{"type":"Feature","geometry":{"type":"Point","coordinates":[133.21046,33.44172]},"properties":{"name":"姫野々津野町発電所","fuel":"solar","output":""}},{"type":"Feature","geometry":{"type":"Point","coordinates":[133.22862,33.43422]},"properties":{"name":"新土居津野町発電所","fuel":"solar","output":""}},{"type":"Feature","geometry":{"type":"Point","coordinates":[134.11327,33.59109]},"properties":{"name":"魚梁瀬水力発電所","fuel":"hydro","output":""}},{"type":"Feature","geometry":{"type":"Point","coordinates":[134.1392,33.51757]},"properties":{"name":"二又水力発電所","fuel":"hydro","output":""}},{"type":"Feature","geometry":{"type":"Point","coordinates":[133.83748,33.67758]},"properties":{"name":"県営永瀬発電所","fuel":"hydro","output":""}},{"type":"Feature","geometry":{"type":"Point","coordinates":[133.73002,33.63772]},"properties":{"name":"土佐山田町杉田香美市発電所","fuel":"hydro","output":""}},{"type":"Feature","geometry":{"type":"Point","coordinates":[133.0361,34.15055]},"properties":{"name":"吉海町幸新田今治市発電所","fuel":"solar","output":""}},{"type":"Feature","geometry":{"type":"Point","coordinates":[134.13409,34.24409]},"properties":{"name":"大字氷上三木町発電所","fuel":"solar","output":""}},{"type":"Feature","geometry":{"type":"Point","coordinates":[134.1596,34.32844]},"properties":{"name":"牟礼町原高松市発電所","fuel":"solar","output":""}},{"type":"Feature","geometry":{"type":"Point","coordinates":[133.12587,34.31225]},"properties":{"name":"尾道市発電所","fuel":"solar","output":""}},{"type":"Feature","geometry":{"type":"Point","coordinates":[133.12529,34.31175]},"properties":{"name":"尾道市発電所","fuel":"solar","output":""}},{"type":"Feature","geometry":{"type":"Point","coordinates":[133.11963,34.31083]},"properties":{"name":"瀬戸田町林尾道市発電所","fuel":"solar","output":""}},{"type":"Feature","geometry":{"type":"Point","coordinates":[133.11496,34.30882]},"properties":{"name":"瀬戸田町林尾道市発電所","fuel":"solar","output":""}},{"type":"Feature","geometry":{"type":"Point","coordinates":[133.11391,34.31023]},"properties":{"name":"瀬戸田町林尾道市発電所","fuel":"solar","output":""}},{"type":"Feature","geometry":{"type":"Point","coordinates":[133.10104,34.30484]},"properties":{"name":"瀬戸田町沢尾道市発電所","fuel":"solar","output":""}},{"type":"Feature","geometry":{"type":"Point","coordinates":[133.09835,34.30427]},"properties":{"name":"瀬戸田町沢尾道市発電所","fuel":"solar","output":""}},{"type":"Feature","geometry":{"type":"Point","coordinates":[133.10144,34.30483]},"properties":{"name":"瀬戸田町沢尾道市発電所","fuel":"solar","output":""}},{"type":"Feature","geometry":{"type":"Point","coordinates":[134.51779,34.01417]},"properties":{"name":"徳島市発電所","fuel":"solar","output":""}},{"type":"Feature","geometry":{"type":"Point","coordinates":[133.6725,33.53503]},"properties":{"name":"下島南国市発電所","fuel":"solar","output":""}},{"type":"Feature","geometry":{"type":"Point","coordinates":[133.67212,33.53557]},"properties":{"name":"下島南国市発電所","fuel":"solar","output":""}},{"type":"Feature","geometry":{"type":"Point","coordinates":[133.67382,33.53913]},"properties":{"name":"高知空港ビル","fuel":"solar","output":""}},{"type":"Feature","geometry":{"type":"Point","coordinates":[133.03757,34.27136]},"properties":{"name":"CSDソーラー大三島太陽光発電所","fuel":"solar","output":""}},{"type":"Feature","geometry":{"type":"Point","coordinates":[132.8081,33.97546]},"properties":{"name":"正岡神田松山市発電所","fuel":"solar","output":""}},{"type":"Feature","geometry":{"type":"Point","coordinates":[133.03015,34.15279]},"properties":{"name":"今治市発電所","fuel":"solar","output":""}},{"type":"Feature","geometry":{"type":"Point","coordinates":[134.01289,34.22328]},"properties":{"name":"香南町由佐高松市発電所","fuel":"solar","output":""}},{"type":"Feature","geometry":{"type":"Point","coordinates":[134.00098,34.20752]},"properties":{"name":"綾川町発電所","fuel":"solar","output":""}},{"type":"Feature","geometry":{"type":"Point","coordinates":[134.011,34.35648]},"properties":{"name":"郷東町高松市発電所","fuel":"solar","output":""}},{"type":"Feature","geometry":{"type":"Point","coordinates":[133.97152,34.36973]},"properties":{"name":"神在川窪町高松市発電所","fuel":"solar","output":""}},{"type":"Feature","geometry":{"type":"Point","coordinates":[132.24069,34.20413]},"properties":{"name":"Marifu Refinery Power Station","fuel":"gas","output":""}},{"type":"Feature","geometry":{"type":"Point","coordinates":[133.55741,33.53396]},"properties":{"name":"Tosa Power Station","fuel":"biomass","output":""}},{"type":"Feature","geometry":{"type":"Point","coordinates":[132.23456,34.30148]},"properties":{"name":"大野太陽光発電所","fuel":"solar","output":""}},{"type":"Feature","geometry":{"type":"Point","coordinates":[133.34162,33.76569]},"properties":{"name":"脇ノ山いの町発電所","fuel":"hydro","output":""}},{"type":"Feature","geometry":{"type":"Point","coordinates":[133.6424,33.60529]},"properties":{"name":"左右山南国市発電所","fuel":"solar","output":""}},{"type":"Feature","geometry":{"type":"Point","coordinates":[133.64079,33.6059]},"properties":{"name":"旭食品株式会社四国総合流通センター","fuel":"solar","output":""}},{"type":"Feature","geometry":{"type":"Point","coordinates":[133.64143,33.6067]},"properties":{"name":"旭食品株式会社四国総合流通センター","fuel":"solar","output":""}},{"type":"Feature","geometry":{"type":"Point","coordinates":[134.70606,34.23009]},"properties":{"name":"ホテルニューアワジプラザ淡路島風力発電所","fuel":"solar","output":""}},{"type":"Feature","geometry":{"type":"Point","coordinates":[134.72385,34.25864]},"properties":{"name":"福良甲南あわじ市発電所","fuel":"solar","output":""}},{"type":"Feature","geometry":{"type":"Point","coordinates":[134.72513,34.25873]},"properties":{"name":"福良甲南あわじ市発電所","fuel":"solar","output":""}},{"type":"Feature","geometry":{"type":"Point","coordinates":[133.67268,33.56616]},"properties":{"name":"日章あけぼの南国市発電所","fuel":"solar","output":""}},{"type":"Feature","geometry":{"type":"Point","coordinates":[133.67569,33.56721]},"properties":{"name":"日章あけぼの南国市発電所","fuel":"solar","output":""}},{"type":"Feature","geometry":{"type":"Point","coordinates":[134.76054,34.26232]},"properties":{"name":"賀集福井南あわじ市発電所","fuel":"solar","output":""}},{"type":"Feature","geometry":{"type":"Point","coordinates":[134.75945,34.26239]},"properties":{"name":"賀集福井南あわじ市発電所","fuel":"solar","output":""}},{"type":"Feature","geometry":{"type":"Point","coordinates":[134.7583,34.26252]},"properties":{"name":"賀集福井南あわじ市発電所","fuel":"solar","output":""}},{"type":"Feature","geometry":{"type":"Point","coordinates":[132.81312,34.18983]},"properties":{"name":"三角呉市発電所","fuel":"solar","output":""}},{"type":"Feature","geometry":{"type":"Point","coordinates":[132.81593,34.19011]},"properties":{"name":"三角呉市発電所","fuel":"solar","output":""}},{"type":"Feature","geometry":{"type":"Point","coordinates":[132.81639,34.19022]},"properties":{"name":"三角呉市発電所","fuel":"solar","output":""}},{"type":"Feature","geometry":{"type":"Point","coordinates":[132.81689,34.19034]},"properties":{"name":"三角呉市発電所","fuel":"solar","output":""}},{"type":"Feature","geometry":{"type":"Point","coordinates":[132.81742,34.19048]},"properties":{"name":"三角呉市発電所","fuel":"solar","output":""}},{"type":"Feature","geometry":{"type":"Point","coordinates":[132.81558,34.19049]},"properties":{"name":"三角呉市発電所","fuel":"solar","output":""}},{"type":"Feature","geometry":{"type":"Point","coordinates":[133.21272,33.84965]},"properties":{"name":"西条市発電所","fuel":"hydro","output":""}},{"type":"Feature","geometry":{"type":"Point","coordinates":[134.7353,34.21865]},"properties":{"name":"阿万下町南あわじ市発電所","fuel":"solar","output":""}},{"type":"Feature","geometry":{"type":"Point","coordinates":[134.74983,34.19578]},"properties":{"name":"灘地野南あわじ市発電所","fuel":"solar","output":""}},{"type":"Feature","geometry":{"type":"Point","coordinates":[133.55765,33.49572]},"properties":{"name":"中村農園","fuel":"solar","output":""}},{"type":"Feature","geometry":{"type":"Point","coordinates":[133.00067,33.5346]},"properties":{"name":"柳井川久万高原町発電所","fuel":"hydro","output":""}},{"type":"Feature","geometry":{"type":"Point","coordinates":[132.74579,33.45377]},"properties":{"name":"野村町舟戸大洲市発電所","fuel":"hydro","output":""}},{"type":"Feature","geometry":{"type":"Point","coordinates":[132.28212,34.37098]},"properties":{"name":"廿日市市発電所","fuel":"solar","output":""}},{"type":"Feature","geometry":{"type":"Point","coordinates":[132.24767,34.27099]},"properties":{"name":"八坂一丁目廿日市市発電所","fuel":"solar","output":""}},{"type":"Feature","geometry":{"type":"Point","coordinates":[133.77971,34.29016]},"properties":{"name":"塩屋町五丁目丸亀市発電所","fuel":"solar","output":""}},{"type":"Feature","geometry":{"type":"Point","coordinates":[132.93987,33.98421]},"properties":{"name":"鈍川発電所","fuel":"hydro","output":""}},{"type":"Feature","geometry":{"type":"Point","coordinates":[134.00456,34.24058]},"properties":{"name":"香南町横井高松市発電所","fuel":"solar","output":""}},{"type":"Feature","geometry":{"type":"Point","coordinates":[133.92737,34.23434]},"properties":{"name":"北綾川町発電所","fuel":"solar","output":""}},{"type":"Feature","geometry":{"type":"Point","coordinates":[133.89623,34.22925]},"properties":{"name":"綾歌町栗熊東丸亀市発電所","fuel":"solar","output":""}},{"type":"Feature","geometry":{"type":"Point","coordinates":[133.89898,34.2294]},"properties":{"name":"羽床下綾川町発電所","fuel":"solar","output":""}},{"type":"Feature","geometry":{"type":"Point","coordinates":[133.87966,34.22322]},"properties":{"name":"綾歌町栗熊西丸亀市発電所","fuel":"solar","output":""}},{"type":"Feature","geometry":{"type":"Point","coordinates":[133.85917,34.19794]},"properties":{"name":"長尾まんのう町発電所","fuel":"solar","output":""}},{"type":"Feature","geometry":{"type":"Point","coordinates":[133.84567,34.18692]},"properties":{"name":"満濃町役場","fuel":"solar","output":""}},{"type":"Feature","geometry":{"type":"Point","coordinates":[134.15858,34.32919]},"properties":{"name":"牟礼町原高松市発電所","fuel":"solar","output":""}},{"type":"Feature","geometry":{"type":"Point","coordinates":[134.16738,34.3222]},"properties":{"name":"株式会社広真印刷社太陽光発電設備導入事業","fuel":"solar","output":""}},{"type":"Feature","geometry":{"type":"Point","coordinates":[134.16706,34.32282]},"properties":{"name":"株式会社広真印刷社太陽光発電設備導入事業","fuel":"solar","output":""}},{"type":"Feature","geometry":{"type":"Point","coordinates":[134.18258,34.31327]},"properties":{"name":"さぬき市発電所","fuel":"solar","output":""}},{"type":"Feature","geometry":{"type":"Point","coordinates":[134.18296,34.31356]},"properties":{"name":"さぬき市発電所","fuel":"solar","output":""}},{"type":"Feature","geometry":{"type":"Point","coordinates":[134.25829,34.28197]},"properties":{"name":"津田町鶴羽さぬき市発電所","fuel":"solar","output":""}},{"type":"Feature","geometry":{"type":"Point","coordinates":[134.32481,34.25127]},"properties":{"name":"横内東かがわ市発電所","fuel":"solar","output":""}},{"type":"Feature","geometry":{"type":"Point","coordinates":[134.35072,34.2469]},"properties":{"name":"湊東かがわ市発電所","fuel":"solar","output":""}},{"type":"Feature","geometry":{"type":"Point","coordinates":[134.35063,34.24722]},"properties":{"name":"湊東かがわ市発電所","fuel":"solar","output":""}},{"type":"Feature","geometry":{"type":"Point","coordinates":[134.34945,34.24772]},"properties":{"name":"湊東かがわ市発電所","fuel":"solar","output":""}},{"type":"Feature","geometry":{"type":"Point","coordinates":[134.35406,34.24555]},"properties":{"name":"湊東かがわ市発電所","fuel":"solar","output":""}},{"type":"Feature","geometry":{"type":"Point","coordinates":[134.35364,34.24507]},"properties":{"name":"湊東かがわ市発電所","fuel":"solar","output":""}},{"type":"Feature","geometry":{"type":"Point","coordinates":[134.35264,34.24571]},"properties":{"name":"湊東かがわ市発電所","fuel":"solar","output":""}},{"type":"Feature","geometry":{"type":"Point","coordinates":[134.49482,34.15354]},"properties":{"name":"鳴門市発電所","fuel":"solar","output":""}},{"type":"Feature","geometry":{"type":"Point","coordinates":[134.50081,34.15523]},"properties":{"name":"大麻町板東鳴門市発電所","fuel":"solar","output":""}},{"type":"Feature","geometry":{"type":"Point","coordinates":[134.52857,34.15207]},"properties":{"name":"大麻町高畑鳴門市発電所","fuel":"solar","output":""}},{"type":"Feature","geometry":{"type":"Point","coordinates":[134.5388,34.15855]},"properties":{"name":"大麻町松村鳴門市発電所","fuel":"solar","output":""}},{"type":"Feature","geometry":{"type":"Point","coordinates":[134.54749,34.15877]},"properties":{"name":"大麻町姫田鳴門市発電所","fuel":"solar","output":""}},{"type":"Feature","geometry":{"type":"Point","coordinates":[134.55414,34.16089]},"properties":{"name":"大麻町姫田鳴門市発電所","fuel":"solar","output":""}},{"type":"Feature","geometry":{"type":"Point","coordinates":[134.55262,34.16029]},"properties":{"name":"大麻町姫田鳴門市発電所","fuel":"solar","output":""}},{"type":"Feature","geometry":{"type":"Point","coordinates":[134.56329,34.16395]},"properties":{"name":"大津町大代鳴門市発電所","fuel":"solar","output":""}},{"type":"Feature","geometry":{"type":"Point","coordinates":[134.56778,34.16526]},"properties":{"name":"鳴門市発電所","fuel":"solar","output":""}},{"type":"Feature","geometry":{"type":"Point","coordinates":[134.59069,34.17193]},"properties":{"name":"撫養町木津鳴門市発電所","fuel":"solar","output":""}},{"type":"Feature","geometry":{"type":"Point","coordinates":[134.57692,34.16704]},"properties":{"name":"撫養町木津鳴門市発電所","fuel":"solar","output":""}},{"type":"Feature","geometry":{"type":"Point","coordinates":[134.54042,34.15777]},"properties":{"name":"大麻町松村鳴門市発電所","fuel":"solar","output":""}},{"type":"Feature","geometry":{"type":"Point","coordinates":[134.53859,34.15776]},"properties":{"name":"大麻町松村鳴門市発電所","fuel":"solar","output":""}},{"type":"Feature","geometry":{"type":"Point","coordinates":[134.53955,34.15747]},"properties":{"name":"大麻町松村鳴門市発電所","fuel":"solar","output":""}},{"type":"Feature","geometry":{"type":"Point","coordinates":[134.51249,34.15545]},"properties":{"name":"大麻町萩原鳴門市発電所","fuel":"solar","output":""}},{"type":"Feature","geometry":{"type":"Point","coordinates":[134.4917,34.15275]},"properties":{"name":"鳴門市発電所","fuel":"solar","output":""}},{"type":"Feature","geometry":{"type":"Point","coordinates":[134.49366,34.15399]},"properties":{"name":"鳴門市発電所","fuel":"solar","output":""}},{"type":"Feature","geometry":{"type":"Point","coordinates":[134.48621,34.15041]},"properties":{"name":"川端鳴門市発電所","fuel":"solar","output":""}},{"type":"Feature","geometry":{"type":"Point","coordinates":[134.48741,34.15121]},"properties":{"name":"川端鳴門市発電所","fuel":"solar","output":""}},{"type":"Feature","geometry":{"type":"Point","coordinates":[134.48854,34.15159]},"properties":{"name":"鳴門市発電所","fuel":"solar","output":""}},{"type":"Feature","geometry":{"type":"Point","coordinates":[134.48972,34.15213]},"properties":{"name":"川端鳴門市発電所","fuel":"solar","output":""}},{"type":"Feature","geometry":{"type":"Point","coordinates":[134.49034,34.15213]},"properties":{"name":"川端鳴門市発電所","fuel":"solar","output":""}},{"type":"Feature","geometry":{"type":"Point","coordinates":[134.46307,34.14281]},"properties":{"name":"大寺板野町発電所","fuel":"solar","output":""}},{"type":"Feature","geometry":{"type":"Point","coordinates":[134.46338,34.1425]},"properties":{"name":"大寺板野町発電所","fuel":"solar","output":""}},{"type":"Feature","geometry":{"type":"Point","coordinates":[134.42341,34.21292]},"properties":{"name":"南野東かがわ市発電所","fuel":"solar","output":""}},{"type":"Feature","geometry":{"type":"Point","coordinates":[134.42408,34.21255]},"properties":{"name":"南野東かがわ市発電所","fuel":"solar","output":""}},{"type":"Feature","geometry":{"type":"Point","coordinates":[134.3924,34.22343]},"properties":{"name":"引田東かがわ市発電所","fuel":"solar","output":""}},{"type":"Feature","geometry":{"type":"Point","coordinates":[134.37492,34.24036]},"properties":{"name":"伊座東かがわ市発電所","fuel":"solar","output":""}},{"type":"Feature","geometry":{"type":"Point","coordinates":[134.35379,34.24611]},"properties":{"name":"湊東かがわ市発電所","fuel":"solar","output":""}},{"type":"Feature","geometry":{"type":"Point","coordinates":[134.35452,34.24615]},"properties":{"name":"湊東かがわ市発電所","fuel":"solar","output":""}},{"type":"Feature","geometry":{"type":"Point","coordinates":[134.36441,34.24383]},"properties":{"name":"東かがわ市発電所","fuel":"solar","output":""}},{"type":"Feature","geometry":{"type":"Point","coordinates":[134.36507,34.24386]},"properties":{"name":"東かがわ市発電所","fuel":"solar","output":""}},{"type":"Feature","geometry":{"type":"Point","coordinates":[134.15228,34.34439]},"properties":{"name":"香川県立高松北高等学校","fuel":"solar","output":""}},{"type":"Feature","geometry":{"type":"Point","coordinates":[134.15178,34.34049]},"properties":{"name":"牟礼町大町高松市発電所","fuel":"solar","output":""}},{"type":"Feature","geometry":{"type":"Point","coordinates":[134.23631,34.08884]},"properties":{"name":"阿波町南五味知阿波市発電所","fuel":"solar","output":""}},{"type":"Feature","geometry":{"type":"Point","coordinates":[134.23403,34.08799]},"properties":{"name":"阿波町東原阿波市発電所","fuel":"solar","output":""}},{"type":"Feature","geometry":{"type":"Point","coordinates":[134.23789,34.08977]},"properties":{"name":"阿波町川添阿波市発電所","fuel":"solar","output":""}},{"type":"Feature","geometry":{"type":"Point","coordinates":[134.24023,34.09061]},"properties":{"name":"阿波町本町阿波市発電所","fuel":"solar","output":""}},{"type":"Feature","geometry":{"type":"Point","coordinates":[134.2396,34.09081]},"properties":{"name":"阿波町本町阿波市発電所","fuel":"solar","output":""}},{"type":"Feature","geometry":{"type":"Point","coordinates":[134.23965,34.09106]},"properties":{"name":"阿波町本町阿波市発電所","fuel":"solar","output":""}},{"type":"Feature","geometry":{"type":"Point","coordinates":[134.24027,34.09132]},"properties":{"name":"阿波町本町阿波市発電所","fuel":"solar","output":""}},{"type":"Feature","geometry":{"type":"Point","coordinates":[134.23877,34.09152]},"properties":{"name":"阿波町四歩一阿波市発電所","fuel":"solar","output":""}},{"type":"Feature","geometry":{"type":"Point","coordinates":[134.23964,34.09167]},"properties":{"name":"阿波町四歩一阿波市発電所","fuel":"solar","output":""}},{"type":"Feature","geometry":{"type":"Point","coordinates":[134.23841,34.0918]},"properties":{"name":"阿波町四歩一阿波市発電所","fuel":"solar","output":""}},{"type":"Feature","geometry":{"type":"Point","coordinates":[134.23773,34.09147]},"properties":{"name":"阿波町川添阿波市発電所","fuel":"solar","output":""}},{"type":"Feature","geometry":{"type":"Point","coordinates":[134.23536,34.09124]},"properties":{"name":"阿波町南五味知阿波市発電所","fuel":"solar","output":""}},{"type":"Feature","geometry":{"type":"Point","coordinates":[134.23639,34.09124]},"properties":{"name":"阿波町南五味知阿波市発電所","fuel":"solar","output":""}},{"type":"Feature","geometry":{"type":"Point","coordinates":[134.2338,34.09082]},"properties":{"name":"四国_34.0908_134.2338","fuel":"solar","output":""}},{"type":"Feature","geometry":{"type":"Point","coordinates":[133.74249,34.26122]},"properties":{"name":"大字東白方多度津町発電所","fuel":"solar","output":""}},{"type":"Feature","geometry":{"type":"Point","coordinates":[132.68395,34.38512]},"properties":{"name":"Hiroshima Elpida (Micron) Power Station","fuel":"gas","output":""}},{"type":"Feature","geometry":{"type":"Point","coordinates":[133.37876,33.48345]},"properties":{"name":"土佐市発電所","fuel":"solar","output":""}},{"type":"Feature","geometry":{"type":"Point","coordinates":[133.81271,34.24888]},"properties":{"name":"郡家町丸亀市発電所","fuel":"solar","output":""}},{"type":"Feature","geometry":{"type":"Point","coordinates":[133.78422,34.22283]},"properties":{"name":"生野本町二丁目善通寺市発電所","fuel":"solar","output":""}},{"type":"Feature","geometry":{"type":"Point","coordinates":[133.78572,34.22271]},"properties":{"name":"生野町善通寺市発電所","fuel":"solar","output":""}},{"type":"Feature","geometry":{"type":"Point","coordinates":[133.78602,34.22132]},"properties":{"name":"生野町善通寺市発電所","fuel":"solar","output":""}},{"type":"Feature","geometry":{"type":"Point","coordinates":[133.81785,34.31318]},"properties":{"name":"社会福祉法人鵜足津福祉会","fuel":"solar","output":""}},{"type":"Feature","geometry":{"type":"Point","coordinates":[133.78556,34.22416]},"properties":{"name":"生野本町二丁目善通寺市発電所","fuel":"solar","output":""}},{"type":"Feature","geometry":{"type":"Point","coordinates":[133.7862,34.22462]},"properties":{"name":"生野本町二丁目善通寺市発電所","fuel":"solar","output":""}},{"type":"Feature","geometry":{"type":"Point","coordinates":[133.3057,33.88542]},"properties":{"name":"東平発電所","fuel":"hydro","output":""}},{"type":"Feature","geometry":{"type":"Point","coordinates":[133.30957,33.91851]},"properties":{"name":"山根発電所","fuel":"hydro","output":""}},{"type":"Feature","geometry":{"type":"Point","coordinates":[132.23497,34.22447]},"properties":{"name":"Mitsubishi Chemical Hiroshima Factory Power Plant","fuel":"coal","output":""}},{"type":"Feature","geometry":{"type":"Point","coordinates":[134.23291,34.08547]},"properties":{"name":"阿波町東原阿波市発電所","fuel":"solar","output":""}},{"type":"Feature","geometry":{"type":"Point","coordinates":[134.23096,34.09027]},"properties":{"name":"阿波町東柴生阿波市発電所","fuel":"solar","output":""}},{"type":"Feature","geometry":{"type":"Point","coordinates":[133.7846,34.25097]},"properties":{"name":"原田町善通寺市発電所","fuel":"solar","output":""}},{"type":"Feature","geometry":{"type":"Point","coordinates":[133.78255,34.25318]},"properties":{"name":"金蔵寺町善通寺市発電所","fuel":"solar","output":""}},{"type":"Feature","geometry":{"type":"Point","coordinates":[133.78283,34.25568]},"properties":{"name":"原田町丸亀市発電所","fuel":"solar","output":""}},{"type":"Feature","geometry":{"type":"Point","coordinates":[133.79924,34.2535]},"properties":{"name":"原田町善通寺市発電所","fuel":"solar","output":""}},{"type":"Feature","geometry":{"type":"Point","coordinates":[133.78271,34.24799]},"properties":{"name":"金蔵寺町善通寺市発電所","fuel":"solar","output":""}},{"type":"Feature","geometry":{"type":"Point","coordinates":[133.55123,33.9977]},"properties":{"name":"Daio Paper Mishima Mills Power Station","fuel":"","output":""}},{"type":"Feature","geometry":{"type":"Point","coordinates":[133.95333,34.32219]},"properties":{"name":"いちご高松国分寺町新居ECO発電所","fuel":"solar","output":""}},{"type":"Feature","geometry":{"type":"Point","coordinates":[133.64151,34.20145]},"properties":{"name":"仁尾支所","fuel":"solar","output":""}},{"type":"Feature","geometry":{"type":"Point","coordinates":[134.24092,34.07453]},"properties":{"name":"切戸小水力発電設備","fuel":"solar","output":""}},{"type":"Feature","geometry":{"type":"Point","coordinates":[134.24128,34.07545]},"properties":{"name":"切戸小水力発電設備","fuel":"solar","output":""}},{"type":"Feature","geometry":{"type":"Point","coordinates":[134.23887,34.07389]},"properties":{"name":"切戸小水力発電設備","fuel":"solar","output":""}},{"type":"Feature","geometry":{"type":"Point","coordinates":[134.23955,34.07491]},"properties":{"name":"切戸小水力発電設備","fuel":"solar","output":""}},{"type":"Feature","geometry":{"type":"Point","coordinates":[134.23824,34.07549]},"properties":{"name":"切戸小水力発電設備","fuel":"solar","output":""}},{"type":"Feature","geometry":{"type":"Point","coordinates":[133.83919,34.03772]},"properties":{"name":"池田町州津三好市発電所","fuel":"solar","output":""}},{"type":"Feature","geometry":{"type":"Point","coordinates":[133.84281,34.03803]},"properties":{"name":"池田町州津三好市発電所","fuel":"solar","output":""}},{"type":"Feature","geometry":{"type":"Point","coordinates":[133.84571,34.03761]},"properties":{"name":"池田町州津三好市発電所","fuel":"solar","output":""}},{"type":"Feature","geometry":{"type":"Point","coordinates":[133.68507,34.20912]},"properties":{"name":"三野町吉津三豊市発電所","fuel":"solar","output":""}},{"type":"Feature","geometry":{"type":"Point","coordinates":[133.79375,34.26071]},"properties":{"name":"田村町丸亀市発電所","fuel":"solar","output":""}},{"type":"Feature","geometry":{"type":"Point","coordinates":[133.56626,33.51895]},"properties":{"name":"土佐グリーンパワー株式会社 土佐発電所","fuel":"biomass","output":""}},{"type":"Feature","geometry":{"type":"Point","coordinates":[133.68042,34.22933]},"properties":{"name":"株式会社ヒロセー","fuel":"solar","output":""}},{"type":"Feature","geometry":{"type":"Point","coordinates":[133.67932,34.22956]},"properties":{"name":"株式会社ヒロセー","fuel":"solar","output":""}},{"type":"Feature","geometry":{"type":"Point","coordinates":[133.68319,34.23002]},"properties":{"name":"株式会社ヒロセー","fuel":"solar","output":""}},{"type":"Feature","geometry":{"type":"Point","coordinates":[133.68043,34.22178]},"properties":{"name":"詫間町詫間三豊市発電所","fuel":"solar","output":""}},{"type":"Feature","geometry":{"type":"Point","coordinates":[133.66779,34.22844]},"properties":{"name":"詫間町詫間三豊市発電所","fuel":"solar","output":""}},{"type":"Feature","geometry":{"type":"Point","coordinates":[133.68288,34.22057]},"properties":{"name":"詫間町詫間三豊市発電所","fuel":"solar","output":""}},{"type":"Feature","geometry":{"type":"Point","coordinates":[133.67942,34.21837]},"properties":{"name":"詫間町詫間三豊市発電所","fuel":"solar","output":""}},{"type":"Feature","geometry":{"type":"Point","coordinates":[133.67924,34.21784]},"properties":{"name":"詫間町詫間三豊市発電所","fuel":"solar","output":""}},{"type":"Feature","geometry":{"type":"Point","coordinates":[133.67664,34.21802]},"properties":{"name":"詫間町詫間三豊市発電所","fuel":"solar","output":""}},{"type":"Feature","geometry":{"type":"Point","coordinates":[133.67612,34.21822]},"properties":{"name":"詫間町詫間三豊市発電所","fuel":"solar","output":""}},{"type":"Feature","geometry":{"type":"Point","coordinates":[133.67854,34.21603]},"properties":{"name":"仁尾町仁尾三豊市発電所","fuel":"solar","output":""}},{"type":"Feature","geometry":{"type":"Point","coordinates":[133.6657,34.22863]},"properties":{"name":"詫間町詫間三豊市発電所","fuel":"solar","output":""}},{"type":"Feature","geometry":{"type":"Point","coordinates":[133.6653,34.22832]},"properties":{"name":"詫間町詫間三豊市発電所","fuel":"solar","output":""}},{"type":"Feature","geometry":{"type":"Point","coordinates":[133.6637,34.22993]},"properties":{"name":"詫間町詫間三豊市発電所","fuel":"solar","output":""}},{"type":"Feature","geometry":{"type":"Point","coordinates":[133.66298,34.23299]},"properties":{"name":"詫間町詫間三豊市発電所","fuel":"solar","output":""}},{"type":"Feature","geometry":{"type":"Point","coordinates":[133.66545,34.22502]},"properties":{"name":"詫間町詫間三豊市発電所","fuel":"solar","output":""}},{"type":"Feature","geometry":{"type":"Point","coordinates":[133.78004,34.28072]},"properties":{"name":"今津町丸亀市発電所","fuel":"solar","output":""}},{"type":"Feature","geometry":{"type":"Point","coordinates":[133.77704,34.28184]},"properties":{"name":"天満町一丁目丸亀市発電所","fuel":"solar","output":""}},{"type":"Feature","geometry":{"type":"Point","coordinates":[133.77751,34.28089]},"properties":{"name":"天満町一丁目丸亀市発電所","fuel":"solar","output":""}},{"type":"Feature","geometry":{"type":"Point","coordinates":[133.77773,34.2847]},"properties":{"name":"天満町二丁目丸亀市発電所","fuel":"solar","output":""}},{"type":"Feature","geometry":{"type":"Point","coordinates":[133.17088,33.44141]},"properties":{"name":"大野津野町発電所","fuel":"solar","output":""}},{"type":"Feature","geometry":{"type":"Point","coordinates":[133.76769,34.27713]},"properties":{"name":"北鴨二丁目多度津町発電所","fuel":"solar","output":""}},{"type":"Feature","geometry":{"type":"Point","coordinates":[133.58889,34.00744]},"properties":{"name":"金生町下分四国中央市発電所","fuel":"solar","output":""}},{"type":"Feature","geometry":{"type":"Point","coordinates":[133.75831,34.27755]},"properties":{"name":"堀江三丁目多度津町発電所","fuel":"solar","output":""}},{"type":"Feature","geometry":{"type":"Point","coordinates":[133.77972,34.30578]},"properties":{"name":"蓬莱町丸亀市発電所","fuel":"solar","output":""}},{"type":"Feature","geometry":{"type":"Point","coordinates":[133.54832,33.97084]},"properties":{"name":"中曽根町四国中央市発電所","fuel":"solar","output":""}},{"type":"Feature","geometry":{"type":"Point","coordinates":[133.87995,33.52458]},"properties":{"name":"こうち安芸メガソーラー発電所","fuel":"solar","output":""}},{"type":"Feature","geometry":{"type":"Point","coordinates":[133.88327,33.52403]},"properties":{"name":"サンシャインパーク安芸","fuel":"solar","output":""}},{"type":"Feature","geometry":{"type":"Point","coordinates":[133.80754,34.24309]},"properties":{"name":"三条町丸亀市発電所","fuel":"solar","output":""}},{"type":"Feature","geometry":{"type":"Point","coordinates":[133.80246,34.23517]},"properties":{"name":"木徳町善通寺市発電所","fuel":"solar","output":""}},{"type":"Feature","geometry":{"type":"Point","coordinates":[133.80292,34.23468]},"properties":{"name":"木徳町善通寺市発電所","fuel":"solar","output":""}},{"type":"Feature","geometry":{"type":"Point","coordinates":[133.82991,34.29299]},"properties":{"name":"大字東分宇多津町発電所","fuel":"solar","output":""}},{"type":"Feature","geometry":{"type":"Point","coordinates":[133.82975,34.29342]},"properties":{"name":"大字東分宇多津町発電所","fuel":"solar","output":""}},{"type":"Feature","geometry":{"type":"Point","coordinates":[133.83186,34.29157]},"properties":{"name":"大字東分宇多津町発電所","fuel":"solar","output":""}},{"type":"Feature","geometry":{"type":"Point","coordinates":[133.83237,34.2917]},"properties":{"name":"大字東分宇多津町発電所","fuel":"solar","output":""}},{"type":"Feature","geometry":{"type":"Point","coordinates":[133.83385,34.29143]},"properties":{"name":"大字東分宇多津町発電所","fuel":"solar","output":""}},{"type":"Feature","geometry":{"type":"Point","coordinates":[133.83551,34.28903]},"properties":{"name":"飯野町東分丸亀市発電所","fuel":"solar","output":""}},{"type":"Feature","geometry":{"type":"Point","coordinates":[133.8348,34.2891]},"properties":{"name":"飯野町東分丸亀市発電所","fuel":"solar","output":""}},{"type":"Feature","geometry":{"type":"Point","coordinates":[133.83677,34.28902]},"properties":{"name":"大字東分宇多津町発電所","fuel":"solar","output":""}},{"type":"Feature","geometry":{"type":"Point","coordinates":[133.83776,34.29046]},"properties":{"name":"大字東分宇多津町発電所","fuel":"solar","output":""}},{"type":"Feature","geometry":{"type":"Point","coordinates":[132.80911,34.31821]},"properties":{"name":"東広島市発電所","fuel":"solar","output":""}},{"type":"Feature","geometry":{"type":"Point","coordinates":[132.80885,34.318]},"properties":{"name":"東広島市発電所","fuel":"solar","output":""}},{"type":"Feature","geometry":{"type":"Point","coordinates":[132.8097,34.31905]},"properties":{"name":"東広島市発電所","fuel":"solar","output":""}},{"type":"Feature","geometry":{"type":"Point","coordinates":[132.81058,34.31988]},"properties":{"name":"東広島市発電所","fuel":"solar","output":""}},{"type":"Feature","geometry":{"type":"Point","coordinates":[134.1692,33.29502]},"properties":{"name":"室津室戸市発電所","fuel":"solar","output":""}},{"type":"Feature","geometry":{"type":"Point","coordinates":[134.16903,33.29569]},"properties":{"name":"室津室戸市発電所","fuel":"solar","output":""}},{"type":"Feature","geometry":{"type":"Point","coordinates":[134.224,33.42578]},"properties":{"name":"室戸市発電所","fuel":"solar","output":""}},{"type":"Feature","geometry":{"type":"Point","coordinates":[132.52475,34.36482]},"properties":{"name":"Kaita power station","fuel":"coal","output":""}},{"type":"Feature","geometry":{"type":"Point","coordinates":[132.74573,34.38453]},"properties":{"name":"西条町大沢東広島市発電所","fuel":"solar","output":""}},{"type":"Feature","geometry":{"type":"Point","coordinates":[132.74565,34.38607]},"properties":{"name":"西条町大沢東広島市発電所","fuel":"solar","output":""}},{"type":"Feature","geometry":{"type":"Point","coordinates":[132.74499,34.38663]},"properties":{"name":"西条町大沢東広島市発電所","fuel":"solar","output":""}},{"type":"Feature","geometry":{"type":"Point","coordinates":[132.74408,34.38666]},"properties":{"name":"西条町福本東広島市発電所","fuel":"solar","output":""}},{"type":"Feature","geometry":{"type":"Point","coordinates":[134.05722,33.38928]},"properties":{"name":"高知室戸メガソーラー発電所","fuel":"solar","output":""}},{"type":"Feature","geometry":{"type":"Point","coordinates":[133.79116,34.27103]},"properties":{"name":"田村町丸亀市発電所","fuel":"solar","output":""}},{"type":"Feature","geometry":{"type":"Point","coordinates":[132.18986,33.93117]},"properties":{"name":"大島商船高等専門学校太陽光発電設備","fuel":"solar","output":""}},{"type":"Feature","geometry":{"type":"Point","coordinates":[132.18378,33.92819]},"properties":{"name":"小松開作周防大島町発電所","fuel":"solar","output":""}},{"type":"Feature","geometry":{"type":"Point","coordinates":[132.18476,33.92707]},"properties":{"name":"小松開作周防大島町発電所","fuel":"solar","output":""}},{"type":"Feature","geometry":{"type":"Point","coordinates":[133.80747,34.21746]},"properties":{"name":"下櫛梨琴平町発電所","fuel":"solar","output":""}},{"type":"Feature","geometry":{"type":"Point","coordinates":[133.80558,34.22267]},"properties":{"name":"櫛梨町善通寺市発電所","fuel":"solar","output":""}},{"type":"Feature","geometry":{"type":"Point","coordinates":[133.81106,34.22789]},"properties":{"name":"ぜんつうじ太陽光発電所","fuel":"solar","output":""}},{"type":"Feature","geometry":{"type":"Point","coordinates":[133.30915,33.94086]},"properties":{"name":"外山町新居浜市発電所","fuel":"solar","output":""}},{"type":"Feature","geometry":{"type":"Point","coordinates":[133.30872,33.93346]},"properties":{"name":"北内町二丁目新居浜市発電所","fuel":"solar","output":""}},{"type":"Feature","geometry":{"type":"Point","coordinates":[133.30953,33.93187]},"properties":{"name":"北内町二丁目新居浜市発電所","fuel":"solar","output":""}},{"type":"Feature","geometry":{"type":"Point","coordinates":[133.30605,33.92648]},"properties":{"name":"中筋町一丁目新居浜市発電所","fuel":"solar","output":""}},{"type":"Feature","geometry":{"type":"Point","coordinates":[133.29371,33.92502]},"properties":{"name":"篠場町新居浜市発電所","fuel":"solar","output":""}},{"type":"Feature","geometry":{"type":"Point","coordinates":[133.81044,34.26364]},"properties":{"name":"郡家町丸亀市発電所","fuel":"solar","output":""}},{"type":"Feature","geometry":{"type":"Point","coordinates":[133.72128,33.68366]},"properties":{"name":"香美市発電所","fuel":"solar","output":""}},{"type":"Feature","geometry":{"type":"Point","coordinates":[133.82131,34.27449]},"properties":{"name":"土器町西一丁目丸亀市発電所","fuel":"solar","output":""}},{"type":"Feature","geometry":{"type":"Point","coordinates":[133.82078,34.27363]},"properties":{"name":"土器町西一丁目丸亀市発電所","fuel":"solar","output":""}},{"type":"Feature","geometry":{"type":"Point","coordinates":[133.81792,34.27656]},"properties":{"name":"土器町西一丁目丸亀市発電所","fuel":"solar","output":""}},{"type":"Feature","geometry":{"type":"Point","coordinates":[133.81599,34.27646]},"properties":{"name":"土器町西二丁目丸亀市発電所","fuel":"solar","output":""}},{"type":"Feature","geometry":{"type":"Point","coordinates":[133.8148,34.27842]},"properties":{"name":"土器町西二丁目丸亀市発電所","fuel":"solar","output":""}},{"type":"Feature","geometry":{"type":"Point","coordinates":[132.63238,34.34311]},"properties":{"name":"黒瀬町津江東広島市発電所","fuel":"solar","output":""}},{"type":"Feature","geometry":{"type":"Point","coordinates":[132.75205,34.27954]},"properties":{"name":"8丁目呉市発電所","fuel":"solar","output":""}},{"type":"Feature","geometry":{"type":"Point","coordinates":[133.76576,34.28051]},"properties":{"name":"北鴨三丁目多度津町発電所","fuel":"solar","output":""}},{"type":"Feature","geometry":{"type":"Point","coordinates":[133.08961,34.22963]},"properties":{"name":"伯方町北浦今治市発電所","fuel":"solar","output":""}},{"type":"Feature","geometry":{"type":"Point","coordinates":[133.11272,34.21513]},"properties":{"name":"伯方町木浦今治市発電所","fuel":"solar","output":""}},{"type":"Feature","geometry":{"type":"Point","coordinates":[133.69345,34.16364]},"properties":{"name":"豊中町比地大三豊市発電所","fuel":"solar","output":""}},{"type":"Feature","geometry":{"type":"Point","coordinates":[133.69335,34.16436]},"properties":{"name":"豊中町比地大三豊市発電所","fuel":"solar","output":""}},{"type":"Feature","geometry":{"type":"Point","coordinates":[133.69202,34.16327]},"properties":{"name":"豊中町比地大三豊市発電所","fuel":"solar","output":""}},{"type":"Feature","geometry":{"type":"Point","coordinates":[133.69336,34.15984]},"properties":{"name":"豊中町下高野三豊市発電所","fuel":"solar","output":""}},{"type":"Feature","geometry":{"type":"Point","coordinates":[133.69179,34.1606]},"properties":{"name":"豊中町下高野三豊市発電所","fuel":"solar","output":""}},{"type":"Feature","geometry":{"type":"Point","coordinates":[133.6923,34.16162]},"properties":{"name":"豊中町下高野三豊市発電所","fuel":"solar","output":""}},{"type":"Feature","geometry":{"type":"Point","coordinates":[133.83698,34.31]},"properties":{"name":"宇多津町発電所","fuel":"solar","output":""}},{"type":"Feature","geometry":{"type":"Point","coordinates":[133.84154,34.30862]},"properties":{"name":"角山環境センター","fuel":"waste","output":""}},{"type":"Feature","geometry":{"type":"Point","coordinates":[133.6363,34.07489]},"properties":{"name":"郵便局株式会社豊浜郵便局","fuel":"solar","output":""}},{"type":"Feature","geometry":{"type":"Point","coordinates":[133.63657,34.07538]},"properties":{"name":"郵便局株式会社豊浜郵便局","fuel":"solar","output":""}},{"type":"Feature","geometry":{"type":"Point","coordinates":[133.63408,34.06706]},"properties":{"name":"豊浜町和田観音寺市発電所","fuel":"solar","output":""}},{"type":"Feature","geometry":{"type":"Point","coordinates":[133.63629,34.06683]},"properties":{"name":"豊浜町和田観音寺市発電所","fuel":"solar","output":""}},{"type":"Feature","geometry":{"type":"Point","coordinates":[133.63893,34.06917]},"properties":{"name":"豊浜町和田観音寺市発電所","fuel":"solar","output":""}},{"type":"Feature","geometry":{"type":"Point","coordinates":[133.63744,34.06948]},"properties":{"name":"豊浜町和田観音寺市発電所","fuel":"solar","output":""}},{"type":"Feature","geometry":{"type":"Point","coordinates":[133.7641,34.26906]},"properties":{"name":"大字南鴨多度津町発電所","fuel":"solar","output":""}},{"type":"Feature","geometry":{"type":"Point","coordinates":[133.11003,33.26639]},"properties":{"name":"作屋四万十町発電所","fuel":"solar","output":""}},{"type":"Feature","geometry":{"type":"Point","coordinates":[134.56814,34.20357]},"properties":{"name":"鳴門うずしおソーラー発電所","fuel":"solar","output":""}},{"type":"Feature","geometry":{"type":"Point","coordinates":[134.5643,34.20463]},"properties":{"name":"鳴門市発電所","fuel":"solar","output":""}},{"type":"Feature","geometry":{"type":"Point","coordinates":[134.56611,34.20446]},"properties":{"name":"鳴門市発電所","fuel":"solar","output":""}},{"type":"Feature","geometry":{"type":"Point","coordinates":[134.56975,34.20576]},"properties":{"name":"鳴門市発電所","fuel":"solar","output":""}},{"type":"Feature","geometry":{"type":"Point","coordinates":[134.57024,34.20602]},"properties":{"name":"鳴門市発電所","fuel":"solar","output":""}},{"type":"Feature","geometry":{"type":"Point","coordinates":[134.56484,34.20417]},"properties":{"name":"鳴門市発電所","fuel":"solar","output":""}},{"type":"Feature","geometry":{"type":"Point","coordinates":[134.57156,34.20654]},"properties":{"name":"瀬戸町明神鳴門市発電所","fuel":"solar","output":""}},{"type":"Feature","geometry":{"type":"Point","coordinates":[134.57192,34.20728]},"properties":{"name":"瀬戸町明神鳴門市発電所","fuel":"solar","output":""}},{"type":"Feature","geometry":{"type":"Point","coordinates":[134.58252,34.20849]},"properties":{"name":"瀬戸町明神鳴門市発電所","fuel":"solar","output":""}},{"type":"Feature","geometry":{"type":"Point","coordinates":[134.57829,34.20169]},"properties":{"name":"大塚テクノ株式会社","fuel":"solar","output":""}},{"type":"Feature","geometry":{"type":"Point","coordinates":[134.57794,34.20224]},"properties":{"name":"大塚テクノ株式会社","fuel":"solar","output":""}},{"type":"Feature","geometry":{"type":"Point","coordinates":[134.57838,34.20272]},"properties":{"name":"大塚テクノ株式会社","fuel":"solar","output":""}},{"type":"Feature","geometry":{"type":"Point","coordinates":[134.57885,34.20202]},"properties":{"name":"大塚テクノ株式会社","fuel":"solar","output":""}},{"type":"Feature","geometry":{"type":"Point","coordinates":[134.58664,34.17561]},"properties":{"name":"鳴門市発電所","fuel":"solar","output":""}},{"type":"Feature","geometry":{"type":"Point","coordinates":[134.58207,34.1749]},"properties":{"name":"撫養町木津鳴門市発電所","fuel":"solar","output":""}},{"type":"Feature","geometry":{"type":"Point","coordinates":[134.59024,34.20349]},"properties":{"name":"大塚テクノ株式会社","fuel":"solar","output":""}},{"type":"Feature","geometry":{"type":"Point","coordinates":[134.5909,34.20333]},"properties":{"name":"鳴門町高島鳴門市発電所","fuel":"solar","output":""}},{"type":"Feature","geometry":{"type":"Point","coordinates":[134.59513,34.20649]},"properties":{"name":"鳴門町高島鳴門市発電所","fuel":"solar","output":""}},{"type":"Feature","geometry":{"type":"Point","coordinates":[134.59567,34.20775]},"properties":{"name":"鳴門市発電所","fuel":"solar","output":""}},{"type":"Feature","geometry":{"type":"Point","coordinates":[134.62138,34.21974]},"properties":{"name":"鳴門市発電所","fuel":"solar","output":""}},{"type":"Feature","geometry":{"type":"Point","coordinates":[134.62663,34.2237]},"properties":{"name":"大毛鳴門市発電所","fuel":"solar","output":""}},{"type":"Feature","geometry":{"type":"Point","coordinates":[134.62543,34.22382]},"properties":{"name":"大毛鳴門市発電所","fuel":"solar","output":""}},{"type":"Feature","geometry":{"type":"Point","coordinates":[134.62594,34.22435]},"properties":{"name":"大毛鳴門市発電所","fuel":"solar","output":""}},{"type":"Feature","geometry":{"type":"Point","coordinates":[134.62676,34.22522]},"properties":{"name":"大毛鳴門市発電所","fuel":"solar","output":""}},{"type":"Feature","geometry":{"type":"Point","coordinates":[134.63119,34.22575]},"properties":{"name":"大毛鳴門市発電所","fuel":"solar","output":""}},{"type":"Feature","geometry":{"type":"Point","coordinates":[134.63124,34.22522]},"properties":{"name":"大毛鳴門市発電所","fuel":"solar","output":""}},{"type":"Feature","geometry":{"type":"Point","coordinates":[134.63207,34.22518]},"properties":{"name":"大毛鳴門市発電所","fuel":"solar","output":""}},{"type":"Feature","geometry":{"type":"Point","coordinates":[134.62844,34.21925]},"properties":{"name":"大毛鳴門市発電所","fuel":"solar","output":""}},{"type":"Feature","geometry":{"type":"Point","coordinates":[134.62506,34.21105]},"properties":{"name":"鳴門町土佐泊浦鳴門市発電所","fuel":"solar","output":""}},{"type":"Feature","geometry":{"type":"Point","coordinates":[134.62462,34.21078]},"properties":{"name":"鳴門町土佐泊浦鳴門市発電所","fuel":"solar","output":""}},{"type":"Feature","geometry":{"type":"Point","coordinates":[134.62449,34.21069]},"properties":{"name":"鳴門町土佐泊浦鳴門市発電所","fuel":"solar","output":""}},{"type":"Feature","geometry":{"type":"Point","coordinates":[134.62414,34.21068]},"properties":{"name":"鳴門町土佐泊浦鳴門市発電所","fuel":"solar","output":""}},{"type":"Feature","geometry":{"type":"Point","coordinates":[134.62367,34.2086]},"properties":{"name":"鳴門町土佐泊浦鳴門市発電所","fuel":"solar","output":""}},{"type":"Feature","geometry":{"type":"Point","coordinates":[134.62363,34.20693]},"properties":{"name":"鳴門町土佐泊浦鳴門市発電所","fuel":"solar","output":""}},{"type":"Feature","geometry":{"type":"Point","coordinates":[134.62416,34.20694]},"properties":{"name":"鳴門町土佐泊浦鳴門市発電所","fuel":"solar","output":""}},{"type":"Feature","geometry":{"type":"Point","coordinates":[134.62467,34.20662]},"properties":{"name":"鳴門町土佐泊浦鳴門市発電所","fuel":"solar","output":""}},{"type":"Feature","geometry":{"type":"Point","coordinates":[134.6233,34.20196]},"properties":{"name":"大谷鳴門市発電所","fuel":"solar","output":""}},{"type":"Feature","geometry":{"type":"Point","coordinates":[134.23611,34.0925]},"properties":{"name":"阿波町下原阿波市発電所","fuel":"solar","output":""}},{"type":"Feature","geometry":{"type":"Point","coordinates":[133.84846,34.25202]},"properties":{"name":"飯山町下法軍寺丸亀市発電所","fuel":"solar","output":""}},{"type":"Feature","geometry":{"type":"Point","coordinates":[133.82712,34.24851]},"properties":{"name":"コスモ石油販売株式会社四国カンパニー","fuel":"solar","output":""}},{"type":"Feature","geometry":{"type":"Point","coordinates":[132.87322,34.25872]},"properties":{"name":"Osaki power station","fuel":"coal","output":""}},{"type":"Feature","geometry":{"type":"Point","coordinates":[133.79838,34.30084]},"properties":{"name":"富士見町二丁目丸亀市発電所","fuel":"solar","output":""}},{"type":"Feature","geometry":{"type":"Point","coordinates":[133.78853,34.28282]},"properties":{"name":"津森町丸亀市発電所","fuel":"solar","output":""}},{"type":"Feature","geometry":{"type":"Point","coordinates":[133.86172,34.25733]},"properties":{"name":"飯山町下法軍寺丸亀市発電所","fuel":"solar","output":""}},{"type":"Feature","geometry":{"type":"Point","coordinates":[133.87492,34.26614]},"properties":{"name":"飯山町東坂元丸亀市発電所","fuel":"solar","output":""}},{"type":"Feature","geometry":{"type":"Point","coordinates":[133.78574,34.38412]},"properties":{"name":"天理教本島大教会","fuel":"solar","output":""}},{"type":"Feature","geometry":{"type":"Point","coordinates":[133.84241,34.19056]},"properties":{"name":"満濃町役場","fuel":"solar","output":""}},{"type":"Feature","geometry":{"type":"Point","coordinates":[133.84203,34.19415]},"properties":{"name":"満濃町役場","fuel":"solar","output":""}},{"type":"Feature","geometry":{"type":"Point","coordinates":[133.77936,33.52042]},"properties":{"name":"芸西村発電所","fuel":"solar","output":""}},{"type":"Feature","geometry":{"type":"Point","coordinates":[133.80238,34.21081]},"properties":{"name":"ぜんつうじ大麻太陽光発電所","fuel":"solar","output":""}},{"type":"Feature","geometry":{"type":"Point","coordinates":[133.80186,34.2098]},"properties":{"name":"大麻町善通寺市発電所","fuel":"solar","output":""}},{"type":"Feature","geometry":{"type":"Point","coordinates":[133.81076,34.19876]},"properties":{"name":"大麻町善通寺市発電所","fuel":"solar","output":""}},{"type":"Feature","geometry":{"type":"Point","coordinates":[133.9509,33.45911]},"properties":{"name":"名村川発電所","fuel":"hydro","output":""}},{"type":"Feature","geometry":{"type":"Point","coordinates":[132.86058,32.99249]},"properties":{"name":"荒川四万十市発電所","fuel":"solar","output":""}},{"type":"Feature","geometry":{"type":"Point","coordinates":[133.48003,33.48125]},"properties":{"name":"春野町森山高知市発電所","fuel":"solar","output":""}},{"type":"Feature","geometry":{"type":"Point","coordinates":[134.02558,33.42797]},"properties":{"name":"奈半利町発電所","fuel":"solar","output":""}},{"type":"Feature","geometry":{"type":"Point","coordinates":[133.99095,33.43966]},"properties":{"name":"安田安田町発電所","fuel":"solar","output":""}},{"type":"Feature","geometry":{"type":"Point","coordinates":[134.03294,34.31658]},"properties":{"name":"紙町高松市発電所","fuel":"solar","output":""}},{"type":"Feature","geometry":{"type":"Point","coordinates":[133.98138,34.2513]},"properties":{"name":"畑田綾川町発電所","fuel":"solar","output":""}},{"type":"Feature","geometry":{"type":"Point","coordinates":[133.9795,34.25312]},"properties":{"name":"畑田綾川町発電所","fuel":"solar","output":""}},{"type":"Feature","geometry":{"type":"Point","coordinates":[133.97814,34.26073]},"properties":{"name":"綾川町発電所","fuel":"solar","output":""}},{"type":"Feature","geometry":{"type":"Point","coordinates":[133.78622,34.28449]},"properties":{"name":"津森町丸亀市発電所","fuel":"solar","output":""}},{"type":"Feature","geometry":{"type":"Point","coordinates":[134.05536,34.29187]},"properties":{"name":"多肥上町高松市発電所","fuel":"solar","output":""}},{"type":"Feature","geometry":{"type":"Point","coordinates":[133.27652,33.95247]},"properties":{"name":"西の土居町二丁目新居浜市発電所","fuel":"solar","output":""}},{"type":"Feature","geometry":{"type":"Point","coordinates":[134.22339,34.08845]},"properties":{"name":"阿波町綱懸阿波市発電所","fuel":"solar","output":""}},{"type":"Feature","geometry":{"type":"Point","coordinates":[134.23351,34.08632]},"properties":{"name":"阿波町東原阿波市発電所","fuel":"solar","output":""}},{"type":"Feature","geometry":{"type":"Point","coordinates":[134.23752,34.0812]},"properties":{"name":"切戸小水力発電設備","fuel":"solar","output":""}},{"type":"Feature","geometry":{"type":"Point","coordinates":[134.22483,34.07699]},"properties":{"name":"阿波町丸山阿波市発電所","fuel":"solar","output":""}},{"type":"Feature","geometry":{"type":"Point","coordinates":[134.22413,34.07814]},"properties":{"name":"阿波町丸山阿波市発電所","fuel":"solar","output":""}},{"type":"Feature","geometry":{"type":"Point","coordinates":[134.22175,34.07775]},"properties":{"name":"阿波町丸山阿波市発電所","fuel":"solar","output":""}},{"type":"Feature","geometry":{"type":"Point","coordinates":[134.22067,34.0777]},"properties":{"name":"阿波町居屋敷阿波市発電所","fuel":"solar","output":""}},{"type":"Feature","geometry":{"type":"Point","coordinates":[134.22457,34.07494]},"properties":{"name":"阿波町大道北阿波市発電所","fuel":"solar","output":""}},{"type":"Feature","geometry":{"type":"Point","coordinates":[134.22376,34.07555]},"properties":{"name":"阿波町丸山阿波市発電所","fuel":"solar","output":""}},{"type":"Feature","geometry":{"type":"Point","coordinates":[134.22433,34.07588]},"properties":{"name":"阿波町丸山阿波市発電所","fuel":"solar","output":""}},{"type":"Feature","geometry":{"type":"Point","coordinates":[134.22503,34.07573]},"properties":{"name":"阿波町丸山阿波市発電所","fuel":"solar","output":""}},{"type":"Feature","geometry":{"type":"Point","coordinates":[134.22501,34.07621]},"properties":{"name":"阿波町丸山阿波市発電所","fuel":"solar","output":""}},{"type":"Feature","geometry":{"type":"Point","coordinates":[134.22518,34.07697]},"properties":{"name":"阿波町丸山阿波市発電所","fuel":"solar","output":""}},{"type":"Feature","geometry":{"type":"Point","coordinates":[134.22517,34.07745]},"properties":{"name":"阿波町丸山阿波市発電所","fuel":"solar","output":""}},{"type":"Feature","geometry":{"type":"Point","coordinates":[134.22219,34.07998]},"properties":{"name":"阿波町東条阿波市発電所","fuel":"solar","output":""}},{"type":"Feature","geometry":{"type":"Point","coordinates":[133.26423,33.92936]},"properties":{"name":"新居浜市発電所","fuel":"solar","output":""}},{"type":"Feature","geometry":{"type":"Point","coordinates":[132.89461,33.8127]},"properties":{"name":"横河原東温市発電所","fuel":"solar","output":""}},{"type":"Feature","geometry":{"type":"Point","coordinates":[132.69632,33.83673]},"properties":{"name":"北吉田町松山市発電所","fuel":"solar","output":""}},{"type":"Feature","geometry":{"type":"Point","coordinates":[132.70855,33.84555]},"properties":{"name":"松山市西クリーンセンター","fuel":"solar","output":""}},{"type":"Feature","geometry":{"type":"Point","coordinates":[132.69825,33.7837]},"properties":{"name":"大字浜松前町発電所","fuel":"solar","output":""}},{"type":"Feature","geometry":{"type":"Point","coordinates":[132.69636,33.78345]},"properties":{"name":"大字浜松前町発電所","fuel":"solar","output":""}},{"type":"Feature","geometry":{"type":"Point","coordinates":[132.69939,33.78316]},"properties":{"name":"大字浜松前町発電所","fuel":"solar","output":""}},{"type":"Feature","geometry":{"type":"Point","coordinates":[132.83983,33.9083]},"properties":{"name":"神次郎町松山市発電所","fuel":"solar","output":""}},{"type":"Feature","geometry":{"type":"Point","coordinates":[132.77573,33.90494]},"properties":{"name":"東大栗町松山市発電所","fuel":"solar","output":""}},{"type":"Feature","geometry":{"type":"Point","coordinates":[132.80995,33.99182]},"properties":{"name":"松山市発電所","fuel":"solar","output":""}},{"type":"Feature","geometry":{"type":"Point","coordinates":[132.92772,33.99379]},"properties":{"name":"玉川町長谷今治市発電所","fuel":"solar","output":""}},{"type":"Feature","geometry":{"type":"Point","coordinates":[132.92193,33.99699]},"properties":{"name":"玉川町長谷今治市発電所","fuel":"solar","output":""}},{"type":"Feature","geometry":{"type":"Point","coordinates":[132.92301,33.99441]},"properties":{"name":"玉川町長谷今治市発電所","fuel":"solar","output":""}},{"type":"Feature","geometry":{"type":"Point","coordinates":[133.36849,33.97007]},"properties":{"name":"阿島四丁目新居浜市発電所","fuel":"solar","output":""}},{"type":"Feature","geometry":{"type":"Point","coordinates":[133.12498,33.92503]},"properties":{"name":"氷見戊西条市発電所","fuel":"solar","output":""}},{"type":"Feature","geometry":{"type":"Point","coordinates":[133.11286,33.94288]},"properties":{"name":"壬生川火力発電所","fuel":"solar","output":""}},{"type":"Feature","geometry":{"type":"Point","coordinates":[132.95048,34.20169]},"properties":{"name":"大三島町宗方今治市発電所","fuel":"solar","output":""}},{"type":"Feature","geometry":{"type":"Point","coordinates":[132.95105,34.20087]},"properties":{"name":"大三島町宗方今治市発電所","fuel":"solar","output":""}},{"type":"Feature","geometry":{"type":"Point","coordinates":[132.9518,34.19957]},"properties":{"name":"大三島町宗方今治市発電所","fuel":"solar","output":""}},{"type":"Feature","geometry":{"type":"Point","coordinates":[132.95213,34.19863]},"properties":{"name":"大三島町宗方今治市発電所","fuel":"solar","output":""}},{"type":"Feature","geometry":{"type":"Point","coordinates":[132.77403,33.98495]},"properties":{"name":"北条松山市発電所","fuel":"solar","output":""}},{"type":"Feature","geometry":{"type":"Point","coordinates":[132.77354,33.98107]},"properties":{"name":"北条松山市発電所","fuel":"solar","output":""}},{"type":"Feature","geometry":{"type":"Point","coordinates":[132.62571,33.22614]},"properties":{"name":"鬼北町発電所","fuel":"solar","output":""}},{"type":"Feature","geometry":{"type":"Point","coordinates":[132.62255,32.94893]},"properties":{"name":"愛南町発電所","fuel":"solar","output":""}},{"type":"Feature","geometry":{"type":"Point","coordinates":[132.5116,32.99231]},"properties":{"name":"御荘菊川愛南町発電所","fuel":"solar","output":""}},{"type":"Feature","geometry":{"type":"Point","coordinates":[132.83635,33.79604]},"properties":{"name":"野田三丁目東温市発電所","fuel":"solar","output":""}},{"type":"Feature","geometry":{"type":"Point","coordinates":[132.82608,33.78262]},"properties":{"name":"小村町松山市発電所","fuel":"solar","output":""}},{"type":"Feature","geometry":{"type":"Point","coordinates":[132.81449,33.77192]},"properties":{"name":"松山市立荏原小学校","fuel":"solar","output":""}},{"type":"Feature","geometry":{"type":"Point","coordinates":[132.76917,33.76599]},"properties":{"name":"田ノ浦砥部町発電所","fuel":"solar","output":""}},{"type":"Feature","geometry":{"type":"Point","coordinates":[132.69151,33.80109]},"properties":{"name":"大字北川原松前町発電所","fuel":"solar","output":""}},{"type":"Feature","geometry":{"type":"Point","coordinates":[132.69967,33.77592]},"properties":{"name":"伊予市発電所","fuel":"solar","output":""}},{"type":"Feature","geometry":{"type":"Point","coordinates":[132.69755,33.76592]},"properties":{"name":"湊町伊予市発電所","fuel":"solar","output":""}},{"type":"Feature","geometry":{"type":"Point","coordinates":[132.80307,33.91646]},"properties":{"name":"松山市野外活動センター","fuel":"solar","output":""}},{"type":"Feature","geometry":{"type":"Point","coordinates":[132.80092,33.89506]},"properties":{"name":"上伊台町松山市発電所","fuel":"solar","output":""}},{"type":"Feature","geometry":{"type":"Point","coordinates":[132.80154,33.92734]},"properties":{"name":"麓松山市発電所","fuel":"solar","output":""}},{"type":"Feature","geometry":{"type":"Point","coordinates":[132.79646,33.90378]},"properties":{"name":"松山市発電所","fuel":"solar","output":""}},{"type":"Feature","geometry":{"type":"Point","coordinates":[132.77436,33.93714]},"properties":{"name":"鹿峰松山市発電所","fuel":"solar","output":""}},{"type":"Feature","geometry":{"type":"Point","coordinates":[132.77762,33.94078]},"properties":{"name":"夏目松山市発電所","fuel":"solar","output":""}},{"type":"Feature","geometry":{"type":"Point","coordinates":[132.77574,33.96]},"properties":{"name":"府中松山市発電所","fuel":"solar","output":""}},{"type":"Feature","geometry":{"type":"Point","coordinates":[132.84134,33.97039]},"properties":{"name":"猿川松山市発電所","fuel":"solar","output":""}},{"type":"Feature","geometry":{"type":"Point","coordinates":[132.82838,33.98988]},"properties":{"name":"松山市発電所","fuel":"solar","output":""}},{"type":"Feature","geometry":{"type":"Point","coordinates":[132.82894,33.9903]},"properties":{"name":"松山市発電所","fuel":"solar","output":""}},{"type":"Feature","geometry":{"type":"Point","coordinates":[132.84262,33.99336]},"properties":{"name":"小山田松山市発電所","fuel":"solar","output":""}},{"type":"Feature","geometry":{"type":"Point","coordinates":[132.82101,34.00426]},"properties":{"name":"菊間町西山松山市発電所","fuel":"solar","output":""}},{"type":"Feature","geometry":{"type":"Point","coordinates":[132.90355,33.96154]},"properties":{"name":"今治市発電所","fuel":"solar","output":""}},{"type":"Feature","geometry":{"type":"Point","coordinates":[132.80855,33.90294]},"properties":{"name":"菅沢町松山市発電所","fuel":"solar","output":""}},{"type":"Feature","geometry":{"type":"Point","coordinates":[133.02662,33.87109]},"properties":{"name":"丹原町湯谷口西条市発電所","fuel":"solar","output":""}},{"type":"Feature","geometry":{"type":"Point","coordinates":[133.02454,33.87143]},"properties":{"name":"丹原町石経西条市発電所","fuel":"solar","output":""}},{"type":"Feature","geometry":{"type":"Point","coordinates":[133.02285,33.86834]},"properties":{"name":"西条市発電所","fuel":"solar","output":""}},{"type":"Feature","geometry":{"type":"Point","coordinates":[133.03236,33.85962]},"properties":{"name":"丹原町志川西条市発電所","fuel":"solar","output":""}},{"type":"Feature","geometry":{"type":"Point","coordinates":[133.02781,33.85862]},"properties":{"name":"丹原町志川西条市発電所","fuel":"solar","output":""}},{"type":"Feature","geometry":{"type":"Point","coordinates":[133.02818,33.86382]},"properties":{"name":"丹原町石経西条市発電所","fuel":"solar","output":""}},{"type":"Feature","geometry":{"type":"Point","coordinates":[133.02659,33.86332]},"properties":{"name":"丹原町志川西条市発電所","fuel":"solar","output":""}},{"type":"Feature","geometry":{"type":"Point","coordinates":[133.04054,33.87296]},"properties":{"name":"丹原町長野西条市発電所","fuel":"solar","output":""}},{"type":"Feature","geometry":{"type":"Point","coordinates":[133.03844,33.88105]},"properties":{"name":"丹原町今井西条市発電所","fuel":"solar","output":""}},{"type":"Feature","geometry":{"type":"Point","coordinates":[133.03814,33.87981]},"properties":{"name":"丹原町長野西条市発電所","fuel":"solar","output":""}},{"type":"Feature","geometry":{"type":"Point","coordinates":[133.03757,33.87922]},"properties":{"name":"丹原町今井西条市発電所","fuel":"solar","output":""}},{"type":"Feature","geometry":{"type":"Point","coordinates":[133.03713,33.88127]},"properties":{"name":"丹原町北田野西条市発電所","fuel":"solar","output":""}},{"type":"Feature","geometry":{"type":"Point","coordinates":[133.03824,33.88166]},"properties":{"name":"丹原町北田野西条市発電所","fuel":"solar","output":""}},{"type":"Feature","geometry":{"type":"Point","coordinates":[133.03877,33.88164]},"properties":{"name":"丹原町北田野西条市発電所","fuel":"solar","output":""}},{"type":"Feature","geometry":{"type":"Point","coordinates":[133.0388,33.88123]},"properties":{"name":"丹原町今井西条市発電所","fuel":"solar","output":""}},{"type":"Feature","geometry":{"type":"Point","coordinates":[133.03792,33.88119]},"properties":{"name":"丹原町北田野西条市発電所","fuel":"solar","output":""}},{"type":"Feature","geometry":{"type":"Point","coordinates":[133.03672,33.88097]},"properties":{"name":"丹原町北田野西条市発電所","fuel":"solar","output":""}},{"type":"Feature","geometry":{"type":"Point","coordinates":[133.03705,33.88171]},"properties":{"name":"丹原町高松西条市発電所","fuel":"solar","output":""}},{"type":"Feature","geometry":{"type":"Point","coordinates":[133.04053,33.88298]},"properties":{"name":"丹原町北田野西条市発電所","fuel":"solar","output":""}},{"type":"Feature","geometry":{"type":"Point","coordinates":[133.04083,33.88308]},"properties":{"name":"丹原町北田野西条市発電所","fuel":"solar","output":""}},{"type":"Feature","geometry":{"type":"Point","coordinates":[133.038,33.87739]},"properties":{"name":"丹原町長野西条市発電所","fuel":"solar","output":""}},{"type":"Feature","geometry":{"type":"Point","coordinates":[133.03774,33.87729]},"properties":{"name":"丹原町長野西条市発電所","fuel":"solar","output":""}},{"type":"Feature","geometry":{"type":"Point","coordinates":[133.03763,33.87773]},"properties":{"name":"丹原町長野西条市発電所","fuel":"solar","output":""}},{"type":"Feature","geometry":{"type":"Point","coordinates":[133.03596,33.87734]},"properties":{"name":"丹原町長野西条市発電所","fuel":"solar","output":""}},{"type":"Feature","geometry":{"type":"Point","coordinates":[133.03568,33.87751]},"properties":{"name":"丹原町長野西条市発電所","fuel":"solar","output":""}},{"type":"Feature","geometry":{"type":"Point","coordinates":[133.03685,33.87801]},"properties":{"name":"丹原町今井西条市発電所","fuel":"solar","output":""}},{"type":"Feature","geometry":{"type":"Point","coordinates":[133.03777,33.87845]},"properties":{"name":"丹原町今井西条市発電所","fuel":"solar","output":""}},{"type":"Feature","geometry":{"type":"Point","coordinates":[133.03715,33.87868]},"properties":{"name":"丹原町今井西条市発電所","fuel":"solar","output":""}},{"type":"Feature","geometry":{"type":"Point","coordinates":[133.03989,33.87713]},"properties":{"name":"丹原町長野西条市発電所","fuel":"solar","output":""}},{"type":"Feature","geometry":{"type":"Point","coordinates":[133.0374,33.87584]},"properties":{"name":"丹原町長野西条市発電所","fuel":"solar","output":""}},{"type":"Feature","geometry":{"type":"Point","coordinates":[133.03004,33.87324]},"properties":{"name":"丹原町今井西条市発電所","fuel":"solar","output":""}},{"type":"Feature","geometry":{"type":"Point","coordinates":[133.05298,33.87908]},"properties":{"name":"西条市発電所","fuel":"solar","output":""}},{"type":"Feature","geometry":{"type":"Point","coordinates":[133.04445,33.88503]},"properties":{"name":"丹原町長野西条市発電所","fuel":"solar","output":""}},{"type":"Feature","geometry":{"type":"Point","coordinates":[133.04283,33.88355]},"properties":{"name":"丹原町高松西条市発電所","fuel":"solar","output":""}},{"type":"Feature","geometry":{"type":"Point","coordinates":[133.0454,33.88514]},"properties":{"name":"丹原町高松西条市発電所","fuel":"solar","output":""}},{"type":"Feature","geometry":{"type":"Point","coordinates":[133.04613,33.88461]},"properties":{"name":"丹原町高松西条市発電所","fuel":"solar","output":""}},{"type":"Feature","geometry":{"type":"Point","coordinates":[133.04572,33.88432]},"properties":{"name":"丹原町高松西条市発電所","fuel":"solar","output":""}},{"type":"Feature","geometry":{"type":"Point","coordinates":[133.04506,33.88428]},"properties":{"name":"丹原町高松西条市発電所","fuel":"solar","output":""}},{"type":"Feature","geometry":{"type":"Point","coordinates":[133.04375,33.88443]},"properties":{"name":"丹原町長野西条市発電所","fuel":"solar","output":""}},{"type":"Feature","geometry":{"type":"Point","coordinates":[133.04527,33.88588]},"properties":{"name":"丹原町高松西条市発電所","fuel":"solar","output":""}},{"type":"Feature","geometry":{"type":"Point","coordinates":[133.04454,33.8861]},"properties":{"name":"丹原町長野西条市発電所","fuel":"solar","output":""}},{"type":"Feature","geometry":{"type":"Point","coordinates":[133.04365,33.886]},"properties":{"name":"丹原町北田野西条市発電所","fuel":"solar","output":""}},{"type":"Feature","geometry":{"type":"Point","coordinates":[133.04274,33.88641]},"properties":{"name":"丹原町北田野西条市発電所","fuel":"solar","output":""}},{"type":"Feature","geometry":{"type":"Point","coordinates":[133.0425,33.88671]},"properties":{"name":"丹原町高松西条市発電所","fuel":"solar","output":""}},{"type":"Feature","geometry":{"type":"Point","coordinates":[133.0426,33.88636]},"properties":{"name":"丹原町高松西条市発電所","fuel":"solar","output":""}},{"type":"Feature","geometry":{"type":"Point","coordinates":[133.04393,33.88487]},"properties":{"name":"丹原町長野西条市発電所","fuel":"solar","output":""}},{"type":"Feature","geometry":{"type":"Point","coordinates":[133.04376,33.88505]},"properties":{"name":"丹原町長野西条市発電所","fuel":"solar","output":""}},{"type":"Feature","geometry":{"type":"Point","coordinates":[133.04364,33.88534]},"properties":{"name":"丹原町長野西条市発電所","fuel":"solar","output":""}},{"type":"Feature","geometry":{"type":"Point","coordinates":[133.04278,33.88537]},"properties":{"name":"丹原町北田野西条市発電所","fuel":"solar","output":""}},{"type":"Feature","geometry":{"type":"Point","coordinates":[133.88447,34.3307]},"properties":{"name":"林田町坂出市発電所","fuel":"solar","output":""}},{"type":"Feature","geometry":{"type":"Point","coordinates":[133.89174,34.32411]},"properties":{"name":"林田町坂出市発電所","fuel":"solar","output":""}},{"type":"Feature","geometry":{"type":"Point","coordinates":[133.90843,34.31672]},"properties":{"name":"坂出市発電所","fuel":"solar","output":""}},{"type":"Feature","geometry":{"type":"Point","coordinates":[133.03856,33.89776]},"properties":{"name":"丹原町今井西条市発電所","fuel":"solar","output":""}},{"type":"Feature","geometry":{"type":"Point","coordinates":[133.05832,33.90458]},"properties":{"name":"丹原町今井西条市発電所","fuel":"solar","output":""}},{"type":"Feature","geometry":{"type":"Point","coordinates":[133.05604,33.90624]},"properties":{"name":"丹原町今井西条市発電所","fuel":"solar","output":""}},{"type":"Feature","geometry":{"type":"Point","coordinates":[133.05696,33.90553]},"properties":{"name":"丹原町池田西条市発電所","fuel":"solar","output":""}},{"type":"Feature","geometry":{"type":"Point","coordinates":[133.05521,33.9061]},"properties":{"name":"丹原町丹原西条市発電所","fuel":"solar","output":""}},{"type":"Feature","geometry":{"type":"Point","coordinates":[133.05393,33.91027]},"properties":{"name":"丹原町高知西条市発電所","fuel":"solar","output":""}},{"type":"Feature","geometry":{"type":"Point","coordinates":[132.94038,34.08013]},"properties":{"name":"宅間今治市発電所","fuel":"solar","output":""}},{"type":"Feature","geometry":{"type":"Point","coordinates":[132.93169,34.07775]},"properties":{"name":"大西町九王今治市発電所","fuel":"solar","output":""}},{"type":"Feature","geometry":{"type":"Point","coordinates":[132.81429,33.7623]},"properties":{"name":"松山市立荏原小学校","fuel":"solar","output":""}},{"type":"Feature","geometry":{"type":"Point","coordinates":[133.34916,33.98502]},"properties":{"name":"IGメガソーラー パーク新居浜発電所","fuel":"solar","output":""}},{"type":"Feature","geometry":{"type":"Point","coordinates":[133.89746,33.97857]},"properties":{"name":"松尾川第一発電所","fuel":"hydro","output":""}},{"type":"Feature","geometry":{"type":"Point","coordinates":[133.74766,34.2296]},"properties":{"name":"吉原町善通寺市発電所","fuel":"solar","output":""}},{"type":"Feature","geometry":{"type":"Point","coordinates":[133.75384,34.23391]},"properties":{"name":"吉原町善通寺市発電所","fuel":"solar","output":""}},{"type":"Feature","geometry":{"type":"Point","coordinates":[134.18944,34.06744]},"properties":{"name":"阿波町西林阿波市発電所","fuel":"solar","output":""}},{"type":"Feature","geometry":{"type":"Point","coordinates":[134.19587,34.06992]},"properties":{"name":"阿波町南整理阿波市発電所","fuel":"solar","output":""}},{"type":"Feature","geometry":{"type":"Point","coordinates":[134.206,34.07441]},"properties":{"name":"阿波町南整理阿波市発電所","fuel":"solar","output":""}},{"type":"Feature","geometry":{"type":"Point","coordinates":[134.20882,34.07499]},"properties":{"name":"阿波町中坪阿波市発電所","fuel":"solar","output":""}},{"type":"Feature","geometry":{"type":"Point","coordinates":[134.3735,34.06834]},"properties":{"name":"鴨島町内原吉野川市発電所","fuel":"solar","output":""}},{"type":"Feature","geometry":{"type":"Point","coordinates":[134.37097,34.06831]},"properties":{"name":"鴨島町内原吉野川市発電所","fuel":"solar","output":""}},{"type":"Feature","geometry":{"type":"Point","coordinates":[134.37041,34.06853]},"properties":{"name":"鴨島町内原吉野川市発電所","fuel":"solar","output":""}},{"type":"Feature","geometry":{"type":"Point","coordinates":[132.57401,33.23274]},"properties":{"name":"泉町二丁目宇和島市発電所","fuel":"solar","output":""}},{"type":"Feature","geometry":{"type":"Point","coordinates":[134.23397,34.07659]},"properties":{"name":"切戸小水力発電設備","fuel":"solar","output":""}},{"type":"Feature","geometry":{"type":"Point","coordinates":[134.22725,34.07488]},"properties":{"name":"切戸小水力発電設備","fuel":"solar","output":""}},{"type":"Feature","geometry":{"type":"Point","coordinates":[134.22813,34.07717]},"properties":{"name":"切戸小水力発電設備","fuel":"solar","output":""}},{"type":"Feature","geometry":{"type":"Point","coordinates":[134.23936,34.07832]},"properties":{"name":"切戸小水力発電設備","fuel":"solar","output":""}},{"type":"Feature","geometry":{"type":"Point","coordinates":[134.23963,34.07795]},"properties":{"name":"切戸小水力発電設備","fuel":"solar","output":""}},{"type":"Feature","geometry":{"type":"Point","coordinates":[134.23995,34.07756]},"properties":{"name":"切戸小水力発電設備","fuel":"solar","output":""}},{"type":"Feature","geometry":{"type":"Point","coordinates":[134.24056,34.07683]},"properties":{"name":"切戸小水力発電設備","fuel":"solar","output":""}},{"type":"Feature","geometry":{"type":"Point","coordinates":[132.55501,33.21165]},"properties":{"name":"新田町四丁目宇和島市発電所","fuel":"solar","output":""}},{"type":"Feature","geometry":{"type":"Point","coordinates":[132.5539,33.2107]},"properties":{"name":"長堀一丁目宇和島市発電所","fuel":"solar","output":""}},{"type":"Feature","geometry":{"type":"Point","coordinates":[133.90638,34.30301]},"properties":{"name":"府中町坂出市発電所","fuel":"solar","output":""}},{"type":"Feature","geometry":{"type":"Point","coordinates":[133.91311,34.30751]},"properties":{"name":"加茂町坂出市発電所","fuel":"solar","output":""}},{"type":"Feature","geometry":{"type":"Point","coordinates":[133.92508,34.30004]},"properties":{"name":"香川大学教育学部附属養護学校","fuel":"solar","output":""}},{"type":"Feature","geometry":{"type":"Point","coordinates":[133.92845,34.29434]},"properties":{"name":"香川大学教育学部附属養護学校","fuel":"solar","output":""}},{"type":"Feature","geometry":{"type":"Point","coordinates":[133.9248,34.29641]},"properties":{"name":"香川大学教育学部附属養護学校","fuel":"solar","output":""}},{"type":"Feature","geometry":{"type":"Point","coordinates":[133.92427,34.29595]},"properties":{"name":"香川大学教育学部附属養護学校","fuel":"solar","output":""}},{"type":"Feature","geometry":{"type":"Point","coordinates":[133.92283,34.29632]},"properties":{"name":"香川大学教育学部附属養護学校","fuel":"solar","output":""}},{"type":"Feature","geometry":{"type":"Point","coordinates":[133.91955,34.29581]},"properties":{"name":"香川大学教育学部附属養護学校","fuel":"solar","output":""}},{"type":"Feature","geometry":{"type":"Point","coordinates":[133.82559,34.27931]},"properties":{"name":"飯野町東二丸亀市発電所","fuel":"solar","output":""}},{"type":"Feature","geometry":{"type":"Point","coordinates":[132.54807,33.20869]},"properties":{"name":"別当六丁目宇和島市発電所","fuel":"solar","output":""}},{"type":"Feature","geometry":{"type":"Point","coordinates":[132.56515,33.20124]},"properties":{"name":"妙典寺前宇和島市発電所","fuel":"solar","output":""}},{"type":"Feature","geometry":{"type":"Point","coordinates":[132.55482,33.20238]},"properties":{"name":"夏目町二丁目宇和島市発電所","fuel":"solar","output":""}},{"type":"Feature","geometry":{"type":"Point","coordinates":[132.92203,33.22749]},"properties":{"name":"津賀発電所","fuel":"hydro","output":""}},{"type":"Feature","geometry":{"type":"Point","coordinates":[132.5498,33.18453]},"properties":{"name":"保田宇和島市発電所","fuel":"solar","output":""}},{"type":"Feature","geometry":{"type":"Point","coordinates":[132.94568,34.10858]},"properties":{"name":"波方町養老今治市発電所","fuel":"solar","output":""}},{"type":"Feature","geometry":{"type":"Point","coordinates":[132.96528,34.05873]},"properties":{"name":"阿方今治市発電所","fuel":"solar","output":""}},{"type":"Feature","geometry":{"type":"Point","coordinates":[132.54206,33.17672]},"properties":{"name":"宇和島市発電所","fuel":"solar","output":""}},{"type":"Feature","geometry":{"type":"Point","coordinates":[132.54187,33.17623]},"properties":{"name":"宇和島市発電所","fuel":"solar","output":""}},{"type":"Feature","geometry":{"type":"Point","coordinates":[132.54219,33.17505]},"properties":{"name":"宇和島市発電所","fuel":"solar","output":""}},{"type":"Feature","geometry":{"type":"Point","coordinates":[132.54339,33.17482]},"properties":{"name":"宇和島市発電所","fuel":"solar","output":""}},{"type":"Feature","geometry":{"type":"Point","coordinates":[132.54269,33.17439]},"properties":{"name":"宇和島市発電所","fuel":"solar","output":""}},{"type":"Feature","geometry":{"type":"Point","coordinates":[132.54163,33.1739]},"properties":{"name":"宇和島市発電所","fuel":"solar","output":""}},{"type":"Feature","geometry":{"type":"Point","coordinates":[132.54418,33.17349]},"properties":{"name":"宇和島市発電所","fuel":"solar","output":""}},{"type":"Feature","geometry":{"type":"Point","coordinates":[132.56503,33.17472]},"properties":{"name":"祝森宇和島市発電所","fuel":"solar","output":""}},{"type":"Feature","geometry":{"type":"Point","coordinates":[132.56465,33.17552]},"properties":{"name":"祝森宇和島市発電所","fuel":"solar","output":""}},{"type":"Feature","geometry":{"type":"Point","coordinates":[132.55258,33.17118]},"properties":{"name":"宇和島市発電所","fuel":"solar","output":""}},{"type":"Feature","geometry":{"type":"Point","coordinates":[132.21843,33.43434]},"properties":{"name":"佐田岬風力発電所","fuel":"solar","output":""}},{"type":"Feature","geometry":{"type":"Point","coordinates":[132.20937,33.43341]},"properties":{"name":"佐田岬風力発電所","fuel":"solar","output":""}},{"type":"Feature","geometry":{"type":"Point","coordinates":[132.20629,33.43448]},"properties":{"name":"佐田岬風力発電所","fuel":"solar","output":""}},{"type":"Feature","geometry":{"type":"Point","coordinates":[132.20494,33.44511]},"properties":{"name":"小島伊方町発電所","fuel":"solar","output":""}},{"type":"Feature","geometry":{"type":"Point","coordinates":[132.20251,33.44717]},"properties":{"name":"小島伊方町発電所","fuel":"solar","output":""}},{"type":"Feature","geometry":{"type":"Point","coordinates":[132.10164,33.39887]},"properties":{"name":"伊方町発電所","fuel":"solar","output":""}},{"type":"Feature","geometry":{"type":"Point","coordinates":[132.09813,33.39751]},"properties":{"name":"四国_33.3975_132.0981","fuel":"solar","output":""}},{"type":"Feature","geometry":{"type":"Point","coordinates":[132.09623,33.39336]},"properties":{"name":"伊方町発電所","fuel":"solar","output":""}},{"type":"Feature","geometry":{"type":"Point","coordinates":[132.09611,33.39293]},"properties":{"name":"伊方町発電所","fuel":"solar","output":""}},{"type":"Feature","geometry":{"type":"Point","coordinates":[132.09561,33.39286]},"properties":{"name":"伊方町発電所","fuel":"solar","output":""}},{"type":"Feature","geometry":{"type":"Point","coordinates":[132.09482,33.39359]},"properties":{"name":"伊方町発電所","fuel":"solar","output":""}},{"type":"Feature","geometry":{"type":"Point","coordinates":[132.09457,33.39379]},"properties":{"name":"伊方町発電所","fuel":"solar","output":""}},{"type":"Feature","geometry":{"type":"Point","coordinates":[132.09606,33.39602]},"properties":{"name":"伊方町発電所","fuel":"solar","output":""}},{"type":"Feature","geometry":{"type":"Point","coordinates":[132.09551,33.39631]},"properties":{"name":"伊方町発電所","fuel":"solar","output":""}},{"type":"Feature","geometry":{"type":"Point","coordinates":[132.09594,33.39663]},"properties":{"name":"伊方町発電所","fuel":"solar","output":""}},{"type":"Feature","geometry":{"type":"Point","coordinates":[132.09569,33.39735]},"properties":{"name":"伊方町発電所","fuel":"solar","output":""}},{"type":"Feature","geometry":{"type":"Point","coordinates":[132.09702,33.39486]},"properties":{"name":"伊方町発電所","fuel":"solar","output":""}},{"type":"Feature","geometry":{"type":"Point","coordinates":[132.09666,33.3953]},"properties":{"name":"伊方町発電所","fuel":"solar","output":""}},{"type":"Feature","geometry":{"type":"Point","coordinates":[132.09864,33.39619]},"properties":{"name":"伊方町発電所","fuel":"solar","output":""}},{"type":"Feature","geometry":{"type":"Point","coordinates":[132.10368,33.3961]},"properties":{"name":"伊方町発電所","fuel":"solar","output":""}},{"type":"Feature","geometry":{"type":"Point","coordinates":[132.10219,33.39586]},"properties":{"name":"伊方町発電所","fuel":"solar","output":""}},{"type":"Feature","geometry":{"type":"Point","coordinates":[132.10318,33.39694]},"properties":{"name":"伊方町発電所","fuel":"solar","output":""}},{"type":"Feature","geometry":{"type":"Point","coordinates":[132.10192,33.39818]},"properties":{"name":"伊方町発電所","fuel":"solar","output":""}},{"type":"Feature","geometry":{"type":"Point","coordinates":[133.80428,34.23261]},"properties":{"name":"浜田家具善通寺ソーラー発電施設","fuel":"solar","output":""}},{"type":"Feature","geometry":{"type":"Point","coordinates":[132.60127,33.29403]},"properties":{"name":"三間町戸雁宇和島市発電所","fuel":"solar","output":""}},{"type":"Feature","geometry":{"type":"Point","coordinates":[132.44224,34.35843]},"properties":{"name":"広島市環境局中工場","fuel":"waste","output":""}},{"type":"Feature","geometry":{"type":"Point","coordinates":[134.00147,34.22219]},"properties":{"name":"四国_34.2222_134.0015","fuel":"solar","output":""}},{"type":"Feature","geometry":{"type":"Point","coordinates":[132.55149,34.27056]},"properties":{"name":"焼山町呉市発電所","fuel":"solar","output":""}},{"type":"Feature","geometry":{"type":"Point","coordinates":[132.52152,33.11761]},"properties":{"name":"宇和島市発電所","fuel":"solar","output":""}},{"type":"Feature","geometry":{"type":"Point","coordinates":[132.49397,33.1204]},"properties":{"name":"津島町岩松宇和島市発電所","fuel":"solar","output":""}},{"type":"Feature","geometry":{"type":"Point","coordinates":[132.49285,33.12002]},"properties":{"name":"津島町岩松宇和島市発電所","fuel":"solar","output":""}},{"type":"Feature","geometry":{"type":"Point","coordinates":[132.49145,33.1195]},"properties":{"name":"津島町岩松宇和島市発電所","fuel":"solar","output":""}},{"type":"Feature","geometry":{"type":"Point","coordinates":[132.49268,33.11941]},"properties":{"name":"津島町岩松宇和島市発電所","fuel":"solar","output":""}},{"type":"Feature","geometry":{"type":"Point","coordinates":[132.49238,33.11895]},"properties":{"name":"津島町岩松宇和島市発電所","fuel":"solar","output":""}},{"type":"Feature","geometry":{"type":"Point","coordinates":[132.9066,34.33367]},"properties":{"name":"塩町三丁目竹原市発電所","fuel":"solar","output":""}},{"type":"Feature","geometry":{"type":"Point","coordinates":[133.00431,33.56657]},"properties":{"name":"久万高原町発電所","fuel":"hydro","output":""}},{"type":"Feature","geometry":{"type":"Point","coordinates":[133.68435,33.65767]},"properties":{"name":"平山発電所","fuel":"","output":""}},{"type":"Feature","geometry":{"type":"Point","coordinates":[133.61997,33.5294]},"properties":{"name":"緑ケ丘二丁目南国市発電所","fuel":"solar","output":""}},{"type":"Feature","geometry":{"type":"Point","coordinates":[133.63188,33.52999]},"properties":{"name":"三和琴平三丁目南国市発電所","fuel":"solar","output":""}},{"type":"Feature","geometry":{"type":"Point","coordinates":[133.63218,33.52984]},"properties":{"name":"浜改田南国市発電所","fuel":"solar","output":""}},{"type":"Feature","geometry":{"type":"Point","coordinates":[133.63226,33.53001]},"properties":{"name":"三和琴平三丁目南国市発電所","fuel":"solar","output":""}},{"type":"Feature","geometry":{"type":"Point","coordinates":[133.67117,33.53605]},"properties":{"name":"下島南国市発電所","fuel":"solar","output":""}},{"type":"Feature","geometry":{"type":"Point","coordinates":[133.67513,33.53556]},"properties":{"name":"下島南国市発電所","fuel":"solar","output":""}},{"type":"Feature","geometry":{"type":"Point","coordinates":[133.61163,33.53781]},"properties":{"name":"緑ケ丘一丁目南国市発電所","fuel":"solar","output":""}},{"type":"Feature","geometry":{"type":"Point","coordinates":[133.6121,33.53853]},"properties":{"name":"緑ケ丘一丁目南国市発電所","fuel":"solar","output":""}},{"type":"Feature","geometry":{"type":"Point","coordinates":[133.61272,33.5389]},"properties":{"name":"緑ケ丘一丁目南国市発電所","fuel":"solar","output":""}},{"type":"Feature","geometry":{"type":"Point","coordinates":[133.6133,33.53898]},"properties":{"name":"緑ケ丘一丁目南国市発電所","fuel":"solar","output":""}},{"type":"Feature","geometry":{"type":"Point","coordinates":[133.61386,33.53892]},"properties":{"name":"緑ケ丘一丁目南国市発電所","fuel":"solar","output":""}},{"type":"Feature","geometry":{"type":"Point","coordinates":[133.61421,33.53887]},"properties":{"name":"緑ケ丘一丁目南国市発電所","fuel":"solar","output":""}},{"type":"Feature","geometry":{"type":"Point","coordinates":[133.61468,33.53864]},"properties":{"name":"緑ケ丘一丁目南国市発電所","fuel":"solar","output":""}},{"type":"Feature","geometry":{"type":"Point","coordinates":[133.61505,33.53857]},"properties":{"name":"緑ケ丘一丁目南国市発電所","fuel":"solar","output":""}},{"type":"Feature","geometry":{"type":"Point","coordinates":[133.61533,33.53855]},"properties":{"name":"緑ケ丘一丁目南国市発電所","fuel":"solar","output":""}},{"type":"Feature","geometry":{"type":"Point","coordinates":[133.61585,33.53856]},"properties":{"name":"緑ケ丘一丁目南国市発電所","fuel":"solar","output":""}},{"type":"Feature","geometry":{"type":"Point","coordinates":[133.61623,33.53404]},"properties":{"name":"緑ケ丘一丁目南国市発電所","fuel":"solar","output":""}},{"type":"Feature","geometry":{"type":"Point","coordinates":[134.22745,34.07899]},"properties":{"name":"阿波町丸山阿波市発電所","fuel":"solar","output":""}},{"type":"Feature","geometry":{"type":"Point","coordinates":[134.23591,34.07947]},"properties":{"name":"切戸小水力発電設備","fuel":"solar","output":""}},{"type":"Feature","geometry":{"type":"Point","coordinates":[134.23204,34.08036]},"properties":{"name":"切戸小水力発電設備","fuel":"solar","output":""}},{"type":"Feature","geometry":{"type":"Point","coordinates":[134.4866,34.15073]},"properties":{"name":"川端鳴門市発電所","fuel":"solar","output":""}},{"type":"Feature","geometry":{"type":"Point","coordinates":[134.48853,34.15136]},"properties":{"name":"川端鳴門市発電所","fuel":"solar","output":""}},{"type":"Feature","geometry":{"type":"Point","coordinates":[132.62452,34.28776]},"properties":{"name":"郷原町呉市発電所","fuel":"solar","output":""}},{"type":"Feature","geometry":{"type":"Point","coordinates":[132.62481,34.28714]},"properties":{"name":"郷原町呉市発電所","fuel":"solar","output":""}},{"type":"Feature","geometry":{"type":"Point","coordinates":[132.62578,34.28681]},"properties":{"name":"郷原町呉市発電所","fuel":"solar","output":""}},{"type":"Feature","geometry":{"type":"Point","coordinates":[132.62528,34.28652]},"properties":{"name":"郷原町呉市発電所","fuel":"solar","output":""}},{"type":"Feature","geometry":{"type":"Point","coordinates":[133.71096,34.19403]},"properties":{"name":"高瀬町新名三豊市発電所","fuel":"solar","output":""}},{"type":"Feature","geometry":{"type":"Point","coordinates":[133.82567,34.32281]},"properties":{"name":"社会福祉法人鵜足津福祉会","fuel":"solar","output":""}},{"type":"Feature","geometry":{"type":"Point","coordinates":[133.71094,34.20398]},"properties":{"name":"三野町下高瀬三豊市発電所","fuel":"solar","output":""}},{"type":"Feature","geometry":{"type":"Point","coordinates":[133.8312,34.31008]},"properties":{"name":"浜九番丁宇多津町発電所","fuel":"solar","output":""}},{"type":"Feature","geometry":{"type":"Point","coordinates":[134.22505,34.08456]},"properties":{"name":"阿波町綱懸阿波市発電所","fuel":"solar","output":""}},{"type":"Feature","geometry":{"type":"Point","coordinates":[134.22477,34.08522]},"properties":{"name":"阿波町綱懸阿波市発電所","fuel":"solar","output":""}},{"type":"Feature","geometry":{"type":"Point","coordinates":[134.22427,34.08779]},"properties":{"name":"阿波町南柴生阿波市発電所","fuel":"solar","output":""}},{"type":"Feature","geometry":{"type":"Point","coordinates":[134.22686,34.09727]},"properties":{"name":"阿波町山ノ神阿波市発電所","fuel":"solar","output":""}},{"type":"Feature","geometry":{"type":"Point","coordinates":[133.25766,33.96538]},"properties":{"name":"Niihama Kita power station","fuel":"https://www.sumikyo.co.jp/equipment/heat/heat04.html","output":""}},{"type":"Feature","geometry":{"type":"Point","coordinates":[133.14485,34.3466]},"properties":{"name":"尾道市発電所","fuel":"solar","output":""}},{"type":"Feature","geometry":{"type":"Point","coordinates":[133.17082,34.34679]},"properties":{"name":"因島大浜町尾道市発電所","fuel":"solar","output":""}},{"type":"Feature","geometry":{"type":"Point","coordinates":[132.6482,33.48566]},"properties":{"name":"成能大洲市発電所","fuel":"solar","output":""}},{"type":"Feature","geometry":{"type":"Point","coordinates":[134.14322,34.06906]},"properties":{"name":"脇町脇町美馬市発電所","fuel":"solar","output":""}},{"type":"Feature","geometry":{"type":"Point","coordinates":[133.39528,33.78934]},"properties":{"name":"大川村発電所","fuel":"hydro","output":""}},{"type":"Feature","geometry":{"type":"Point","coordinates":[133.80081,33.95843]},"properties":{"name":"三好市発電所","fuel":"hydro","output":""}},{"type":"Feature","geometry":{"type":"Point","coordinates":[132.13622,34.37742]},"properties":{"name":"栗栖廿日市市発電所","fuel":"hydro","output":""}},{"type":"Feature","geometry":{"type":"Point","coordinates":[132.82224,33.8635]},"properties":{"name":"湯の山六丁目松山市発電所","fuel":"hydro","output":""}},{"type":"Feature","geometry":{"type":"Point","coordinates":[133.33257,33.66971]},"properties":{"name":"いの町発電所","fuel":"hydro","output":""}},{"type":"Feature","geometry":{"type":"Point","coordinates":[133.94877,33.52574]},"properties":{"name":"奈比賀安芸市発電所","fuel":"hydro","output":""}},{"type":"Feature","geometry":{"type":"Point","coordinates":[133.90799,33.74835]},"properties":{"name":"香美市発電所","fuel":"hydro","output":""}},{"type":"Feature","geometry":{"type":"Point","coordinates":[133.19015,33.56745]},"properties":{"name":"蕨谷仁淀川町発電所","fuel":"hydro","output":""}},{"type":"Feature","geometry":{"type":"Point","coordinates":[133.33157,33.64517]},"properties":{"name":"いの町発電所","fuel":"hydro","output":""}},{"type":"Feature","geometry":{"type":"Point","coordinates":[133.28541,33.72912]},"properties":{"name":"長沢いの町発電所","fuel":"hydro","output":""}},{"type":"Feature","geometry":{"type":"Point","coordinates":[133.30279,33.59524]},"properties":{"name":"柳瀬石見いの町発電所","fuel":"hydro","output":""}},{"type":"Feature","geometry":{"type":"Point","coordinates":[132.95541,33.33577]},"properties":{"name":"中平檮原町発電所","fuel":"hydro","output":""}},{"type":"Feature","geometry":{"type":"Point","coordinates":[132.95671,33.51506]},"properties":{"name":"久万高原町発電所","fuel":"hydro","output":""}},{"type":"Feature","geometry":{"type":"Point","coordinates":[132.96259,33.31103]},"properties":{"name":"檮原町発電所","fuel":"hydro","output":""}},{"type":"Feature","geometry":{"type":"Point","coordinates":[133.17335,33.57643]},"properties":{"name":"大崎仁淀川町発電所","fuel":"hydro","output":""}},{"type":"Feature","geometry":{"type":"Point","coordinates":[132.72635,33.0272]},"properties":{"name":"宿毛市発電所","fuel":"hydro","output":""}},{"type":"Feature","geometry":{"type":"Point","coordinates":[133.06257,33.53936]},"properties":{"name":"仁淀川町発電所","fuel":"hydro","output":""}},{"type":"Feature","geometry":{"type":"Point","coordinates":[133.10238,33.1141]},"properties":{"name":"伊与喜黒潮町発電所","fuel":"hydro","output":""}},{"type":"Feature","geometry":{"type":"Point","coordinates":[132.69566,33.43987]},"properties":{"name":"大洲市立肱川風の博物館","fuel":"hydro","output":""}},{"type":"Feature","geometry":{"type":"Point","coordinates":[132.93405,33.36381]},"properties":{"name":"豊原檮原町発電所","fuel":"hydro","output":""}},{"type":"Feature","geometry":{"type":"Point","coordinates":[132.85556,34.01159]},"properties":{"name":"菊間町中川今治市発電所","fuel":"solar","output":""}},{"type":"Feature","geometry":{"type":"Point","coordinates":[133.80879,34.29261]},"properties":{"name":"土器町東七丁目丸亀市発電所","fuel":"solar","output":""}},{"type":"Feature","geometry":{"type":"Point","coordinates":[133.93856,34.24819]},"properties":{"name":"萱原綾川町発電所","fuel":"solar","output":""}},{"type":"Feature","geometry":{"type":"Point","coordinates":[134.04825,33.46424]},"properties":{"name":"長山水力発電所","fuel":"hydro","output":""}},{"type":"Feature","geometry":{"type":"Point","coordinates":[133.69044,33.6356]},"properties":{"name":"新改発電所","fuel":"","output":""}},{"type":"Feature","geometry":{"type":"Point","coordinates":[133.21473,33.94294]},"properties":{"name":"天神西条市発電所","fuel":"solar","output":""}},{"type":"Feature","geometry":{"type":"Point","coordinates":[132.84968,34.23951]},"properties":{"name":"大崎上島町発電所","fuel":"solar","output":""}},{"type":"Feature","geometry":{"type":"Point","coordinates":[132.94283,33.81153]},"properties":{"name":"東温市発電所","fuel":"solar","output":""}},{"type":"Feature","geometry":{"type":"Point","coordinates":[132.92809,33.80029]},"properties":{"name":"東温市発電所","fuel":"solar","output":""}},{"type":"Feature","geometry":{"type":"Point","coordinates":[132.88096,33.81094]},"properties":{"name":"志津川東温市発電所","fuel":"solar","output":""}},{"type":"Feature","geometry":{"type":"Point","coordinates":[132.871,33.76725]},"properties":{"name":"東温市発電所","fuel":"solar","output":""}},{"type":"Feature","geometry":{"type":"Point","coordinates":[132.84563,33.80086]},"properties":{"name":"南梅本町松山市発電所","fuel":"solar","output":""}},{"type":"Feature","geometry":{"type":"Point","coordinates":[132.84145,33.77996]},"properties":{"name":"（株）ヒカリ太陽光発電設備","fuel":"solar","output":""}},{"type":"Feature","geometry":{"type":"Point","coordinates":[132.78713,33.91114]},"properties":{"name":"大西谷松山市発電所","fuel":"solar","output":""}},{"type":"Feature","geometry":{"type":"Point","coordinates":[132.80235,33.90119]},"properties":{"name":"松山市発電所","fuel":"solar","output":""}},{"type":"Feature","geometry":{"type":"Point","coordinates":[132.78708,33.92869]},"properties":{"name":"本谷松山市発電所","fuel":"solar","output":""}},{"type":"Feature","geometry":{"type":"Point","coordinates":[132.79193,33.92728]},"properties":{"name":"平林松山市発電所","fuel":"solar","output":""}},{"type":"Feature","geometry":{"type":"Point","coordinates":[132.81306,33.91051]},"properties":{"name":"松山市野外活動センター","fuel":"solar","output":""}},{"type":"Feature","geometry":{"type":"Point","coordinates":[133.31729,33.5163]},"properties":{"name":"加茂佐川町発電所","fuel":"solar","output":""}},{"type":"Feature","geometry":{"type":"Point","coordinates":[133.28732,33.51397]},"properties":{"name":"有限会社山崎商店","fuel":"solar","output":""}},{"type":"Feature","geometry":{"type":"Point","coordinates":[132.8088,33.8889]},"properties":{"name":"上伊台町松山市発電所","fuel":"solar","output":""}},{"type":"Feature","geometry":{"type":"Point","coordinates":[132.78445,33.96064]},"properties":{"name":"中西外松山市発電所","fuel":"solar","output":""}},{"type":"Feature","geometry":{"type":"Point","coordinates":[132.81715,33.98603]},"properties":{"name":"庄松山市発電所","fuel":"solar","output":""}},{"type":"Feature","geometry":{"type":"Point","coordinates":[132.78087,33.96544]},"properties":{"name":"中西外松山市発電所","fuel":"solar","output":""}},{"type":"Feature","geometry":{"type":"Point","coordinates":[133.00153,33.85672]},"properties":{"name":"西条市発電所","fuel":"solar","output":""}},{"type":"Feature","geometry":{"type":"Point","coordinates":[133.027,33.85854]},"properties":{"name":"丹原町志川西条市発電所","fuel":"solar","output":""}},{"type":"Feature","geometry":{"type":"Point","coordinates":[133.03398,33.96759]},"properties":{"name":"今治市発電所","fuel":"solar","output":""}},{"type":"Feature","geometry":{"type":"Point","coordinates":[133.02172,33.97287]},"properties":{"name":"今治市発電所","fuel":"solar","output":""}},{"type":"Feature","geometry":{"type":"Point","coordinates":[133.03591,33.90056]},"properties":{"name":"丹原町古田西条市発電所","fuel":"solar","output":""}},{"type":"Feature","geometry":{"type":"Point","coordinates":[132.92842,34.07362]},"properties":{"name":"大西町九王今治市発電所","fuel":"solar","output":""}},{"type":"Feature","geometry":{"type":"Point","coordinates":[132.96235,34.05784]},"properties":{"name":"阿方今治市発電所","fuel":"solar","output":""}},{"type":"Feature","geometry":{"type":"Point","coordinates":[132.89535,34.02201]},"properties":{"name":"今治市発電所","fuel":"solar","output":""}}]}